id,_id,context,core,dateupload,farm,iconfarm,iconserver,in_park,labels,owner,ownername,parkunit,secret,server,tags,title,views,latitude,longitude
3897313936,5f01fc5ff726a9c76d7574f9,0,True,1252345108,3,2,1091,True,0,84851503@N00,miraluz06,thro,5e5b582343,2474,northdakota badlands,2009-06-12-Badlands-8962,35,46.998255,-103.586867
21719518976,5f01fc5ff726a9c76d756f5c,0,True,1443324940,6,6,5608,True,0,33489638@N06,SMKapsen,thro,fe5a2e0c1a,5800,,,42,46.99828,-103.586748
8396006258,5f01fc5ff726a9c76d7572a6,0,True,1358619808,9,8,7753,True,0,8432336@N08,Clint Midwestwood,thro,b03641caa0,8514,northdakota 2012 theodorerooseveltnationalpark theodorerooseveltnationalpar,Artsy,36,46.99879,-103.586708
8394454895,5f01fc5ff726a9c76d7572a8,0,True,1358609774,9,8,7753,True,0,8432336@N08,Clint Midwestwood,thro,dc65590bf8,8355,northdakota 2012 theodorerooseveltnationalpark theodorerooseveltnationalpar,Emergence,16,46.998877,-103.586697
48770683896,5f01fc5ff726a9c76d7569b6,0,True,1569090494,66,0,0,True,0,69189768@N04,David Fann,thro,f03983ebcf,65535,dakota dakotas southunit trnp theodorerooseveltnationalpark,Susie & Petrified Wood,19,46.999263,-103.586489
7828718160,5f01fc5ff726a9c76d7572ff,0,True,1345521958,8,8,7753,True,0,8432336@N08,Clint Midwestwood,thro,96f47af1a4,7121,northdakota 2012 theodorerooseveltnationalpark theodorerooseveltnationalpar petrifiedforestlooptrail,Stump,37,46.999103999999996,-103.586461
48770886797,5f01fc5ff726a9c76d7569b5,0,True,1569090493,66,0,0,True,0,69189768@N04,David Fann,thro,235c5b901e,65535,dakota dakotas southunit trnp theodorerooseveltnationalpark,"Old ""wood""",20,46.999186,-103.586417
9284061396,5f01fc5ff726a9c76d757216,0,True,1373800803,8,8,7309,True,0,13709281@N00,BY Chu,thro,49be93dd9e,7333,nationalpark northdakota theodorerooseveltnp southunit petrifieldforesttrail,130704 Petrified Forest Trail,65,46.9992,-103.586417
48770683651,5f01fc5ff726a9c76d7569b7,0,True,1569090495,66,0,0,True,0,69189768@N04,David Fann,thro,21e9d5f602,65535,dakota dakotas southunit trnp theodorerooseveltnationalpark,"Some of the ""wood"" had rich colors.",22,46.999502,-103.586403
30150393441,5f01fc5ff726a9c76d756d48,0,True,1476104312,6,6,5516,True,0,98660017@N03,kimeslinger,thro,c927e81dc0,5537,,2016 petrified forest trip,48,46.999325,-103.586395
30121042872,5f01fc5ff726a9c76d756d4a,0,True,1476104303,9,6,5516,True,0,98660017@N03,kimeslinger,thro,82dcfef0ed,8408,,2016 petrified forest trip,51,46.999302,-103.58632
30121045352,5f01fc5ff726a9c76d756d49,0,True,1476104311,9,6,5516,True,0,98660017@N03,kimeslinger,thro,a33869626e,8603,,2016 petrified forest trip,48,46.999302,-103.58632
48770354878,5f01fc5ff726a9c76d7569b4,0,True,1569090493,66,0,0,True,0,69189768@N04,David Fann,thro,9235bf9c85,65535,dakota dakotas southunit trnp theodorerooseveltnationalpark,Petrified Forest,20,46.99913,-103.58627800000001
48770887417,5f01fc5ff726a9c76d7569b2,0,True,1569090491,66,0,0,True,0,69189768@N04,David Fann,thro,e25e012e1c,65535,dakota dakotas petrifiedforest southunit trnp theodorerooseveltnationalpark,Hiking into the Petrified Forest,16,46.999122,-103.585356
9284062014,5f01fc5ff726a9c76d757215,0,True,1373800810,6,8,7309,True,0,13709281@N00,BY Chu,thro,136656781e,5441,nationalpark northdakota theodorerooseveltnp southunit petrifieldforesttrail,130704 Petrified Forest Trail,113,47.0003,-103.5852
9281281937,5f01fc5ff726a9c76d757214,0,True,1373800818,4,8,7309,True,0,13709281@N00,BY Chu,thro,a48ee58eb3,3774,nationalpark northdakota theodorerooseveltnp southunit petrifieldforesttrail,130704 Petrified Forest Trail,318,47.0003,-103.5852
30150388461,5f01fc5ff726a9c76d756d4c,0,True,1476104298,9,6,5516,True,0,98660017@N03,kimeslinger,thro,86bdf58012,8682,,2016 petrified forest trip,46,47.000113,-103.585053
29939382280,5f01fc5ff726a9c76d756d4b,0,True,1476104298,6,6,5516,True,0,98660017@N03,kimeslinger,thro,348ea18c86,5207,,2016 petrified forest trip,49,47.000113,-103.585053
48770355063,5f01fc5ff726a9c76d7569b3,0,True,1569090492,66,0,0,True,0,69189768@N04,David Fann,thro,9c005e301d,65535,dakota dakotas southunit trnp theodorerooseveltnationalpark,In the petrified forest of the South Unit,21,46.999411,-103.58489200000001
30235944155,5f01fc5ff726a9c76d756d4d,0,True,1476104291,6,6,5516,True,0,98660017@N03,kimeslinger,thro,3a8a0cb6fe,5637,,2016 petrified forest trip,48,47.000258,-103.58465600000001
30150384341,5f01fc5ff726a9c76d756d4e,0,True,1476104286,6,6,5516,True,0,98660017@N03,kimeslinger,thro,42ab751375,5487,,2016 petrified forest trip,47,47.000277000000004,-103.584642
9281282609,5f01fc5ff726a9c76d757213,0,True,1373800826,4,8,7309,True,0,13709281@N00,BY Chu,thro,b91d59194f,3815,nationalpark northdakota theodorerooseveltnp southunit petrifieldforesttrail,130704 Petrified Forest Trail,132,47.000483,-103.58448299999999
30121036522,5f01fc5ff726a9c76d756d50,0,True,1476104281,6,6,5516,True,0,98660017@N03,kimeslinger,thro,231955ae60,5604,,2016 petrified forest trip,47,47.000427,-103.584434
3897327764,5f01fc5ff726a9c76d7574f2,0,True,1252345376,4,2,1091,True,0,84851503@N00,miraluz06,thro,3904588045,3295,northdakota badlands,2009-06-12-Badlands-9004,61,47.000544,-103.58426999999999
3896549591,5f01fc5ff726a9c76d7574f1,0,True,1252345397,4,2,1091,True,0,84851503@N00,miraluz06,thro,2f194485d3,3474,northdakota badlands,2009-06-12-Badlands-9015,67,47.000544,-103.58426999999999
9284063896,5f01fc5ff726a9c76d757212,0,True,1373800831,3,8,7309,True,0,13709281@N00,BY Chu,thro,026ecd4469,2809,cactus flower nationalpark northdakota theodorerooseveltnp southunit petrifieldforesttrail,130704 Petrified Forest Trail,140,47.000867,-103.58425
9281424013,5f01fc5ff726a9c76d757211,0,True,1373802422,6,8,7309,True,0,13709281@N00,BY Chu,thro,21ffc3f0b8,5337,nationalpark northdakota petrifieldforesttrail southunit theodorerooseveltnp,130704 Petrified Forest Trail,176,47.000867,-103.58425
30150377291,5f01fc5ff726a9c76d756d53,0,True,1476104269,6,6,5516,True,0,98660017@N03,kimeslinger,thro,04c30b54c4,5479,,2016 petrified forest trip,46,47.000347,-103.5841
9284204842,5f01fc5ff726a9c76d757210,0,True,1373802430,6,8,7309,True,0,13709281@N00,BY Chu,thro,10e7ea61de,5323,nationalpark northdakota petrifieldforesttrail southunit theodorerooseveltnp,130704 Petrified Forest Trail,256,47.0006,-103.5839
3896543251,5f01fc5ff726a9c76d7574f3,0,True,1252345276,4,2,1091,True,0,84851503@N00,miraluz06,thro,a4d111db22,3473,northdakota badlands,2009-06-12-Badlands-8990-2,39,47.000215999999995,-103.58367
3896542253,5f01fc5ff726a9c76d7574f4,0,True,1252345257,4,2,1091,True,0,84851503@N00,miraluz06,thro,bbdf6433e0,3512,northdakota badlands,2009-06-12-Badlands-8990,33,47.000215999999995,-103.58367
3896540925,5f01fc5ff726a9c76d7574f5,0,True,1252345231,3,2,1091,True,0,84851503@N00,miraluz06,thro,883f4aaaa6,2523,northdakota badlands,2009-06-12-Badlands-8988,36,47.000113,-103.583623
9281425239,5f01fc5ff726a9c76d75720f,0,True,1373802435,4,8,7309,True,0,13709281@N00,BY Chu,thro,dc4a0cdeca,3666,nationalpark northdakota petrifieldforesttrail southunit theodorerooseveltnp,130704 Petrified Forest Trail,203,47.000467,-103.583517
3896539477,5f01fc5ff726a9c76d7574f6,0,True,1252345202,4,2,1091,True,0,84851503@N00,miraluz06,thro,810a211306,3432,northdakota badlands,2009-06-12-Badlands-8984,31,46.999958,-103.58350300000001
3897316216,5f01fc5ff726a9c76d7574f8,0,True,1252345153,3,2,1091,True,0,84851503@N00,miraluz06,thro,4b0607b19b,2651,northdakota badlands,2009-06-12-Badlands-8972,34,46.99993,-103.583492
3897317336,5f01fc5ff726a9c76d7574f7,0,True,1252345175,3,2,1091,True,0,84851503@N00,miraluz06,thro,67e1743b78,2529,northdakota badlands,2009-06-12-Badlands-8978,35,46.999938,-103.583484
29939370370,5f01fc5ff726a9c76d756d52,0,True,1476104270,6,6,5516,True,0,98660017@N03,kimeslinger,thro,77b5b7ac53,5345,stumps stones textures,2016 petrified forest trip,88,47.000144,-103.58313100000001
3897331418,5f01fc5ff726a9c76d7574f0,0,True,1252345448,4,2,1091,True,0,84851503@N00,miraluz06,thro,753250cbf9,3426,northdakota badlands,2009-06-12-Badlands-9022,35,47.00078,-103.582592
20479270734,5f01fc5ff726a9c76d756ec0,0,True,1441250912,6,3,2683,True,0,47359179@N08,VFR Photography,thro,80341e856d,5747,trees tree forest landscape fossil landscapes nps stump northdakota nd badlands nationalparkservice prehistoric arid stumps fossils petrified medora fossilized badland theodorerooseveltnationalpark billingscounty peacegardenstate southunit theodorerooseveltwilderness,Standing the test of time,1133,47.001098,-103.581976
49421970927,5f01fc5ff726a9c76d756973,0,True,1579650712,66,4,3938,True,0,34645594@N07,Mark Kaletka,thro,4663104510,65535,,Petrified Forest,484,47.00103,-103.580903
29939390430,5f01fc5ff726a9c76d756d47,0,True,1476104319,6,6,5516,True,0,98660017@N03,kimeslinger,thro,8c3c5c4158,5196,,2016 petrified forest trip,46,47.000994,-103.580345
29606464283,5f01fc5ff726a9c76d756d4f,0,True,1476104284,9,6,5516,True,0,98660017@N03,kimeslinger,thro,d40ae655ff,8551,,2016 petrified forest trip,48,47.001011,-103.580345
29605697414,5f01fc5ff726a9c76d756d51,0,True,1476104279,6,6,5516,True,0,98660017@N03,kimeslinger,thro,b08d609675,5287,,2016 petrified forest trip,48,47.001011,-103.580345
229341291,5f01fc5ff726a9c76d757727,0,True,1156960930,1,1,67,True,1,81116336@N00,sirrobot,thro,dde8755e82,59,unitedstates northdakota 6kmnofmedora,P1020576.JPG,102,46.94735,-103.535005
4525228676,5f01fc5ff726a9c76d757487,0,True,1271394321,5,3,2560,True,1,19831025@N06,swirey,thro,7142eb2fc7,4033,nature outdoors midwest northdakota greatplains theodorerooseveltnationalpark littlemissouririver,Little Missouri River,577,46.948643,-103.53463
7837953594,5f01fc5ff726a9c76d7572e7,0,True,1345641534,8,8,7753,True,1,8432336@N08,Clint Midwestwood,thro,eb0e7118b8,7127,northdakota 2012 theodorerooseveltnationalpark theodorerooseveltnationalpar,Camp,99,46.949376,-103.534587
7837953714,5f01fc5ff726a9c76d7572e6,0,True,1345641536,8,8,7753,True,1,8432336@N08,Clint Midwestwood,thro,2bf5bdaa5e,7131,northdakota 2012 theodorerooseveltnationalpark theodorerooseveltnationalpar,Campsite,62,46.949376,-103.534587
3896514005,5f01fc5ff726a9c76d7574fd,0,True,1252344704,3,2,1091,True,1,84851503@N00,miraluz06,thro,f387c69b93,2466,us unitedstates northdakota badlands,2009-06-11-Badlands-8853,8,46.947505,-103.534323
8018301826,5f01fc5ff726a9c76d7572c1,0,True,1348457456,9,2,1892,True,1,32413374@N00,CJDanek,thro,aff71dce98,8169,,Campsite on the river,71,46.949002,-103.534319
8018329640,5f01fc5ff726a9c76d7572bc,0,True,1348458048,9,2,1892,True,1,32413374@N00,CJDanek,thro,46da57577a,8041,,Good morning!,59,46.949002,-103.534319
8018303962,5f01fc5ff726a9c76d7572bd,0,True,1348457504,9,2,1892,True,1,32413374@N00,CJDanek,thro,6b262fcfc6,8450,,Campsite Love,79,46.949002,-103.534319
8018302722,5f01fc5ff726a9c76d7572bf,0,True,1348457477,9,2,1892,True,1,32413374@N00,CJDanek,thro,10e5b88806,8038,,Big Dipper,62,46.949002,-103.534319
8018298511,5f01fc5ff726a9c76d7572be,0,True,1348457489,9,2,1892,True,1,32413374@N00,CJDanek,thro,e04317c5f6,8322,,Light from the nearly full moon,64,46.949002,-103.534319
8018297531,5f01fc5ff726a9c76d7572c0,0,True,1348457467,9,2,1892,True,1,32413374@N00,CJDanek,thro,5615ff1810,8454,,Better than a TV,56,46.949002,-103.534319
4217396740,5f01fc5ff726a9c76d757496,0,True,1261870151,5,3,2560,True,1,19831025@N06,swirey,thro,be6332e292,4008,northdakota theodorerooseveltnationalpark cottonwoodforest,Cottonwood Forest In Theodore Roosevelt National Park,1050,46.949149,-103.534297
15405853715,5f01fc5ff726a9c76d75706b,0,True,1412117865,3,8,7280,True,1,123840849@N03,d_jc_5,thro,7c53262393,2945,usa medora norddakota,DSC08023.jpg,73,46.948341,-103.534228
229339961,5f01fc5ff726a9c76d757728,0,True,1156960825,1,1,67,True,1,81116336@N00,sirrobot,thro,97ca4a2217,84,unitedstates northdakota 1kmeofmedora,P1020567.JPG,104,46.948231,-103.534091
7603472598,5f01fc5ff726a9c76d75732d,0,True,1342706449,9,4,3699,True,1,59525924@N05,Beaulawrence,thro,8e9d60793a,8011,film grain analog lomo retro camera vintage canon a a1 slr single lens reflex manual focus kodak ektachrome 100vs slide e6 road trip travel moving drive driving united states america usa may 2012 spring moth animal large bug flying north dakota camping teddy rosevelt park national red bathroom,Mothra,2010,46.950905999999996,-103.53404
38174182505,5f01fc5ff726a9c76d756bdc,0,True,1513276906,5,8,7420,True,1,73100763@N05,scoryell,thro,95fd8d98bc,4735,northdakota southunit theodorerooseveltnationalpark,140719-04 (2014-07-20) - 0103 - Version 2,9,46.94823,-103.53402
3818996607,5f01fc5ff726a9c76d75750c,0,True,1250222799,3,3,2560,True,1,19831025@N06,swirey,thro,7ef5e8f24c,2548,horse nature animals wildlife northdakota wildhorses theodorerooseveltnationalpark,Wild Horses In Theodore Roosevelt National Park,521,46.949511,-103.533836
3819009027,5f01fc5ff726a9c76d75750b,0,True,1250223155,3,3,2560,True,1,19831025@N06,swirey,thro,a9e3b2a02d,2626,horse nature animals wildlife northdakota wildhorse theodorerooseveltnationalpark,Wild Horse In Theodore Roosevelt National Park,406,46.949511,-103.533836
19136355185,5f01fc5ff726a9c76d756fd2,0,True,1435205983,1,0,0,True,2,25991017@N04,weizor,thro,7cebb223b7,263,panorama northdakota badlands theodorerooseveltnationalpark,pano,36,46.934027,-103.533439
15179776942,5f01fc5ff726a9c76d757088,0,True,1410193258,4,8,7466,True,1,75664878@N00,badmolar,thro,06ca49f1d0,3851,,,75,46.949096999999995,-103.533234
15768684587,5f01fc5ff726a9c76d757007,0,True,1417814373,8,8,7466,True,1,75664878@N00,badmolar,thro,254c45bd78,7527,parks2014,Parks2014 089,60,46.949172,-103.53322
15953755512,5f01fc5ff726a9c76d757008,0,True,1417814373,9,8,7466,True,1,75664878@N00,badmolar,thro,70ee03e79a,8611,parks2014,Parks2014 090,54,46.94915200000001,-103.53312
24195621682,5f01fc5ff726a9c76d756f26,0,True,1452471135,2,4,3818,True,2,100208196@N07,bdnb,thro,0263f2a7d9,1637,,Roosevelt National Park,19,46.934108,-103.533103
21237535980,5f01fc5ff726a9c76d756f63,0,True,1442281015,6,66,65535,True,2,96225726@N08,howderfamily.com,thro,710ccbe222,5617,northdakota billings medora theodorerooseveltnationalpark,Theodore Roosevelt National Park,113,46.934,-103.53309499999999
36469105413,5f01fc5ff726a9c76d756bf9,0,True,1505665004,5,3,2863,True,2,13363765@N00,vapspwi,thro,332e5834a7,4344,theodoreroosevelt nationalpark northdakota southunit badlands sunset,Sunset Panorama,40,46.934077,-103.533067
4992187794,5f01fc5ff726a9c76d757403,0,True,1284521408,5,1,10,True,1,26406919@N00,Unhindered by Talent,thro,a6efb5e53b,4104,morning camping tent hills northdakota badlands theadorerooseveltnationalpark usabadlandsbisoncampinggrasslandlittlemissourinationalgrasslandnationalparkparkprairieprairiedogsrooseveltnationalparktenttheodorerooseveltnationalparknorthdakotausa,It's still fairly clean at this point,1627,46.949196,-103.53305300000001
21237775988,5f01fc5ff726a9c76d756f62,0,True,1442281014,1,66,65535,True,2,96225726@N08,howderfamily.com,thro,a2c6d38b06,685,northdakota billings medora theodorerooseveltnationalpark,Theodore Roosevelt National Park,119,46.934022,-103.533048
43795990622,5f01fc5ff726a9c76d756b7f,0,True,1533398239,2,6,5472,True,2,9297241@N02,aparlette,thro,4e07fce258,1800,bluesky bluehour landscape sunset clouds theodorerooseveltnationalpark twilight greatplains2018 rvroadtrip nationalpark vacation butte circularpolarizer prairie dusk grassland roadtrip trnp theodoreroosevelt medora northdakota unitedstates us,Sunset Over the North Dakota Badlands,451,46.934155,-103.533045
37141072421,5f01fc5ff726a9c76d756bf8,0,True,1505665004,5,3,2863,True,2,13363765@N00,vapspwi,thro,9bf0c4f3fa,4357,theodoreroosevelt nationalpark northdakota southunit badlands sunset i94,Sunset,31,46.934063,-103.53304200000001
4817942905,5f01fc5ff726a9c76d757478,0,True,1279812903,5,1,10,True,2,26406919@N00,Unhindered by Talent,thro,764784a7bf,4120,park evening nationalpark highway path trail interstate i94 theodorerooseveltnationalpark badlandsnorthdakotausa westcoastroadtripjuly2010,Not all the trails are yet paved,1594,46.934166,-103.533
842457776,5f01fc5ff726a9c76d757666,0,True,1184725196,2,1,57,True,2,97856361@N00,istargazer,thro,0636731355,1025,people children landscape roadtrip northdakota badlands,The Badlands in North Dakota,404,46.934112,-103.532933
7838021460,5f01fc5ff726a9c76d7572e4,0,True,1345642318,9,8,7753,True,2,8432336@N08,Clint Midwestwood,thro,51e4c87a47,8432,northdakota theodorerooseveltnationalpark,Day's End,29,46.934160999999996,-103.53282800000001
48770279576,5f01fc5ff726a9c76d7569e5,0,True,1569085259,66,4,3711,True,2,33776458@N05,pdiehl85,thro,8bb936e602,65535,,IMG_1298,3,46.933699,-103.532753
10832380146,5f01fc5ff726a9c76d7571aa,0,True,1384322207,4,8,7343,True,1,58495284@N04,laurakbalke,thro,c8a2f7da63,3791,uploaded:by=flickrmobile flickriosapp:filter=nofilter,Honeymoon,40,46.949166,-103.532667
21399358816,5f01fc5ff726a9c76d756f61,0,True,1442281013,6,66,65535,True,2,96225726@N08,howderfamily.com,thro,587a8f90be,5733,northdakota billings medora theodorerooseveltnationalpark,Theodore Roosevelt National Park,106,46.933827,-103.532639
21414678622,5f01fc5ff726a9c76d756f60,0,True,1442281012,6,66,65535,True,2,96225726@N08,howderfamily.com,thro,f6fc3d0901,5714,northdakota billings medora theodorerooseveltnationalpark,Theodore Roosevelt National Park,105,46.933816,-103.53263100000001
6077989604,5f01fc5ff726a9c76d7573b0,0,True,1314222854,7,9,8542,True,1,72809415@N00,nsfmc,thro,9db405d150,6081,square squareformat brannan iphoneography instagramapp uploaded:by=instagram foursquare:venue=4e2b2d8ca809f1b1640d3bdd,Teddy Roosevelt National Park,342,46.949348,-103.532569
24194302947,5f01fc5ff726a9c76d756bdd,0,True,1513276908,5,8,7420,True,1,73100763@N05,scoryell,thro,c19576c5a1,4579,northdakota southunit theodorerooseveltnationalpark,140719-04 (2014-07-20) - 0105,12,46.948966,-103.532562
5966962080,5f01fc5ff726a9c76d7573e0,0,True,1311427003,7,6,5560,True,1,46514221@N03,Dawn Coyote,thro,991a41cf08,6132,nationalpark northdakota vireo redeyedvireo theodorerooseveltnationalpark vacation2011,Warbling Vireo (Vireo gilvus),53,46.949855,-103.532529
5966408029,5f01fc5ff726a9c76d7573df,0,True,1311427063,7,6,5560,True,1,46514221@N03,Dawn Coyote,thro,83ed220ca7,6007,birds nationalpark sparrow northdakota chippingsparrow theodorerooseveltnationalpark vacation2011,Chipping Sparrow,54,46.949855,-103.532529
2328933906,5f01fc5ff726a9c76d7576e9,0,True,1205320376,3,6,5459,True,1,58518845@N00,Robby Edwards,thro,c7214ccbb7,2039,vacation nationalpark northdakota theodoreroosevelt theodorerooseveltnationalpark southunit,Lonely Tree on a Hill,206,46.944878,-103.53250600000001
10832000956,5f01fc5ff726a9c76d7571c8,0,True,1384320021,6,8,7343,True,1,58495284@N04,laurakbalke,thro,c4edaef472,5472,uploaded:by=flickrmobile flickriosapp:filter=nofilter,Honeymoon,44,46.949166,-103.5325
10832310896,5f01fc5ff726a9c76d7571b6,0,True,1384321784,8,8,7343,True,1,58495284@N04,laurakbalke,thro,224843e680,7460,uploaded:by=flickrmobile flickriosapp:filter=nofilter,Honeymoon,46,46.949333,-103.5325
4987108294,5f01fc5ff726a9c76d757405,0,True,1284393623,5,1,10,True,1,26406919@N00,Unhindered by Talent,thro,5c7cabab41,4090,camping usa night dark tent northdakota theadorerooseveltnationalpark westcoastroadtripjuly2010,The colors of music,968,46.948995000000004,-103.532474
10832111014,5f01fc5ff726a9c76d7571c9,0,True,1384319990,6,8,7343,True,1,58495284@N04,laurakbalke,thro,d3e801c81b,5517,uploaded:by=flickrmobile flickriosapp:filter=nofilter,Honeymoon,42,46.949333,-103.53233399999999
4836684350,5f01fc5ff726a9c76d757474,0,True,1280287512,5,1,10,True,1,26406919@N00,Unhindered by Talent,thro,8798c98c35,4149,park camping usa nationalpark tent northdakota prairiedogs badlands prairie bison grassland rooseveltnationalpark theodorerooseveltnationalpark littlemissourinationalgrassland westcoastroadtripjuly2010,A beautiful place to spend the night,4669,46.948995000000004,-103.532323
4867347439,5f01fc5ff726a9c76d757467,0,True,1281153456,5,5,4023,True,1,47818828@N05,K*Adams,thro,6a63f5d25c,4093,park horse ride teddy north roosevelt trail national dakota 090624,Trail Ride,43,46.950269,-103.532023
4867345095,5f01fc5ff726a9c76d757468,0,True,1281153377,5,5,4023,True,1,47818828@N05,K*Adams,thro,8d5b38dc11,4096,park horse ride teddy north roosevelt trail national dakota 090624,Trail Ride,57,46.950269,-103.532023
4867958108,5f01fc5ff726a9c76d757469,0,True,1281153308,5,5,4023,True,1,47818828@N05,K*Adams,thro,9b5e8c1b0c,4077,park horse ride teddy north roosevelt trail national dakota 090624,Trail Ride,69,46.950269,-103.532023
4867340937,5f01fc5ff726a9c76d75746a,0,True,1281153238,5,5,4023,True,1,47818828@N05,K*Adams,thro,7d21c2be71,4120,park horse ride teddy north roosevelt trail national dakota 090624,Trail Ride,53,46.950269,-103.532023
7608785606,5f01fc5ff726a9c76d757275,0,True,1342781630,8,4,3699,True,1,59525924@N05,Beaulawrence,thro,6d1a9a3bea,7275,road camera trip travel camping camp food usa slr film cooking analog america canon vintage lens fire drive moving reflex spring lomo corn focus driving kodak united grain may slide bbq retro delicious steak single barbeque a1 states manual ektachrome e6 2012 100vs a,summer dinner,3184,46.95073,-103.532023
32668341557,5f01fc5ff726a9c76d756ac7,0,True,1555289975,8,6,5565,True,1,14723335@N05,thor_mark ,thro,5b486b6365,7889,alongroadside alongscenicloopdrive azimuth305 blueskies bluffs capturenx2edited colorefexpro cottonwoodtrees day6 grassland grassyarea grassyfield grassymeadow greatplains landscape layersofrock lookingnw mixedgrassprairieecosystem nature nikond800e northamericaplains northernusgreatplains outside portfolio prairiegrass prairiegrasses project365 riverwoodlandoverlook roadsidepulloff roadsidestop rollinghillsides sedimentarylayers southunit sunny theodorerooseveltnationalpark theodorerooseveltnationalparksouthunit trees triptodakotas triptodakotasandwyoming westcentraldakotaplains northdakota unitedstates,Sunset Landscape (Theodore Roosevelt National Park),1334,46.945266,-103.531984
30062099787,5f01fc5ff726a9c76d756add,0,True,1538273794,2,6,5565,True,1,14723335@N05,thor_mark ,thro,4cbe67fbc7,1961,alongroadside alongscenicloopdrive azimuth305 blueskies bluffs capturenx2edited colorefexpro cottonwoodtrees day6 grassland grassyarea grassyfield grassymeadow greatplains landscape layersofrock lookingnw mixedgrassprairieecosystem nature nikond800e northamericaplains northernusgreatplains outside portfolio prairiegrass prairiegrasses project365 riverwoodlandoverlook roadsidepulloff roadsidestop rollinghillsides sedimentarylayers southunit sunny theodorerooseveltnationalpark theodorerooseveltnationalparksouthunit trees triptodakotas triptodakotasandwyoming westcentraldakotaplains northdakota unitedstates,Theodore Roosevelt Wilderness Beyond the Bluffs in the Distance and Along the Little Missouri River (Theodore Roosevelt National Park),1961,46.945266,-103.531984
46680307965,5f01fc5ff726a9c76d756a32,0,True,1555117431,8,6,5565,True,1,14723335@N05,thor_mark ,thro,fb06f51051,7916,alongroadside alongscenicloopdrive azimuth347 blueskies bluffs capturenx2edited colorefexpro cottonwoodtrees day6 freeversepoetry grassland grassyarea grassyfield grassymeadow greatplains landscape layersofrock lookingnorth mixedgrassprairieecosystem nature nikond800e northamericaplains northernusgreatplains outside poemsused poetryandprose prairiegrass prairiegrasses project365 riverwoodlandoverlook roadsidepulloff roadsidestop rollinghillsides sedimentarylayers southunit sunny theodorerooseveltnationalpark theodorerooseveltnationalparksouthunit trees triptodakotas triptodakotasandwyoming westcentraldakotaplains northdakota unitedstates,I Walked Under the Cottonwoods in the Merry Month of May (Theodore Roosevelt National Park),1543,46.945266,-103.531984
15219189230,5f01fc5ff726a9c76d75706c,0,True,1412117850,3,8,7280,True,1,123840849@N03,d_jc_5,thro,cd382dbcdc,2949,usa medora norddakota,DSC08027.jpg,90,46.949661,-103.53197
842459070,5f01fc5ff726a9c76d7576f8,0,True,1184725209,2,1,57,True,2,97856361@N00,istargazer,thro,06289a2272,1242,roadtrip,odyssey-in-grass,204,46.934389,-103.531963
32212514973,5f01fc5ff726a9c76d756d25,0,True,1487655647,3,4,3946,True,1,152191919@N08,Elinor2650,thro,e640d5ef5f,2136,medora northdakota unitedstates us,IMG_6525.jpg,9,46.945294,-103.53193900000001
48286546866,5f01fc5ff726a9c76d756a76,0,True,1563160609,66,5,4188,True,1,67164820@N06,foxtail_1,thro,1a0ebddb37,65535,panasoniclumixg9 panasonicg9 lumixg9 panasoniclumix100400 theodorerooseveltnationalpark nationalpark ferruginoushawk hawk buteoregalis,ferruginous hawk 1,120,46.946121999999995,-103.53191600000001
48286650257,5f01fc5ff726a9c76d756a75,0,True,1563160608,66,5,4188,True,1,67164820@N06,foxtail_1,thro,1100180001,65535,panasoniclumixg9 panasonicg9 lumixg9 panasoniclumix100400 theodorerooseveltnationalpark nationalpark ferruginoushawk hawk buteoregalis,ferruginous hawk 2,97,46.946121999999995,-103.53191600000001
48286551011,5f01fc5ff726a9c76d756a74,0,True,1563160608,66,5,4188,True,1,67164820@N06,foxtail_1,thro,db1cbeceef,65535,panasoniclumixg9 panasonicg9 lumixg9 panasoniclumix100400 theodorerooseveltnationalpark nationalpark ferruginoushawk hawk buteoregalis,ferruginous hawk 3,90,46.946121999999995,-103.53191600000001
48829589221,5f01fc5ff726a9c76d756995,0,True,1569976079,66,6,5596,True,2,83861343@N08,h willome,thro,2d7d478d04,65535,2019 northdakota theodorerooseveltnationalpark southunit,south unit view with sunflowers,261,46.93548,-103.531873
7838021368,5f01fc5ff726a9c76d7572e5,0,True,1345642317,9,8,7753,True,2,8432336@N08,Clint Midwestwood,thro,5a752632fd,8283,northdakota 2012 theodorerooseveltnationalpark theodorerooseveltnationalpar,Interstate,155,46.934396,-103.531819
4819144111,5f01fc5ff726a9c76d757477,0,True,1279843039,5,1,10,True,2,26406919@N00,Unhindered by Talent,thro,6ae563aa2a,4116,flowers evening seeds grasses prairie grassland nativeplants greatplains wildplants theodorerooseveltnationalpark littlemissourinationalgrassland westcoastroadtripjuly2010,Life in the North Dakota badlands,2585,46.934666,-103.531667
841589549,5f01fc5ff726a9c76d757665,0,True,1184725214,2,1,57,True,2,97856361@N00,istargazer,thro,bb02ec3f94,1328,roadtrip,theodore-roosevelt-park,186,46.935548,-103.531645
13899057103,5f01fc5ff726a9c76d7570f9,0,True,1397670993,8,8,7333,True,2,66733752@N00,Jasperdo,thro,7def6960de,7432,landscape scenery nps roadtrip northdakota badlands nationalparkservice theodorerooseveltnationalpark southunit,Theodore Roosevelt National Park,468,46.935348,-103.531637
13898847075,5f01fc5ff726a9c76d75710e,0,True,1397670995,8,8,7333,True,2,66733752@N00,Jasperdo,thro,ecf6935183,7331,landscape scenery nps roadtrip northdakota badlands nationalparkservice theodorerooseveltnationalpark southunit,Theodore Roosevelt National Park,998,46.935348,-103.531637
13898851855,5f01fc5ff726a9c76d75710d,0,True,1397670994,8,8,7333,True,2,66733752@N00,Jasperdo,thro,2d5edb9471,7322,landscape scenery nps roadtrip northdakota badlands nationalparkservice theodorerooseveltnationalpark southunit,Theodore Roosevelt National Park,759,46.935348,-103.531637
13899409804,5f01fc5ff726a9c76d7570f8,0,True,1397670992,6,8,7333,True,2,66733752@N00,Jasperdo,thro,645a4c343c,5031,landscape scenery nps roadtrip northdakota badlands nationalparkservice theodorerooseveltnationalpark southunit,Theodore Roosevelt National Park,637,46.935348,-103.531637
24312328263,5f01fc5ff726a9c76d756f0a,0,True,1455119290,2,9,8130,True,1,21874566@N07,RuggyBearLA,thro,7962e669d6,1703,us nationalpark unitedstates northdakota badlands bison belfield medora theodoreroosevelt,Theodore Roosevelt National Park,86,46.945516,-103.531631
515874963,5f01fc5ff726a9c76d757715,0,True,1180261658,1,1,16,True,1,35457205@N00,Snake Oil Pete,thro,cda07ec52f,199,buffalo northdakota theodorerooseveltnationalpark summervember summervember97bc,buffaloz,79,46.949881,-103.531594
30063221186,5f01fc5ff726a9c76d756d7d,0,True,1475529488,6,8,7295,True,1,15922697@N03,Forrest Pearson,thro,8b76da69f2,5350,trnpnationalparknorthdakota sunset camping,Watching the Sunset,271,46.949712,-103.531465
804198216,5f01fc5ff726a9c76d757667,0,True,1184379252,2,1,57,True,2,97856361@N00,istargazer,thro,f4ff655d55,1391,flower grass nikon roadtrip wish geotag,Circle among lines,243,46.935292,-103.531353
9366289315,5f01fc5ff726a9c76d757202,0,True,1374790893,6,4,3684,True,2,46821873@N04,Vfrow,thro,d31d2b407b,5513,,Theodore Roosevelt National Park-North Dakota,107,46.936894,-103.53133100000001
21237774388,5f01fc5ff726a9c76d756f64,0,True,1442281015,6,66,65535,True,2,96225726@N08,howderfamily.com,thro,b1c5b21eb3,5667,northdakota billings medora theodorerooseveltnationalpark,Butterfly Collection,95,46.935202000000004,-103.531328
2785387856,5f01fc5ff726a9c76d7576d4,0,True,1219355137,4,8,7448,True,2,74471986@N00,mjblanchard,thro,74e5e12533,3190,northdakota badlands theodorerooseveltnationalpark teddyrooseveltnationalpark,,59,46.935445,-103.53124
9366287909,5f01fc5ff726a9c76d757205,0,True,1374790892,6,4,3684,True,2,46821873@N04,Vfrow,thro,ed03863a04,5483,,Theodore Roosevelt National Park-North Dakota,116,46.936417999999996,-103.53124
9369067102,5f01fc5ff726a9c76d757204,0,True,1374790892,4,4,3684,True,2,46821873@N04,Vfrow,thro,b0ee574924,3737,,Theodore Roosevelt National Park-North Dakota,110,46.936491,-103.53121800000001
30721416596,5f01fc5ff726a9c76d756d3d,0,True,1478198553,6,66,65535,True,1,68771326@N07,Mike Richart,thro,6b310cc3f7,5655,trnp northdakota badlands tourist scenic girls roosevelt,DSC02001,277,46.9499,-103.531017
4014836665,5f01fc5ff726a9c76d7574b0,0,True,1255650424,3,66,65535,True,1,32005048@N06,Arthur Chapman,thro,cae77699ae,2585,usa birds unitedstatesofamerica aves northdakota swallow barnswallow hirundorustica medora rustica hirundo theodorerooseveltnationalpark taxonomy:order=passeriformes taxonomy:class=aves taxonomy:kingdom=animalia taxonomy:phylum=chordata geo:country=unitedstatesofamerica taxonomy:genus=hirundo taxonomy:binomial=hirundorustica taxonomy:common=barnswallow geocode:method=googleearth geocode:accuracy=100meters taxonomy:family=hirundiniddae,Hirundo rustica (Barn Swallow) - Juvenile,612,46.947559999999996,-103.53096
4014837445,5f01fc5ff726a9c76d7574af,0,True,1255650453,4,66,65535,True,1,32005048@N06,Arthur Chapman,thro,2b5430478f,3505,usa birds unitedstatesofamerica aves northdakota swallow barnswallow hirundorustica medora rustica hirundo theodorerooseveltnationalpark taxonomy:order=passeriformes taxonomy:class=aves taxonomy:kingdom=animalia taxonomy:phylum=chordata geo:country=unitedstatesofamerica taxonomy:genus=hirundo taxonomy:binomial=hirundorustica taxonomy:common=barnswallow geocode:method=googleearth geocode:accuracy=100meters taxonomy:family=hirundiniddae,Hirundo rustica (Barn Swallow) - Juveniles,583,46.947559999999996,-103.53096
4014838889,5f01fc5ff726a9c76d7574ae,0,True,1255650500,3,66,65535,True,1,32005048@N06,Arthur Chapman,thro,5e0e05f7ca,2638,usa birds unitedstatesofamerica aves northdakota swallow barnswallow hirundorustica medora rustica hirundo theodorerooseveltnationalpark taxonomy:order=passeriformes taxonomy:class=aves taxonomy:kingdom=animalia taxonomy:phylum=chordata geo:country=unitedstatesofamerica taxonomy:genus=hirundo taxonomy:binomial=hirundorustica taxonomy:common=barnswallow geocode:method=googleearth geocode:accuracy=100meters taxonomy:family=hirundiniddae,Hirundo rustica (Barn Swallow) - Juveniles,705,46.947559999999996,-103.53096
9284757209,5f01fc5ff726a9c76d75720b,0,True,1373831372,6,4,3684,True,2,46821873@N04,Vfrow,thro,54f19ee5fe,5549,,Prairie Dog Alert-Theodore Roosevelt National Park-North Dakota,98,46.93627100000001,-103.530939
15157095546,5f01fc5ff726a9c76d757096,0,True,1410193100,4,8,7466,True,1,75664878@N00,badmolar,thro,feee63afac,3860,,,60,46.948097,-103.530937
9366288427,5f01fc5ff726a9c76d757203,0,True,1374790893,6,4,3684,True,2,46821873@N04,Vfrow,thro,2e6486293a,5548,,Theodore Roosevelt National Park,102,46.936506,-103.530896
42543247675,5f01fc5ff726a9c76d756b80,0,True,1531754630,2,6,5472,True,1,9297241@N02,aparlette,thro,a2f414d705,1805,landscape butte theodorerooseveltnationalpark nationalpark vacation rockformation prairie clouds bluesky grassland rock trnp theodoreroosevelt medora northdakota unitedstates us,The Prairie and the Buttes,433,46.949583000000004,-103.530862
4015525321,5f01fc5ff726a9c76d757413,0,True,1255672653,4,66,65535,True,1,32005048@N06,Arthur Chapman,thro,8116b9c10d,3511,usa birds unitedstatesofamerica aves northdakota medora chippingsparrow spizellapasserina theodorerooseveltnationalpark passerina spizella taxonomy:order=passeriformes taxonomy:class=aves taxonomy:kingdom=animalia taxonomy:phylum=chordata geo:country=unitedstatesofamerica taxonomy:family=emberizidae taxonomy:binomial=spizellapasserina taxonomy:genus=spizella taxonomy:common=chippingsparrow geocode:method=gps geocode:accuracy=100meters,Spizella passerina (Chipping Sparrows),328,46.9474,-103.5308
4016270704,5f01fc5ff726a9c76d7574a8,0,True,1255671904,3,66,65535,True,1,32005048@N06,Arthur Chapman,thro,f523bf0250,2773,usa birds unitedstatesofamerica aves northdakota medora chippingsparrow spizellapasserina lazulibunting theodorerooseveltnationalpark passerina spizella passerinaamoena amoena taxonomy:order=passeriformes taxonomy:class=aves taxonomy:kingdom=animalia taxonomy:phylum=chordata geo:country=unitedstatesofamerica taxonomy:family=emberizidae taxonomy:binomial=spizellapasserina taxonomy:genus=spizella taxonomy:common=chippingsparrow taxonomy:family=cardinalidae geocode:method=gps geocode:accuracy=100meters taxonomy:binomial=passerinaamoena taxonomy:common=lazulibunting taxonomy:genus=passerina,Mixed birds,520,46.9474,-103.5308
4015429825,5f01fc5ff726a9c76d7574ab,0,True,1255668897,3,66,65535,True,1,32005048@N06,Arthur Chapman,thro,2278f244c9,2768,usa birds unitedstatesofamerica aves northdakota cedarwaxwing medora bombycillacedrorum bombycilla cedrorum theodorerooseveltnationalpark bombycillidae taxonomy:class=aves geo:country=unitedstatesofamerica taxonomy:family=bombycillidae taxonomy:binomial=bombycillacedrorum geocode:method=gps geocode:accuracy=100meters taxonomy:genus=bombycilla taxonomy:common=cedarwaxwing,Bombycilla cedrorum (Cedar Waxwing),372,46.9474,-103.5308
4015178515,5f01fc5ff726a9c76d7574ad,0,True,1255660683,3,66,65535,True,1,32005048@N06,Arthur Chapman,thro,2e31953b5e,2764,usa birds unitedstatesofamerica aves northdakota americanrobin turdus migratorius medora turdusmigratorius theodorerooseveltnationalpark taxonomy:order=passeriformes taxonomy:class=aves taxonomy:kingdom=animalia taxonomy:phylum=chordata geo:country=unitedstatesofamerica taxonomy:family=turdidae taxonomy:genus=turdus geocode:method=gps geocode:accuracy=100meters taxonomy:binomial=turdusmigratorius taxonomy:common=americanrobin,Turdus migratorius (American Robin) - Juvenile,497,46.9474,-103.5308
4016269760,5f01fc5ff726a9c76d7574a9,0,True,1255671867,3,66,65535,True,1,32005048@N06,Arthur Chapman,thro,939f24e3e4,2771,usa birds unitedstatesofamerica aves northdakota medora lazulibunting theodorerooseveltnationalpark passerina passerinaamoena amoena taxonomy:order=passeriformes taxonomy:class=aves taxonomy:kingdom=animalia taxonomy:phylum=chordata geo:country=unitedstatesofamerica taxonomy:family=cardinalidae geocode:method=gps geocode:accuracy=100meters taxonomy:binomial=passerinaamoena taxonomy:common=lazulibunting taxonomy:genus=passerina,Passerina amoena (Lazuli Bunting) - female,542,46.9474,-103.5308
4016269760,5f01fc5ff726a9c76d757415,0,True,1255671867,3,66,65535,True,1,32005048@N06,Arthur Chapman,thro,939f24e3e4,2771,usa birds unitedstatesofamerica aves northdakota medora lazulibunting theodorerooseveltnationalpark passerina passerinaamoena amoena taxonomy:order=passeriformes taxonomy:class=aves taxonomy:kingdom=animalia taxonomy:phylum=chordata geo:country=unitedstatesofamerica taxonomy:family=cardinalidae geocode:method=gps geocode:accuracy=100meters taxonomy:binomial=passerinaamoena taxonomy:common=lazulibunting taxonomy:genus=passerina,Passerina amoena (Lazuli Bunting) - female,542,46.9474,-103.5308
4016270704,5f01fc5ff726a9c76d757414,0,True,1255671904,3,66,65535,True,1,32005048@N06,Arthur Chapman,thro,f523bf0250,2773,usa birds unitedstatesofamerica aves northdakota medora chippingsparrow spizellapasserina lazulibunting theodorerooseveltnationalpark passerina spizella passerinaamoena amoena taxonomy:order=passeriformes taxonomy:class=aves taxonomy:kingdom=animalia taxonomy:phylum=chordata geo:country=unitedstatesofamerica taxonomy:family=emberizidae taxonomy:binomial=spizellapasserina taxonomy:genus=spizella taxonomy:common=chippingsparrow taxonomy:family=cardinalidae geocode:method=gps geocode:accuracy=100meters taxonomy:binomial=passerinaamoena taxonomy:common=lazulibunting taxonomy:genus=passerina,Mixed birds,520,46.9474,-103.5308
4016269586,5f01fc5ff726a9c76d7574aa,0,True,1255671861,3,66,65535,True,1,32005048@N06,Arthur Chapman,thro,f790afe86a,2585,usa birds unitedstatesofamerica aves northdakota medora chippingsparrow spizellapasserina theodorerooseveltnationalpark passerina spizella taxonomy:order=passeriformes taxonomy:class=aves taxonomy:kingdom=animalia taxonomy:phylum=chordata geo:country=unitedstatesofamerica taxonomy:family=emberizidae taxonomy:binomial=spizellapasserina taxonomy:genus=spizella taxonomy:common=chippingsparrow geocode:method=gps geocode:accuracy=100meters,Spizella passerina (Chipping Sparrows),324,46.9474,-103.5308
4015178795,5f01fc5ff726a9c76d7574ac,0,True,1255660690,3,66,65535,True,1,32005048@N06,Arthur Chapman,thro,38c39aca6e,2668,usa birds unitedstatesofamerica aves northdakota americanrobin turdus migratorius medora turdusmigratorius theodorerooseveltnationalpark taxonomy:order=passeriformes taxonomy:class=aves taxonomy:kingdom=animalia taxonomy:phylum=chordata geo:country=unitedstatesofamerica taxonomy:family=turdidae taxonomy:genus=turdus geocode:method=gps geocode:accuracy=100meters taxonomy:binomial=turdusmigratorius taxonomy:common=americanrobin,Turdus migratorius (American Robin) - Juvenile,520,46.9474,-103.5308
4016269586,5f01fc5ff726a9c76d757416,0,True,1255671861,3,66,65535,True,1,32005048@N06,Arthur Chapman,thro,f790afe86a,2585,usa birds unitedstatesofamerica aves northdakota medora chippingsparrow spizellapasserina theodorerooseveltnationalpark passerina spizella taxonomy:order=passeriformes taxonomy:class=aves taxonomy:kingdom=animalia taxonomy:phylum=chordata geo:country=unitedstatesofamerica taxonomy:family=emberizidae taxonomy:binomial=spizellapasserina taxonomy:genus=spizella taxonomy:common=chippingsparrow geocode:method=gps geocode:accuracy=100meters,Spizella passerina (Chipping Sparrows),324,46.9474,-103.5308
4015525321,5f01fc5ff726a9c76d7574a7,0,True,1255672653,4,66,65535,True,1,32005048@N06,Arthur Chapman,thro,8116b9c10d,3511,usa birds unitedstatesofamerica aves northdakota medora chippingsparrow spizellapasserina theodorerooseveltnationalpark passerina spizella taxonomy:order=passeriformes taxonomy:class=aves taxonomy:kingdom=animalia taxonomy:phylum=chordata geo:country=unitedstatesofamerica taxonomy:family=emberizidae taxonomy:binomial=spizellapasserina taxonomy:genus=spizella taxonomy:common=chippingsparrow geocode:method=gps geocode:accuracy=100meters,Spizella passerina (Chipping Sparrows),328,46.9474,-103.5308
22389307476,5f01fc5ff726a9c76d756f50,0,True,1445624426,6,4,3679,True,1,28190244@N08,edleckert,thro,aef6ea0570,5812,color horizontal night photography nationalpark day unitedstates telephone payphone northdakota northamerica telephonebooth lateafternoon theodorerooseveltnationalpark midwestusa,"Go Ahead, Make That Call, Theodore Roosevelt National Park, North Dakota",341,46.9497,-103.530592
48286572567,5f01fc5ff726a9c76d756a7b,0,True,1563159737,66,5,4188,True,1,67164820@N06,foxtail_1,thro,67f6baef8e,65535,blacktailedprairiedog cynomysludovicianus prairiedog theodorerooseveltnationalpark nationalpark northdakota lumixg9 panasonicg9 panasoniclumixg9 panasoniclumix100400,prairie dog 1,47,46.946627,-103.530553
48286577302,5f01fc5ff726a9c76d756a79,0,True,1563159735,66,5,4188,True,1,67164820@N06,foxtail_1,thro,185cebbf56,65535,blacktailedprairiedog cynomysludovicianus prairiedog theodorerooseveltnationalpark nationalpark northdakota lumixg9 panasonicg9 panasoniclumixg9 panasoniclumix100400,synchrony,45,46.946627,-103.530553
48286580982,5f01fc5ff726a9c76d756a77,0,True,1563159733,66,5,4188,True,1,67164820@N06,foxtail_1,thro,70bc86c44c,65535,blacktailedprairiedog cynomysludovicianus prairiedog theodorerooseveltnationalpark nationalpark northdakota lumixg9 panasonicg9 panasoniclumixg9 panasoniclumix100400,perfect pitch,62,46.946627,-103.530553
48286574262,5f01fc5ff726a9c76d756a7a,0,True,1563159736,66,5,4188,True,1,67164820@N06,foxtail_1,thro,bb2fc43d1a,65535,blacktailedprairiedog cynomysludovicianus prairiedog theodorerooseveltnationalpark nationalpark northdakota lumixg9 panasonicg9 panasoniclumixg9 panasoniclumix100400,prairie dog 2,48,46.946627,-103.530553
48286662537,5f01fc5ff726a9c76d756a72,0,True,1563160606,66,5,4188,True,1,67164820@N06,foxtail_1,thro,e2ae014c31,65535,panasoniclumixg9 panasonicg9 lumixg9 panasoniclumix100400 theodorerooseveltnationalpark nationalpark blacktailedprairiedog cynomysludovicianus prairiedog,digger,53,46.946627,-103.530553
48286578947,5f01fc5ff726a9c76d756a78,0,True,1563159734,66,5,4188,True,1,67164820@N06,foxtail_1,thro,ee5d2685fc,65535,blacktailedprairiedog cynomysludovicianus prairiedog theodorerooseveltnationalpark nationalpark northdakota lumixg9 panasonicg9 panasoniclumixg9 panasoniclumix100400,young prairie dog,49,46.946627,-103.530553
48286656812,5f01fc5ff726a9c76d756a73,0,True,1563160607,66,5,4188,True,1,67164820@N06,foxtail_1,thro,aee4cfcde8,65535,panasoniclumixg9 panasonicg9 lumixg9 panasoniclumix100400 theodorerooseveltnationalpark nationalpark blacktailedprairiedog cynomysludovicianus prairiedog,prairie dog 4,60,46.946627,-103.530553
48154809332,5f01fc5ff726a9c76d756a94,0,True,1561843613,66,5,4188,True,1,67164820@N06,foxtail_1,thro,9264bc64bf,65535,,Singing out!,60,46.946627,-103.530553
31100214972,5f01fc5ff726a9c76d756d3a,0,True,1480132522,6,2,1852,True,2,25273938@N03,ap0013,thro,cd097e0950,5698,interstate highway 94 medora north dakota badlands theodore roosevelt national park trnp interstate94 northdakota medoranorthdakota interstatehighway unitedstates,Interstate 94,761,46.934625,-103.53047
6789760588,5f01fc5ff726a9c76d757370,0,True,1330370107,8,2,1084,True,1,8816609@N05,yarnzombie,thro,d87d8bd166,7194,park 120 tlr rollei xpro buffalo cross teddy north roosevelt september national medium format process bison dakota yashica theodore yashicamat c41 2011 cr200 digibase,"And again, another bison",662,46.948488,-103.529762
6789757454,5f01fc5ff726a9c76d757371,0,True,1330370045,8,2,1084,True,1,8816609@N05,yarnzombie,thro,abe67e7117,7197,park 120 tlr rollei xpro buffalo cross teddy north roosevelt september national medium format process bison dakota yashica theodore yashicamat c41 2011 cr200 digibase,More Bison,525,46.948488,-103.529762
6210781859,5f01fc5ff726a9c76d757346,0,True,1317738704,7,2,1084,True,1,8816609@N05,yarnzombie,thro,0bbfaca024,6176,park morning camping vacation cooking bacon nikon outdoor north roosevelt steam national dakota theodore medora 2011 spetember d40,"Cold morning, hot bacon",185,46.948488,-103.529762
6789754490,5f01fc5ff726a9c76d757372,0,True,1330369984,8,2,1084,True,1,8816609@N05,yarnzombie,thro,d6cb9edd68,7065,park 120 tlr rollei xpro buffalo cross teddy north roosevelt september national medium format process bison dakota yashica theodore yashicamat c41 2011 cr200 digibase,Bison,507,46.948488,-103.529762
6253945968,5f01fc5ff726a9c76d75737c,0,True,1318858174,7,2,1084,True,1,8816609@N05,yarnzombie,thro,52527a8abc,6180,park vacation color film speed diy buffalo graphic kodak iii large roosevelt september national 4x5 format expired bison largeformat theodore develop c41 2011 unicolor vericolor,Bison,587,46.948488,-103.529762
6054664523,5f01fc5ff726a9c76d7573c6,0,True,1313643046,7,0,0,True,1,61805975@N05,Shorefish2011,thro,564d218c31,6062,greatplainslandscapes,Dakota Sunrise and Mist,173,46.950379,-103.529663
7603480420,5f01fc5ff726a9c76d757276,0,True,1342706543,9,4,3699,True,1,59525924@N05,Beaulawrence,thro,9d56569f52,8281,road park camera trip travel usa slr film animal analog america canon vintage lens drive cow moving reflex spring lomo focus driving close cattle teddy kodak united north grain may large slide retro national single nd a1 states manual bison ektachrome e6 dakota 2012 rosevelt 100vs a,big & ugly,5392,46.947068,-103.529362
41811778881,5f01fc5ff726a9c76d756bba,0,True,1525126047,1,8,7430,True,3,9749756@N06,rustejunk,thro,d8b9636525,946,,North Dakota (15),26,46.916066,-103.529303
34717161304,5f01fc5ff726a9c76d756cbc,0,True,1498524759,5,4,3742,True,3,8599745@N08,kevystew,thro,1b0872abb3,4237,northdakota billingscounty medora demorespackingplantruins sign map nationalregister nationalregisterofhistoricplaces ruin,De Mores Packing Plant Ruins- Medora ND (5),395,46.916261,-103.529289
3812504988,5f01fc5ff726a9c76d757510,0,True,1250017135,3,9,8258,True,3,37621606@N07,State Historical Society of North Dakota,thro,3c10346883,2495,de site north historic chateau dakota medora mores,Chimney Park,286,46.916195,-103.529266
3812505158,5f01fc5ff726a9c76d75750d,0,True,1250017139,3,9,8258,True,3,37621606@N07,State Historical Society of North Dakota,thro,55eef04836,2666,de site north historic chateau dakota medora mores,Packing Plant Chimney,417,46.916195,-103.529266
3812504906,5f01fc5ff726a9c76d757511,0,True,1250017134,4,9,8258,True,3,37621606@N07,State Historical Society of North Dakota,thro,72e2735ef3,3541,de site north historic chateau dakota medora mores,0042-150-Cooling-house-and-loading-platform-Medora-ND,370,46.916195,-103.529266
3811689107,5f01fc5ff726a9c76d757512,0,True,1250017133,4,9,8258,True,3,37621606@N07,State Historical Society of North Dakota,thro,dfc9731d0c,3075,de site north historic chateau dakota medora mores,0042-153-Packing-plant--Medora-ND,465,46.916195,-103.529266
25352774046,5f01fc5ff726a9c76d756edb,0,True,1456762746,2,9,8130,True,3,21874566@N07,RuggyBearLA,thro,eac94fcb75,1527,us unitedstates northdakota medora,Drive-By Photography,66,46.916166,-103.529175
41811777331,5f01fc5ff726a9c76d756bbb,0,True,1525126048,1,8,7430,True,3,9749756@N06,rustejunk,thro,02bb8b53a2,975,,North Dakota (16),40,46.916075,-103.52917
4756932111,5f01fc5ff726a9c76d757408,0,True,1278162074,5,4,3793,True,3,48099890@N08,Hobo Matt,thro,bf97a165f2,4116,xmap,Chimney Park,455,46.915555,-103.529167
29749870275,5f01fc5ff726a9c76d756d8a,0,True,1474154883,9,4,3693,True,1,56685904@N03,DakotaLightPhotography,thro,ef5b031fd3,8076,,20160917. The banks of the Little Missouri River.,50,46.947798999999996,-103.529089
15564230438,5f01fc5ff726a9c76d757015,0,True,1415557525,4,4,3738,True,2,100524094@N02,milesbison,thro,75924d8f12,3946,,IMG_5409,27,46.935127,-103.529084
41811775161,5f01fc5ff726a9c76d756bbc,0,True,1525126049,1,8,7430,True,3,9749756@N06,rustejunk,thro,a9f295ae8b,831,,North Dakota (17),51,46.916121999999994,-103.529078
34717164294,5f01fc5ff726a9c76d756cbb,0,True,1498524759,5,4,3742,True,3,8599745@N08,kevystew,thro,ece02324b6,4262,northdakota billingscounty medora demorespackingplantruins nationalregister nationalregisterofhistoricplaces ruin,De Mores Packing Plant Ruins- Medora ND (4),515,46.91615,-103.528984
35427949961,5f01fc5ff726a9c76d756cba,0,True,1498524759,5,4,3742,True,3,8599745@N08,kevystew,thro,be02a2da0d,4235,northdakota billingscounty medora demorespackingplantruins nationalregister nationalregisterofhistoricplaces ruin,De Mores Packing Plant Ruins- Medora ND (3),616,46.91615,-103.528984
35427952081,5f01fc5ff726a9c76d756cb9,0,True,1498524759,5,4,3742,True,3,8599745@N08,kevystew,thro,14f5a245a1,4285,northdakota billingscounty medora demorespackingplantruins nationalregister nationalregisterofhistoricplaces ruin,De Mores Packing Plant Ruins- Medora ND (2),875,46.91615,-103.528984
16061725796,5f01fc5ff726a9c76d756fa7,0,True,1419345148,9,3,2683,True,2,47359179@N08,VFR Photography,thro,a8421228d7,8627,winter snow nature animal animals butte natural nps native snowy wildlife northdakota nd badlands nationalparkservice bison ungulate medora buttes americanbison theodorerooseveltnationalpark bisonbison lateautumn usdepartmentoftheinterior billingscounty peacegardenstate southunit skylinevistaoverlook,Sentinal,3412,46.935093,-103.528954
15749664055,5f01fc5ff726a9c76d757014,0,True,1415557531,6,4,3738,True,2,100524094@N02,milesbison,thro,1037430353,5603,,IMG_5413,27,46.935086,-103.528931
48440416717,5f01fc5ff726a9c76d756a5b,0,True,1564767340,66,4,3672,True,2,25895994@N04,Michael Renfrow,thro,29e9a4babc,65535,,At Rest,161,46.934962,-103.52889
9011113832,5f01fc5ff726a9c76d75726a,0,True,1370901003,6,4,3672,True,2,25895994@N04,Michael Renfrow,thro,c43553b2fb,5441,northdakota nationalparks bison theodorerooseveltnationalpark defendersofwildlife,Bull Bison Teddy Roosevelt NP,735,46.934962,-103.52889
37345824424,5f01fc5ff726a9c76d756c49,0,True,1509421483,5,1,340,True,1,134032505@N03,mtk788,thro,8121402fde,4467,medora northdakota unitedstates us,Wild Horses,83,46.947244,-103.52869799999999
19258905825,5f01fc5ff726a9c76d756fd1,0,True,1435565040,4,9,8784,True,3,8707913@N04,Moody Rivers,thro,b9b3d4f65f,3700,,IMG_20150628_201446,51,46.916127,-103.528642
2163311991,5f01fc5ff726a9c76d7576f0,0,True,1199395902,3,3,2279,True,3,14421744@N04,mwahlsten,thro,e6ac8a6c00,2132,northdakota ghosttown historicalsite medora,day3-18,80,46.91594600000001,-103.528568
2164113856,5f01fc5ff726a9c76d7576ed,0,True,1199395951,3,3,2279,True,3,14421744@N04,mwahlsten,thro,eb79365fd5,2322,sign northdakota ghosttown historicalsite medora,day3-20,112,46.91594600000001,-103.528568
2163314235,5f01fc5ff726a9c76d7576ee,0,True,1199395942,3,3,2279,True,3,14421744@N04,mwahlsten,thro,0393c07296,2340,northdakota ghosttown historicalsite medora,day3-17,119,46.91594600000001,-103.528568
2163313791,5f01fc5ff726a9c76d7576ef,0,True,1199395935,3,3,2279,True,3,14421744@N04,mwahlsten,thro,cc8d782306,2278,northdakota ghosttown historicalsite medora,day3-19,98,46.91594600000001,-103.528568
2163311563,5f01fc5ff726a9c76d7576f1,0,True,1199395894,3,3,2279,True,3,14421744@N04,mwahlsten,thro,9f11f2f8e6,2298,northdakota ghosttown historicalsite medora,day3-16,72,46.91594600000001,-103.528568
41811779801,5f01fc5ff726a9c76d756bb9,0,True,1525126046,1,8,7430,True,3,9749756@N06,rustejunk,thro,d038e32729,962,,North Dakota (14),32,46.915458,-103.528373
21425561555,5f01fc5ff726a9c76d756eba,0,True,1442281035,6,66,65535,True,3,96225726@N08,howderfamily.com,thro,c9ba09e52e,5766,northdakota billings medora theodorerooseveltnationalpark,Theodore Roosevelt National Park,435,46.915455,-103.528337
32901099551,5f01fc5ff726a9c76d756cf6,0,True,1487655953,3,4,3946,True,1,152191919@N08,Elinor2650,thro,e4c29f365a,2275,medora northdakota unitedstates us,IMG_6700.jpg,20,46.948388,-103.528237
24796687343,5f01fc5ff726a9c76d756eda,0,True,1456877641,2,9,8130,True,3,21874566@N07,RuggyBearLA,thro,ed48d0ba0a,1646,us unitedstates northdakota medora,Drive-By Photography,96,46.915321999999996,-103.528212
24731529063,5f01fc5ff726a9c76d756edc,0,True,1456700806,2,9,8130,True,3,21874566@N07,RuggyBearLA,thro,cee03abc37,1618,us unitedstates northdakota medora,Drive-By Photography,112,46.915974,-103.528164
2785385344,5f01fc5ff726a9c76d7576d7,0,True,1219355072,4,8,7448,True,2,74471986@N00,mjblanchard,thro,c74ca1e7ea,3179,buffalo northdakota badlands bison theodorerooseveltnationalpark teddyrooseveltnationalpark,,47,46.935517,-103.52815
2784532731,5f01fc5ff726a9c76d7576d5,0,True,1219355102,4,8,7448,True,2,74471986@N00,mjblanchard,thro,aa3229c6f1,3159,buffalo northdakota badlands bison theodorerooseveltnationalpark teddyrooseveltnationalpark,,39,46.935517,-103.52815
2784532099,5f01fc5ff726a9c76d7576d6,0,True,1219355086,4,8,7448,True,2,74471986@N00,mjblanchard,thro,fc318da2a2,3011,buffalo northdakota badlands bison theodorerooseveltnationalpark teddyrooseveltnationalpark,,57,46.935517,-103.52815
33530796496,5f01fc5ff726a9c76d756ce6,0,True,1490110004,4,66,65535,True,3,60348236@N07,bac1967,thro,8cbc7f142e,3942,ilforddelta100 ilford delta film blackandwhite bw caffenol caffenolchrs leicaiiia leicarangefinder leica elmarlens leitzelmar5cmf35lens elmarltmlens northdakota nd snow winter theodoreroosevelt theodorerooseveltnationalpark medora medoranorthdakota medorand coffee folgers brick stone arch brickarch stonearch rockwall stonewall,Old Brick Arch,1723,46.91598,-103.528141
9285143781,5f01fc5ff726a9c76d757206,0,True,1373834344,4,8,7309,True,3,13709281@N00,BY Chu,thro,0206f63604,3709,medora northdakota,130704 Medora ND,221,46.915077000000004,-103.527969
22580163918,5f01fc5ff726a9c76d756f4f,0,True,1447469301,6,9,8739,True,1,33221594@N03,Alice & Seig,thro,a7a5722289,5742,flickr butterflies insects nd heliconiansfritillariesheliconiinae brushfootednymphalidae fritillariesargynnini,Mormon Fritillary Speyeria mormonia tr-np-nd_0093,79,46.94879,-103.52794
9658781666,5f01fc5ff726a9c76d7571e0,0,True,1378153432,3,5,4055,True,3,40928487@N06,Tourismguy,thro,e4c5ed85ae,2859,nationalparkservice theodorerooseveltnationalpark,"Theodore Roosevelt National Park, National Park Service",196,46.915397,-103.527664
8001679045,5f01fc5ff726a9c76d7572c2,0,True,1348019010,9,4,3795,True,3,31715949@N00,Vox Sciurorum,thro,0c165900f9,8457,sign northdakota 28105mmf3545d medora theodorerooseveltnationalpark,DSC_0955,54,46.914827,-103.527653
25320413905,5f01fc5ff726a9c76d756ede,0,True,1456621247,2,9,8130,True,3,21874566@N07,RuggyBearLA,thro,5db0bf1afc,1622,us unitedstates northdakota medora,Drive-By Photography,77,46.915925,-103.527559
13875578384,5f01fc5ff726a9c76d757182,0,True,1397580720,8,8,7333,True,3,66733752@N00,Jasperdo,thro,38cae59836,7168,sign nationalpark nps entrance roadtrip northdakota medora theodorerooseveltnationalpark,Theodore Roosevelt National Park,569,46.914809999999996,-103.527549
24720949024,5f01fc5ff726a9c76d756edd,0,True,1456683093,2,9,8130,True,3,21874566@N07,RuggyBearLA,thro,79f8e866a2,1562,us unitedstates northdakota medora,Drive-By Photography,79,46.916205,-103.52754499999999
7816341762,5f01fc5ff726a9c76d757310,0,True,1345395436,8,8,7434,True,3,66080755@N06,CLS Rob,thro,baa4dc3e6c,7247,,Roosevelt Park entrance,128,46.914685,-103.527517
4490241530,5f01fc5ff726a9c76d75748e,0,True,1270398331,5,3,2916,True,3,45942104@N00,Neubie,thro,02c836149e,4040,travel geotagged email adventures i90 i94 crosscountrydrive crosscountrymove geotaggedtrip,Theodore Roosevelt National Park,53,46.914666,-103.5275
15180136435,5f01fc5ff726a9c76d75708c,0,True,1410193194,6,8,7466,True,3,75664878@N00,badmolar,thro,83a5aee915,5584,,,56,46.914775,-103.527467
15177128371,5f01fc5ff726a9c76d75708d,0,True,1410193183,4,8,7466,True,3,75664878@N00,badmolar,thro,faeaba65b0,3889,,,55,46.914775,-103.527467
14993554178,5f01fc5ff726a9c76d75708e,0,True,1410193177,4,8,7466,True,3,75664878@N00,badmolar,thro,f19efcf04d,3861,,,47,46.914775,-103.527467
48133337032,5f01fc5ff726a9c76d756a95,0,True,1561570171,66,4,3747,True,1,9827553@N07,Hazboy,thro,19a8af3d47,65535,hazboy hazboy1 north dakota teddy theodore roosevelt national park parc animal buffalo bison us usa america april 2019,A buffalo in Teddy Roosevelt National Park,94,46.949317,-103.527452
42670356162,5f01fc5ff726a9c76d756b9f,0,True,1528660978,2,4,3696,True,3,90537344@N00,tackyjulie,thro,2fe5cd82a2,1749,,Park sign with Julie,130,46.914738,-103.52744200000001
9044949145,5f01fc5ff726a9c76d757284,0,True,1371263130,8,4,3672,True,2,25895994@N04,Michael Renfrow,thro,b2e72bc357,7381,video,Grass Lands TRNP,888,46.935326,-103.527259
44762336440,5f01fc5ff726a9c76d756a39,0,True,1546490535,8,1,916,True,1,150169974@N02,paccode,thro,16c3fdc973,7909,solemn northdakota d850 colorful wildlife water stream serious quiet bovine buffalo medora unitedstates us,"Theodore Roosevelt National Park, Medora, North Dakota",1871,46.949961,-103.527109
52680834,5f01fc5ff726a9c76d757738,0,True,1129388006,1,1,7,True,3,44072178@N00,Big Dadoo,thro,c7689f9ea9,25,mdh maahdaahhey biking geotagged geolat46914041 geolon103527088,"Doug, Chris and Scott",57,46.914041,-103.527088
9009919143,5f01fc5ff726a9c76d75726b,0,True,1370901003,8,4,3672,True,2,25895994@N04,Michael Renfrow,thro,39876d61b9,7354,northdakota,Sunrise Grasslands Theodore Roosevelt Nat Park,2097,46.935546,-103.527045
9369072084,5f01fc5ff726a9c76d757201,0,True,1374790893,8,4,3684,True,2,46821873@N04,Vfrow,thro,312cefd483,7425,,Theodore Rosevelt National Park,185,46.935216,-103.526927
5823223552,5f01fc5ff726a9c76d757417,0,True,1307846286,6,0,0,True,3,63947724@N02,BrianOswill,thro,f0a869ff22,5235,raw,,32,46.913689,-103.526916
4043253650,5f01fc5ff726a9c76d75749e,0,True,1256487765,3,3,2560,True,3,19831025@N06,swirey,thro,9e0da551cf,2480,northdakota medora ushistory historicalsitesoftheus marquisdemoresslughterhouse,"Ruins Of Slaughterhouse In Medora, ND",550,46.915696999999994,-103.526884
35010975621,5f01fc5ff726a9c76d756cc1,0,True,1496775011,5,3,2212,True,1,30436878@N06,Waterfall Guy,thro,fec75b50fa,4224,prairie dog theodore roosevelt national park north dakota nature animal,Bang! You Got Me!,1078,46.950013,-103.526809
19359311881,5f01fc5ff726a9c76d756fc8,0,True,1435851057,1,9,8624,True,1,20724964@N07,Samuel Fowler,thro,1ecd6bf2ec,434,unitedstates northdakota medora,_MG_8594,101,46.949758,-103.526645
27926393181,5f01fc5ff726a9c76d756e38,0,True,1467313295,8,1,636,True,3,135290078@N02,Bart Comstock,thro,c0767707df,7236,medora northdakota unitedstates us,teddy roosevelt natl park cabin 2.jpg,55,46.916702,-103.526523
28004278105,5f01fc5ff726a9c76d756e36,0,True,1467313331,8,1,636,True,3,135290078@N02,Bart Comstock,thro,d42dd533a3,7536,medora northdakota unitedstates us,teddy roosevelt natl park cabin 4.jpg,58,46.916702,-103.526523
27390339653,5f01fc5ff726a9c76d756e37,0,True,1467313312,8,1,636,True,3,135290078@N02,Bart Comstock,thro,f526b3d08e,7394,medora northdakota unitedstates us,teddy roosevelt natl park cabin 3.jpg,194,46.916702,-103.526523
33442548131,5f01fc5ff726a9c76d756cce,0,True,1490110004,3,66,65535,True,3,60348236@N07,bac1967,thro,25c1e32674,2836,ilforddelta100 ilford delta film blackandwhite bw caffenol caffenolchrs leicaiiia leicarangefinder leica elmarlens leitzelmar5cmf35lens elmarltmlens northdakota nd snow winter theodoreroosevelt theodorerooseveltnationalpark medora medoranorthdakota medorand coffee folgers maltese cross cabin maltesecrosscabin tree trees cabininthewoods mountain mountains,Maltese Cross Cabin,1678,46.91672,-103.526521
26944085587,5f01fc5ff726a9c76d756bb1,0,True,1525126038,1,8,7430,True,3,9749756@N06,rustejunk,thro,06a60e560e,963,,North Dakota (4),35,46.916515999999994,-103.526439
2241918248,5f01fc5ff726a9c76d757661,0,True,1202128193,3,6,5459,True,3,58518845@N00,Robby Edwards,thro,0635c1db27,2251,vacation nationalpark cabin northdakota theodoreroosevelt maltesecross theodorerooseveltnationalpark southunit,Maltese Cross Cabin,1449,46.916246,-103.526422
48770892677,5f01fc5ff726a9c76d75699e,0,True,1569090478,66,0,0,True,3,69189768@N04,David Fann,thro,90f72dabe8,65535,dakota dakotas southunit trnp theodorerooseveltnationalpark southunitvisitorcenter,South Unit Visitor Center,18,46.916497,-103.526403
26944086637,5f01fc5ff726a9c76d756bb0,0,True,1525126037,1,8,7430,True,3,9749756@N06,rustejunk,thro,e3132da555,969,,North Dakota (3),28,46.916536,-103.526395
48770678086,5f01fc5ff726a9c76d7569c6,0,True,1569090505,66,0,0,True,3,69189768@N04,David Fann,thro,b50a87c6ac,65535,dakota dakotas medora,"Cowboy Hall of Fame, Medora",27,46.915069,-103.526384
25767486240,5f01fc5ff726a9c76d756ec5,0,True,1458973502,2,2,1693,True,3,141285290@N02,aaronfilterspics,thro,8420cef11b,1452,north dakota nd2016contest wildlife,Bison Battle,419,46.916947,-103.52636
25435593184,5f01fc5ff726a9c76d756ec4,0,True,1458973619,2,2,1693,True,3,141285290@N02,aaronfilterspics,thro,35558ae1a8,1648,,President Theodore Roosevelt's Cabin,78,46.916947,-103.52636
24221374931,5f01fc5ff726a9c76d756f21,0,True,1452471502,2,4,3818,True,3,100208196@N07,bdnb,thro,e75fe43963,1500,,He's been shot,21,46.916447,-103.526356
26944083597,5f01fc5ff726a9c76d756bb2,0,True,1525126040,1,8,7430,True,3,9749756@N06,rustejunk,thro,6441dd904b,950,,North Dakota (6),28,46.916388,-103.526348
48770690651,5f01fc5ff726a9c76d75699c,0,True,1569090477,66,0,0,True,3,69189768@N04,David Fann,thro,66e7857e25,65535,dakota dakotas southunit trnp theodorerooseveltnationalpark,Elk horn overhead,21,46.91685,-103.52633900000001
32182277284,5f01fc5ff726a9c76d756d2a,0,True,1487655605,1,4,3946,True,3,152191919@N08,Elinor2650,thro,f57e7c32cd,566,medora northdakota unitedstates us,IMG_6483.jpg,13,46.916605,-103.52633399999999
8549947874,5f01fc5ff726a9c76d75729f,0,True,1363029868,9,0,0,True,1,92427185@N02,RWRogersIV,thro,3080bd667e,8236,,IMG_1411,24,46.9505,-103.52633399999999
8549947498,5f01fc5ff726a9c76d7572a0,0,True,1363029857,9,0,0,True,1,92427185@N02,RWRogersIV,thro,787eceecf2,8226,park roosevelt theodore natl,IMG_1408,31,46.9505,-103.52633399999999
23792975448,5f01fc5ff726a9c76d756c53,0,True,1507774758,5,9,8347,True,3,89950527@N02,cknot1sk,thro,db22fa6bc6,4501,theodorerooseveltnationalpark northdakota nationalparksystem cabin,theodore roosevelt's cabin in the national park,77,46.916774,-103.526314
28041461384,5f01fc5ff726a9c76d756db5,0,True,1469914279,9,6,5463,True,3,46611873@N04,jb10okie,thro,8b2963db7f,8124,2016 summer trip vacation theodorerooseveltnationalpark northdakota nps,Theodore Roosevelt writing desk,473,46.91695,-103.52630400000001
28028197473,5f01fc5ff726a9c76d756db6,0,True,1469859512,9,6,5463,True,3,46611873@N04,jb10okie,thro,c65fd6ff8b,8867,,Roosevelt's Maltese Cross Cabin,331,46.91695,-103.52630400000001
37114899683,5f01fc5ff726a9c76d756bf0,0,True,1508378978,5,8,7422,True,3,40082242@N03,jasbond007,thro,40a296f396,4491,golden fall autumn fallcolors autumncolours roosevelt theodoreroosevelt cabin maltesecrosscabin theodorerooseveltnationalpark medora northdakota usa jasbond007 nigeldawson copyrightnigeldawson2017 pentax k3ii smcpentaxda18135mmf3556edalifdcwr,Roosevelt's refuge,925,46.916781,-103.526294
37734779676,5f01fc5ff726a9c76d756bf1,0,True,1508373428,5,8,7422,True,3,40082242@N03,jasbond007,thro,8746de31c9,4505,cowboy cowboylyle theodorerooseveltnationalpark medora northdakota usa jasbond007 nigeldawson copyrightnigeldawson2017 pentax k3ii smcpentaxda18135mmf3556edalifdcwr,Cowboy Lyle,427,46.916781,-103.526294
32182275554,5f01fc5ff726a9c76d756d2b,0,True,1487655598,4,4,3946,True,3,152191919@N08,Elinor2650,thro,480169f1bd,3685,medora northdakota unitedstates us,IMG_6482.jpg,20,46.91683,-103.526287
4524997532,5f01fc5ff726a9c76d75748a,0,True,1271386357,5,3,2944,True,3,28236328@N00,bensz99,thro,c815b0fca6,4062,trip travel usa cabin unitedstates roadtrip northdakota 2009 theodorerooseveltnp,Teddy Roosevelt's Cabin,98,46.916813,-103.52628399999999
4524369623,5f01fc5ff726a9c76d757489,0,True,1271386377,5,3,2944,True,3,28236328@N00,bensz99,thro,c8af389ba5,4012,trip travel usa unitedstates roadtrip northdakota 2009 theodorerooseveltnp,Teddy Roosevelt's Undershirt,123,46.916558,-103.526253
48770892927,5f01fc5ff726a9c76d75699d,0,True,1569090477,66,0,0,True,3,69189768@N04,David Fann,thro,eaa01cbd6c,65535,dakota dakotas southunit trnp theodorerooseveltnationalpark,DSCF7578,18,46.916821999999996,-103.526248
48770893647,5f01fc5ff726a9c76d75699b,0,True,1569090476,66,0,0,True,3,69189768@N04,David Fann,thro,4c49f74676,65535,dakota dakotas southunit trnp theodorerooseveltnationalpark trsmaltesecrosscabin,Day 5: TR's Maltese Cross cabin,20,46.916802000000004,-103.52623100000001
32985948496,5f01fc5ff726a9c76d756d2c,0,True,1487655593,1,4,3946,True,3,152191919@N08,Elinor2650,thro,7f83bd75eb,775,medora northdakota unitedstates us,IMG_6480.jpg,17,46.916872,-103.526212
48770677841,5f01fc5ff726a9c76d7569c7,0,True,1569090506,66,0,0,True,3,69189768@N04,David Fann,thro,40fae49356,65535,cowboyhalloffame dakota dakotas medora winchester94,Mostly Winchester Model 94s,34,46.915094,-103.526209
48770677716,5f01fc5ff726a9c76d7569c8,0,True,1569090507,66,0,0,True,3,69189768@N04,David Fann,thro,f488000e5b,65535,cowboyhalloffame dakota dakotas medora,"Cowboy Hall of Fame, Medora",35,46.914896999999996,-103.52617
9572805450,5f01fc5ff726a9c76d7571ec,0,True,1377201675,3,4,3738,True,3,100524094@N02,milesbison,thro,215165ee9f,2875,,IMG_3534,31,46.914,-103.526167
9570011697,5f01fc5ff726a9c76d7571eb,0,True,1377201675,8,4,3738,True,3,100524094@N02,milesbison,thro,2b308dcb8c,7346,,IMG_3533,26,46.914,-103.526167
6998268110,5f01fc5ff726a9c76d75736b,0,True,1336207477,9,3,2899,True,3,52751079@N05,shwn.david,thro,e8e1b7f043,8148,favorite,Entrance to Theodore Roosevelt National Park,48,46.916333,-103.526167
8548848143,5f01fc5ff726a9c76d7572a1,0,True,1363029845,9,0,0,True,1,92427185@N02,RWRogersIV,thro,69caf42e40,8372,park roosevelt theodore natl,IMG_1403,31,46.950666,-103.526167
4003285840,5f01fc5ff726a9c76d7574d7,0,True,1255308836,3,3,2560,True,3,19831025@N06,swirey,thro,5ec457c4e2,2592,northdakota ushistory theodorerooseveltnationalpark theodorerooseveltsmaltesecrosscabin,Theodore Roosevelt's Maltese Cross Cabin,1100,46.916774,-103.526101
13875183825,5f01fc5ff726a9c76d757181,0,True,1397580728,8,8,7333,True,3,66733752@N00,Jasperdo,thro,7ebb707874,7166,museum nationalpark nps roadtrip exhibit northdakota theodorerooseveltnationalpark medoravisitorcenter,Theodore Roosevelt National Park,423,46.91650300000001,-103.52607900000001
13875215625,5f01fc5ff726a9c76d757179,0,True,1397580724,3,8,7333,True,3,66733752@N00,Jasperdo,thro,2c0844dfe0,2908,museum nationalpark nps roadtrip exhibit northdakota theodorerooseveltnationalpark medoravisitorcenter,Theodore Roosevelt National Park,401,46.91650300000001,-103.52607900000001
13875251713,5f01fc5ff726a9c76d75717c,0,True,1397580725,8,8,7333,True,3,66733752@N00,Jasperdo,thro,4820ce830e,7142,museum nationalpark nps roadtrip exhibit northdakota theodorerooseveltnationalpark medoravisitorcenter,Theodore Roosevelt National Park,468,46.91650300000001,-103.52607900000001
13875588434,5f01fc5ff726a9c76d75717f,0,True,1397580729,8,8,7333,True,3,66733752@N00,Jasperdo,thro,b16b8d99aa,7135,museum nationalpark nps roadtrip exhibit northdakota theodorerooseveltnationalpark medoravisitorcenter,Theodore Roosevelt National Park,443,46.91650300000001,-103.52607900000001
13875208795,5f01fc5ff726a9c76d75717b,0,True,1397580731,3,8,7333,True,3,66733752@N00,Jasperdo,thro,77fcd551e0,2924,house building history home architecture nationalpark nps roadtrip northdakota theodorerooseveltnationalpark maltesecrosshouse,Theodore Roosevelt National Park,1717,46.91650300000001,-103.52607900000001
13875592174,5f01fc5ff726a9c76d75717e,0,True,1397580728,3,8,7333,True,3,66733752@N00,Jasperdo,thro,5a7717cbd3,2811,museum nationalpark nps roadtrip exhibit northdakota theodorerooseveltnationalpark medoravisitorcenter,Theodore Roosevelt National Park,474,46.91650300000001,-103.52607900000001
13875187275,5f01fc5ff726a9c76d757180,0,True,1397580727,4,8,7333,True,3,66733752@N00,Jasperdo,thro,37e5427fab,3673,museum nationalpark nps roadtrip exhibit northdakota theodorerooseveltnationalpark medoravisitorcenter,Theodore Roosevelt National Park,487,46.91650300000001,-103.52607900000001
13875216943,5f01fc5ff726a9c76d757184,0,True,1397580722,8,8,7333,True,3,66733752@N00,Jasperdo,thro,bf656983d2,7271,nationalpark parkinglot nps roadtrip northdakota theodorerooseveltnationalpark medoravisitorcenter,Theodore Roosevelt National Park,544,46.91650300000001,-103.52607900000001
13875223013,5f01fc5ff726a9c76d757183,0,True,1397580721,8,8,7333,True,3,66733752@N00,Jasperdo,thro,53139c376b,7083,nationalpark nps roadtrip northdakota theodorerooseveltnationalpark mission66 medoravisitorcenter,Theodore Roosevelt National Park,569,46.91650300000001,-103.52607900000001
13875279213,5f01fc5ff726a9c76d757177,0,True,1397580730,8,8,7333,True,3,66733752@N00,Jasperdo,thro,d79c4292c0,7042,house history home nationalpark nps roadtrip northdakota theodorerooseveltnationalpark maltesecrosshouse,Theodore Roosevelt National Park,973,46.91650300000001,-103.52607900000001
13875233475,5f01fc5ff726a9c76d757176,0,True,1397580722,6,8,7333,True,3,66733752@N00,Jasperdo,thro,865626b50d,5198,nationalpark nps roadtrip northdakota theodorerooseveltnationalpark matherplaque medoravisitorcenter,Theodore Roosevelt National Park,598,46.91650300000001,-103.52607900000001
13875222365,5f01fc5ff726a9c76d757178,0,True,1397580723,4,8,7333,True,3,66733752@N00,Jasperdo,thro,aca86f417a,3770,nationalpark nps roadtrip northdakota theodorerooseveltnationalpark matherplaque medoravisitorcenter,Theodore Roosevelt National Park,587,46.91650300000001,-103.52607900000001
13875197775,5f01fc5ff726a9c76d75717d,0,True,1397580726,4,8,7333,True,3,66733752@N00,Jasperdo,thro,95c0f68819,3670,museum nationalpark nps roadtrip exhibit northdakota theodorerooseveltnationalpark medoravisitorcenter,Theodore Roosevelt National Park,442,46.91650300000001,-103.52607900000001
13875212305,5f01fc5ff726a9c76d75717a,0,True,1397580725,4,8,7333,True,3,66733752@N00,Jasperdo,thro,0c662d9065,3691,museum nationalpark nps roadtrip exhibit northdakota theodorerooseveltnationalpark medoravisitorcenter,Theodore Roosevelt National Park,508,46.91650300000001,-103.52607900000001
3766714317,5f01fc5ff726a9c76d757515,0,True,1248825648,3,3,2621,True,3,40443495@N03,CDJB-Vacation-2009,thro,58ab662f10,2441,,IMG_1806,19,46.915,-103.526
3766715847,5f01fc5ff726a9c76d757514,0,True,1248825684,4,3,2621,True,3,40443495@N03,CDJB-Vacation-2009,thro,d93efa86ba,3556,,IMG_1807,17,46.915,-103.526
7259977158,5f01fc5ff726a9c76d757365,0,True,1337834879,8,6,5165,True,3,58539921@N08,andersnordh,thro,bfbbe9154b,7212,usa flickr unitedstates northdakota medora theodorerooseveltnationalpark mejl23,DSC_9688.jpg,49,46.916663,-103.525998
47908102231,5f01fc5ff726a9c76d756aa9,0,True,1558531441,66,1,114,True,3,30648150@N00,misterlevel,thro,9a8de75f75,65535,,IMG_8201,8,46.91648,-103.52597800000001
14993484510,5f01fc5ff726a9c76d757089,0,True,1410193223,6,8,7466,True,3,75664878@N00,badmolar,thro,9f63192c58,5590,,,51,46.916033,-103.52597
15177124731,5f01fc5ff726a9c76d757090,0,True,1410193161,6,8,7466,True,3,75664878@N00,badmolar,thro,09409366b6,5568,,,43,46.916033,-103.52597
15177125221,5f01fc5ff726a9c76d75708f,0,True,1410193163,4,8,7466,True,3,75664878@N00,badmolar,thro,447ac1085c,3872,,,50,46.916033,-103.52597
47908102621,5f01fc5ff726a9c76d756aa8,0,True,1558531440,66,1,114,True,3,30648150@N00,misterlevel,thro,83471543ca,65535,,IMG_8200,7,46.916466,-103.52589499999999
47908109611,5f01fc5ff726a9c76d756aa6,0,True,1558531432,66,1,114,True,3,30648150@N00,misterlevel,thro,14f68b9309,65535,,IMG_8181,7,46.914688,-103.525864
47908101751,5f01fc5ff726a9c76d756aab,0,True,1558531442,66,1,114,True,3,30648150@N00,misterlevel,thro,26512cda3c,65535,,IMG_8203,10,46.916297,-103.525864
27926409501,5f01fc5ff726a9c76d756e35,0,True,1467313346,8,1,636,True,3,135290078@N02,Bart Comstock,thro,5c6e67dea8,7304,medora northdakota unitedstates us,teddy roosevelt natl park cabin 1.jpg,52,46.916610999999996,-103.52585
20590028879,5f01fc5ff726a9c76d756f87,0,True,1440222956,1,3,2130,True,3,18822623@N08,timmanickam,thro,5de4688394,632,nationalpark northdakota theodoreroosevelt,Theodore Roosevelt NP,27,46.916312,-103.5258
36370665355,5f01fc5ff726a9c76d756ca8,0,True,1501863204,5,4,3829,True,3,27469838@N05,Ernie Orr,thro,4e9e1cef20,4400,bobrussell rmrussell medora northdakota,"Medora, North Dakota",56,46.914797,-103.525778
39055892261,5f01fc5ff726a9c76d756be7,0,True,1513276660,5,8,7420,True,3,73100763@N05,scoryell,thro,191cda215e,4692,northdakota southunit theodorerooseveltnationalpark,140719-03 (2014-07-20) - 0092,10,46.916346999999995,-103.525712
39055892831,5f01fc5ff726a9c76d756be5,0,True,1513276658,5,8,7420,True,3,73100763@N05,scoryell,thro,cc83ebed58,4739,northdakota southunit theodorerooseveltnationalpark,140719-03 (2014-07-20) - 0089,19,46.91635,-103.525712
39055892431,5f01fc5ff726a9c76d756be6,0,True,1513276659,5,8,7420,True,3,73100763@N05,scoryell,thro,9c54080c83,4524,northdakota southunit theodorerooseveltnationalpark,140719-03 (2014-07-20) - 0091,16,46.91635,-103.525712
21434033301,5f01fc5ff726a9c76d756f5f,0,True,1442281011,1,66,65535,True,3,96225726@N08,howderfamily.com,thro,fa259c77a2,739,northdakota billings medora theodorerooseveltnationalpark,Theodore Roosevelt National Park,136,46.916613,-103.525587
26944088197,5f01fc5ff726a9c76d756baf,0,True,1525126035,1,8,7430,True,3,9749756@N06,rustejunk,thro,b82be17a07,831,,North Dakota (1),195,46.916377000000004,-103.525542
9370027693,5f01fc5ff726a9c76d757200,0,True,1374860985,3,8,7458,True,3,47033312@N08,gordeau,thro,c27c73e450,2810,house green framed gordon northdakota ashby medora selectivecolour thechallengefactory gordeau,Pioneer House,848,46.916604,-103.525533
36370667925,5f01fc5ff726a9c76d756ca7,0,True,1501863211,5,4,3829,True,3,27469838@N05,Ernie Orr,thro,aa37c61a4c,4378,bobrussell rmrussell medora northdakota,"Medora, North Dakota",83,46.91483,-103.525525
15686903845,5f01fc5ff726a9c76d757036,0,True,1414898554,8,4,3846,True,3,125083965@N04,Asquith Adventures,thro,a88f20572c,7578,,Inside the Maltese Cross Cabin,38,46.916810999999996,-103.52548900000001
15688502592,5f01fc5ff726a9c76d757035,0,True,1414898553,8,4,3846,True,3,125083965@N04,Asquith Adventures,thro,46fb45b3e0,7576,,The Maltese Cross Cabin at Theodore Roosevelt National Park,253,46.916810999999996,-103.52548900000001
32871971462,5f01fc5ff726a9c76d756cef,0,True,1487655994,3,4,3946,True,3,152191919@N08,Elinor2650,thro,3d6a06d30b,2490,medora northdakota unitedstates us,IMG_6733.jpg,23,46.91653,-103.525481
33683867576,5f01fc5ff726a9c76d756ce2,0,True,1490818736,3,66,65535,True,3,60348236@N07,bac1967,thro,627a7cd642,2914,fujifilm superia xtra iso 400 fujifilmsuperiaxtraiso400 fujifilmsuperiaxtra400 fujifilmsuperia olympus om2n olympusom2n northdakota dakota nd theodore roosevelt theodoreroosevelt theodorerooseveltnotionalpark maltesecrosscabin maltese cross cabin c41film,Theodore Roosevelt's Cabin,1060,46.916649,-103.525478
47856083982,5f01fc5ff726a9c76d756aaa,0,True,1558531442,66,1,114,True,3,30648150@N00,misterlevel,thro,b42a54bc14,65535,,IMG_8202,11,46.916377000000004,-103.525428
14993391689,5f01fc5ff726a9c76d75708b,0,True,1410193195,4,8,7466,True,3,75664878@N00,badmolar,thro,f0dd04dcf1,3866,,,44,46.916605,-103.525375
15157110436,5f01fc5ff726a9c76d75708a,0,True,1410193201,4,8,7466,True,3,75664878@N00,badmolar,thro,19ceaa438c,3881,,,61,46.916605,-103.525375
16129360165,5f01fc5ff726a9c76d757005,0,True,1419784521,8,6,5528,True,3,125020196@N04,sjbumstead,thro,22a32fd397,7490,,,41,46.914977,-103.525017
14507292500,5f01fc5ff726a9c76d757116,0,True,1405807218,4,6,5528,True,3,125020196@N04,sjbumstead,thro,f47956a13e,3907,,,28,46.914977,-103.525017
15943269249,5f01fc5ff726a9c76d757004,0,True,1419784526,8,6,5528,True,3,125020196@N04,sjbumstead,thro,f27f0c6f47,7488,,,38,46.914977,-103.525017
15382804996,5f01fc5ff726a9c76d757072,0,True,1412117688,4,8,7280,True,3,123840849@N03,d_jc_5,thro,0bd493d28d,3928,usa medora norddakota,DSC08089.jpg,78,46.914758,-103.524953
39773291800,5f01fc5ff726a9c76d756bc6,0,True,1524235464,1,66,65535,True,3,160559363@N04,kjjohnston2,thro,a9928582a0,916,,"Skull (Medora, ND)",20,46.914751,-103.52494200000001
35348597515,5f01fc5ff726a9c76d756cc0,0,True,1497644215,5,8,7455,True,3,9414486@N03,kzzzkc,thro,548c0ca3e4,4223,nikon d7100 usa northdakota theodoreroosevelt nationalpark day cloudy medora field trees littlemissouri river,052617-616Fx,283,46.916789,-103.524899
227736824,5f01fc5ff726a9c76d75772a,0,True,1156813872,1,0,0,True,3,72097360@N00,aaron.axvig,thro,d0736aa91c,66,,IMG_1317,17,46.914759000000004,-103.524813
14624061908,5f01fc5ff726a9c76d7570c2,0,True,1406998855,3,6,5528,True,3,125020196@N04,sjbumstead,thro,1fb0e4496e,2937,,IMG_1762,32,46.914913,-103.524781
14513207870,5f01fc5ff726a9c76d7570c7,0,True,1405870889,4,6,5528,True,3,125020196@N04,sjbumstead,thro,fec8639187,3868,,,27,46.914811,-103.524742
14830515573,5f01fc5ff726a9c76d7570c1,0,True,1406998854,4,6,5528,True,3,125020196@N04,sjbumstead,thro,f512ed745b,3877,,IMG_1760,33,46.914854999999996,-103.524698
14624032909,5f01fc5ff726a9c76d7570c0,0,True,1406998854,4,6,5528,True,3,125020196@N04,sjbumstead,thro,9cae98497c,3919,,IMG_1759,36,46.914688,-103.524637
14810699165,5f01fc5ff726a9c76d7570bf,0,True,1406998853,4,6,5528,True,3,125020196@N04,sjbumstead,thro,b1b3ee66e6,3924,,IMG_1758,36,46.914691,-103.524628
50037551932,5f01fc5ff726a9c76d756940,0,True,1592923368,66,6,5071,True,3,62634671@N08,John Mac 2011 UK,thro,c3c1a21006,65535,2004 johnmacstravelphotography johnmacsusa northdakota theodorerooseveltnationalpark usa usa2004 usa2004tour usa–2004,"Theodore Roosevelt National Park, North Dakota, USA - 2004.",0,46.915847,-103.524514
50037294401,5f01fc5ff726a9c76d756933,0,True,1592923359,66,6,5071,True,3,62634671@N08,John Mac 2011 UK,thro,a086937610,65535,2004 johnmacstravelphotography johnmacsusa northdakota theodorerooseveltnationalpark usa usa2004 usa2004tour usa–2004,"Theodore Roosevelt National Park, North Dakota, USA - 2004.",2,46.915847,-103.524514
50037543337,5f01fc5ff726a9c76d756942,0,True,1592923369,66,6,5071,True,3,62634671@N08,John Mac 2011 UK,thro,681f34d9cd,65535,2004 johnmacstravelphotography johnmacsusa northdakota theodorerooseveltnationalpark usa usa2004 usa2004tour usa–2004,"Theodore Roosevelt National Park, North Dakota, USA - 2004.",0,46.915847,-103.524514
50036748518,5f01fc5ff726a9c76d75693e,0,True,1592923368,66,6,5071,True,3,62634671@N08,John Mac 2011 UK,thro,a1329fe280,65535,2004 johnmacstravelphotography johnmacsusa northdakota theodorerooseveltnationalpark usa usa2004 usa2004tour usa–2004,"Theodore Roosevelt National Park, North Dakota, USA - 2004.",0,46.915847,-103.524514
50036748608,5f01fc5ff726a9c76d75693c,0,True,1592923367,66,6,5071,True,3,62634671@N08,John Mac 2011 UK,thro,8d399d5483,65535,2004 johnmacstravelphotography johnmacsusa northdakota theodorerooseveltnationalpark usa usa2004 usa2004tour usa–2004,"Theodore Roosevelt National Park, North Dakota, USA - 2004.",0,46.915847,-103.524514
50037293631,5f01fc5ff726a9c76d75693d,0,True,1592923367,66,6,5071,True,3,62634671@N08,John Mac 2011 UK,thro,d7dc3b333f,65535,2004 johnmacstravelphotography johnmacsusa northdakota theodorerooseveltnationalpark usa usa2004 usa2004tour usa–2004,"Theodore Roosevelt National Park, North Dakota, USA - 2004.",0,46.915847,-103.524514
50037294186,5f01fc5ff726a9c76d756935,0,True,1592923361,66,6,5071,True,3,62634671@N08,John Mac 2011 UK,thro,56b7ec7ea2,65535,2004 johnmacstravelphotography johnmacsusa northdakota theodorerooseveltnationalpark usa usa2004 usa2004tour usa–2004,"Theodore Roosevelt National Park, North Dakota, USA - 2004.",1,46.915847,-103.524514
50036749008,5f01fc5ff726a9c76d756937,0,True,1592923363,66,6,5071,True,3,62634671@N08,John Mac 2011 UK,thro,def17351f8,65535,2004 johnmacstravelphotography johnmacsusa northdakota theodorerooseveltnationalpark usa usa2004 usa2004tour usa–2004,"Theodore Roosevelt National Park, North Dakota, USA - 2004.",0,46.915847,-103.524514
50037293736,5f01fc5ff726a9c76d75693b,0,True,1592923366,66,6,5071,True,3,62634671@N08,John Mac 2011 UK,thro,52a3469f97,65535,2004 johnmacstravelphotography johnmacsusa northdakota theodorerooseveltnationalpark usa usa2004 usa2004tour usa–2004,"Theodore Roosevelt National Park, North Dakota, USA - 2004.",0,46.915847,-103.524514
50036738938,5f01fc5ff726a9c76d756941,0,True,1592923360,66,6,5071,True,3,62634671@N08,John Mac 2011 UK,thro,c33924c0c0,65535,2004 johnmacstravelphotography johnmacsusa northdakota theodorerooseveltnationalpark usa usa2004 usa2004tour usa–2004,"Theodore Roosevelt National Park, North Dakota, USA - 2004.",2,46.915847,-103.524514
50037294136,5f01fc5ff726a9c76d756936,0,True,1592923362,66,6,5071,True,3,62634671@N08,John Mac 2011 UK,thro,5e3ab42328,65535,2004 johnmacstravelphotography johnmacsusa northdakota theodorerooseveltnationalpark usa usa2004 usa2004tour usa–2004,"Theodore Roosevelt National Park, North Dakota, USA - 2004.",1,46.915847,-103.524514
50037552537,5f01fc5ff726a9c76d756938,0,True,1592923363,66,6,5071,True,3,62634671@N08,John Mac 2011 UK,thro,3d3db333af,65535,2004 johnmacstravelphotography johnmacsusa northdakota theodorerooseveltnationalpark usa usa2004 usa2004tour usa–2004,"Theodore Roosevelt National Park, North Dakota, USA - 2004.",0,46.915847,-103.524514
50037293991,5f01fc5ff726a9c76d756939,0,True,1592923364,66,6,5071,True,3,62634671@N08,John Mac 2011 UK,thro,e7b501d5f3,65535,2004 johnmacstravelphotography johnmacsusa northdakota theodorerooseveltnationalpark usa usa2004 usa2004tour usa–2004,"Theodore Roosevelt National Park, North Dakota, USA - 2004.",0,46.915847,-103.524514
50037293511,5f01fc5ff726a9c76d75693f,0,True,1592923368,66,6,5071,True,3,62634671@N08,John Mac 2011 UK,thro,2949f285ae,65535,2004 johnmacstravelphotography johnmacsusa northdakota theodorerooseveltnationalpark usa usa2004 usa2004tour usa–2004,"Theodore Roosevelt National Park, North Dakota, USA - 2004.",0,46.915847,-103.524514
50037294291,5f01fc5ff726a9c76d756934,0,True,1592923360,66,6,5071,True,3,62634671@N08,John Mac 2011 UK,thro,44d4d9c8b1,65535,2004 johnmacstravelphotography johnmacsusa northdakota theodorerooseveltnationalpark usa usa2004 usa2004tour usa–2004,"Theodore Roosevelt National Park, North Dakota, USA - 2004.",1,46.915847,-103.524514
50037293836,5f01fc5ff726a9c76d75693a,0,True,1592923365,66,6,5071,True,3,62634671@N08,John Mac 2011 UK,thro,5de5b2cf1b,65535,2004 johnmacstravelphotography johnmacsusa northdakota theodorerooseveltnationalpark usa usa2004 usa2004tour usa–2004,"Theodore Roosevelt National Park, North Dakota, USA - 2004.",0,46.915847,-103.524514
19649793865,5f01fc5ff726a9c76d756f95,0,True,1436754743,1,3,2412,True,3,24842953@N04,Prairie Star,thro,7b0431eb8f,451,usa hotel nationalpark midwest sunny lodge northdakota nationalparks teddyroosevelt medora theodorerooseveltnationalpark roughriderhotel,Rough Riders Hotel near Theodore Roosevelt national park,434,46.914846999999995,-103.52447
21231033320,5f01fc5ff726a9c76d756f7a,0,True,1442259317,6,1,25,True,3,70862502@N00,theboywil & sunstress,thro,47cd11def8,5728,square squareformat hefe iphoneography instagramapp uploaded:by=instagram foursquare:venue=4c29f05be19720a16234fa58,Teddy woz ere...,50,46.914744,-103.524452
9110870810,5f01fc5ff726a9c76d757269,0,True,1371928100,6,1,752,True,3,28976518@N08,Brandon Kopp,thro,4b63f28374,5487,nature animal nationalpark nikon outdoor hiking hdr theodoreroosevelt d300 18200mm photomatix,Wild Horses in Theodore Roosevelt National Park HDR,2585,46.915746999999996,-103.524339
2142332472,5f01fc5ff726a9c76d7576f2,0,True,1198792519,3,3,2279,True,3,14421744@N04,mwahlsten,thro,44a2cbc265,2136,postoffice flags northdakota medora,day3-16,207,46.914861,-103.52425500000001
14587515108,5f01fc5ff726a9c76d7570c3,0,True,1406613041,6,9,8484,True,3,90023557@N08,WanderWoman757,thro,12ca96a9eb,5551,sunset cloudy teddyrooseveltnpsunset,"Sunset, Wind Canyon, Theodore Roosevelt National Park",1053,46.916294,-103.524194
14577740377,5f01fc5ff726a9c76d7570c6,0,True,1406523291,4,4,3891,True,3,96229739@N03,mookiesworld,thro,6baf22b4f2,3843,square lofi squareformat iphoneography instagramapp uploaded:by=instagram,"Day 5: This day was a blast! We Adventured through the days of the Wild, Wild, West in Wyoming! We saw outlaws and the scared Indian grounds called Devils Tower, then ended it by watching the sunset in North Dakota! Wyoming, we're not through yet! I'll be",62,46.914727,-103.524146
14763888072,5f01fc5ff726a9c76d7570c5,0,True,1406523454,3,4,3891,True,3,96229739@N03,mookiesworld,thro,cceab732aa,2918,square squareformat iphoneography instagramapp uploaded:by=instagram,"Day 5: This day was a blast! We Adventured through the days of the Wild, Wild, West in Wyoming! We saw outlaws and the sacred Indian grounds called Devils Tower, then ended it by watching the sunset in North Dakota! Wyoming, we're not through yet! I'll be",61,46.914727,-103.524146
11700471126,5f01fc5ff726a9c76d757191,0,True,1388631587,6,0,0,True,3,112750023@N04,mgron1,thro,b42e78191b,5539,flickrandroidapp:filter=none,,10,46.915040999999995,-103.5241
11700031944,5f01fc5ff726a9c76d757194,0,True,1388631395,8,0,0,True,3,112750023@N04,mgron1,thro,0af707fa12,7391,flickrandroidapp:filter=none,,6,46.915172,-103.52395600000001
11700467926,5f01fc5ff726a9c76d757192,0,True,1388631576,6,0,0,True,3,112750023@N04,mgron1,thro,9233ccf389,5487,flickrandroidapp:filter=none,,6,46.915133000000004,-103.523942
48770678341,5f01fc5ff726a9c76d7569c5,0,True,1569090504,66,0,0,True,3,69189768@N04,David Fann,thro,87a6be7257,65535,dakota dakotas medora,TR Portrain in the Rough Rider hotel lobby,27,46.915054999999995,-103.523937
41920685012,5f01fc5ff726a9c76d756bae,0,True,1525746202,1,9,8058,True,3,8250364@N03,jjandames,thro,7c645a09a8,971,northdakota 2018 may theodorerooseveltnationalpark,,27,46.915075,-103.523923
28093998228,5f01fc5ff726a9c76d756bad,0,True,1525746306,1,9,8058,True,3,8250364@N03,jjandames,thro,9b6e0f8cb7,831,northdakota 2018 may theodorerooseveltnationalpark,,44,46.915075,-103.523923
19974246431,5f01fc5ff726a9c76d756fbe,0,True,1437743837,1,8,7391,True,3,29762217@N00,Matt Champlin,thro,303ae84525,517,,Theodore Roosevelt National Park,2015,46.916445,-103.523865
48426483702,5f01fc5ff726a9c76d756a5d,0,True,1564611670,66,2,1905,True,3,122511794@N05,artband2,thro,5aa091b179,65535,,Medora ND USA 2,9,46.914833,-103.52385
3767499318,5f01fc5ff726a9c76d75751a,0,True,1248825298,3,3,2621,True,3,40443495@N03,CDJB-Vacation-2009,thro,6ee2fac911,2657,,IMG_1792,13,46.914833,-103.523833
3766641875,5f01fc5ff726a9c76d75751c,0,True,1248823835,4,3,2621,True,3,40443495@N03,CDJB-Vacation-2009,thro,7193bbd270,3440,,IMG_1790,15,46.914833,-103.523833
3767505664,5f01fc5ff726a9c76d757517,0,True,1248825469,3,3,2621,True,3,40443495@N03,CDJB-Vacation-2009,thro,e78337945f,2630,,IMG_1799,12,46.914833,-103.523833
3766704629,5f01fc5ff726a9c76d757519,0,True,1248825393,3,3,2621,True,3,40443495@N03,CDJB-Vacation-2009,thro,799ddca8a8,2650,,IMG_1794,18,46.914833,-103.523833
3766706031,5f01fc5ff726a9c76d757518,0,True,1248825432,3,3,2621,True,3,40443495@N03,CDJB-Vacation-2009,thro,06708f2496,2516,,IMG_1798,14,46.914833,-103.523833
3766635679,5f01fc5ff726a9c76d75751d,0,True,1248823683,4,3,2621,True,3,40443495@N03,CDJB-Vacation-2009,thro,dc7986dff6,3023,,IMG_1790,17,46.914833,-103.523833
3766652969,5f01fc5ff726a9c76d75751b,0,True,1248824099,3,3,2621,True,3,40443495@N03,CDJB-Vacation-2009,thro,f54e910a34,2618,,IMG_1791,20,46.914833,-103.523833
3766713171,5f01fc5ff726a9c76d757516,0,True,1248825618,4,3,2621,True,3,40443495@N03,CDJB-Vacation-2009,thro,341dda4c19,3493,,IMG_1805,15,46.914833,-103.523833
11700047224,5f01fc5ff726a9c76d757193,0,True,1388631453,4,0,0,True,3,112750023@N04,mgron1,thro,2f2fb90bd2,3687,flickrandroidapp:filter=none,,5,46.9147,-103.523698
36370661365,5f01fc5ff726a9c76d756caa,0,True,1501863195,5,4,3829,True,3,27469838@N05,Ernie Orr,thro,d51a5d45a4,4357,bobrussell rmrussell medora roughriders,Rough Riders Hotel - Medora,61,46.914769,-103.52369499999999
47856092942,5f01fc5ff726a9c76d756aa7,0,True,1558531433,66,1,114,True,3,30648150@N00,misterlevel,thro,ff4218c707,65535,,IMG_8182,8,46.914658,-103.523689
48224105482,5f01fc5ff726a9c76d756a7d,0,True,1562526300,66,2,1905,True,3,122511794@N05,artband2,thro,e0459f4c6b,65535,,Medora ND Post Office,12,46.914994,-103.523662
15332145024,5f01fc5ff726a9c76d757006,0,True,1417814371,9,8,7466,True,3,75664878@N00,badmolar,thro,9b09dd0b87,8572,parks2014,Parks2014 082,83,46.914825,-103.523659
36370663405,5f01fc5ff726a9c76d756ca9,0,True,1501863200,5,4,3829,True,3,27469838@N05,Ernie Orr,thro,4a8b2a4817,4331,bobrussell rmrussell medora roughriders,Betty - Rough Riders Hotel in Medora,95,46.915122,-103.52360300000001
5026811333,5f01fc5ff726a9c76d757450,0,True,1285534131,5,6,5608,True,3,33489638@N06,SMKapsen,thro,2c5eed5be5,4129,postoffice northdakota medora iphotooriginal,Medora ND,150,46.9147,-103.52344000000001
3811689129,5f01fc5ff726a9c76d7574b5,0,True,1250017134,4,9,8258,True,3,37621606@N07,State Historical Society of North Dakota,thro,f5cdc5ca50,3454,de site north historic chateau dakota medora mores,0042-037-Toby's-home-Medora-ND,508,46.914898,-103.52329499999999
4756931541,5f01fc5ff726a9c76d757479,0,True,1278162054,5,4,3793,True,3,48099890@N08,Hobo Matt,thro,1489d5c4c7,4142,xmap,"Medora, ND",508,46.915277,-103.52305600000001
35335430760,5f01fc5ff726a9c76d756cb4,0,True,1499202848,5,4,3742,True,3,8599745@N08,kevystew,thro,635816f84b,4037,northdakota billingscounty medora nationalregister nationalregisterofhistoricplaces churches,Saint Mary's Catholic Church- Medora ND (1),381,46.914646999999995,-103.52293399999999
35591379151,5f01fc5ff726a9c76d756cb5,0,True,1499202847,5,4,3742,True,3,8599745@N08,kevystew,thro,6bf46459f1,4120,northdakota billingscounty medora nationalregister nationalregisterofhistoricplaces churches sign,Saint Mary's Catholic Church- Medora ND (2),309,46.914646999999995,-103.52293399999999
3811689147,5f01fc5ff726a9c76d75750f,0,True,1250017135,3,9,8258,True,3,37621606@N07,State Historical Society of North Dakota,thro,e3ebb85553,2615,de site north historic chateau dakota medora mores,Medora Church,430,46.914993,-103.522705
3811689327,5f01fc5ff726a9c76d75750e,0,True,1250017138,4,9,8258,True,3,37621606@N07,State Historical Society of North Dakota,thro,9987e6a05e,3421,de site north historic chateau dakota medora mores,0042-028-Church-Medora-DT,379,46.914993,-103.522705
48163966872,5f01fc5ff726a9c76d756a87,0,True,1561935204,66,4,3829,True,4,27469838@N05,Ernie Orr,thro,6910a7d2b2,65535,bobrussell rmrussell theodorerooseveltnationalparksouthunit theodorerooseveltnationalpark nationalpark northdakota wildlife mustang wildhorse wildhorses foal mare stallion mustangs feralhorse feralhorses,Small Mustang Herd - Theodore Roosevelt National Park South Unit,124,46.933844,-103.522609
6489079411,5f01fc5ff726a9c76d757336,0,True,1323556650,8,4,3881,True,4,16767123@N08,mlanza,thro,90aa5db018,7034,autumn trees sunset orange west fall grass evening nationalpark twilight dusk hills foliage northdakota badlands prairie plains medora buttes theodoreroosevelt greatplains theodorerooseveltnationalpark southunit skylinevista,Sunset in Theodore Roosevelt National Park,195,46.933846,-103.52230300000001
6489087391,5f01fc5ff726a9c76d757335,0,True,1323556757,8,4,3881,True,4,16767123@N08,mlanza,thro,e69d1e528e,7020,autumn trees sunset orange west fall grass evening nationalpark twilight dusk hills foliage northdakota badlands prairie plains medora buttes theodoreroosevelt greatplains theodorerooseveltnationalpark southunit skylinevista,Sunset in Theodore Roosevelt National Park,188,46.933846,-103.52230300000001
6489090681,5f01fc5ff726a9c76d757334,0,True,1323556802,8,4,3881,True,4,16767123@N08,mlanza,thro,42b9a11ba6,7164,autumn trees sunset orange west fall grass evening nationalpark twilight dusk hills foliage northdakota badlands prairie plains medora buttes theodoreroosevelt greatplains theodorerooseveltnationalpark southunit skylinevista,Sunset in Theodore Roosevelt National Park,317,46.933846,-103.52230300000001
6489097607,5f01fc5ff726a9c76d757333,0,True,1323556895,8,4,3881,True,4,16767123@N08,mlanza,thro,73f5477b58,7034,autumn trees sunset orange west fall evening nationalpark twilight purple dusk foliage northdakota badlands prairie plains medora theodoreroosevelt greatplains theodorerooseveltnationalpark southunit,Dusk in Theodore Roosevelt National Park,297,46.933846,-103.52230300000001
7993603532,5f01fc5ff726a9c76d7572ca,0,True,1347832259,9,6,5716,True,4,48277923@N00,anfearglas,thro,8cb41d2401,8449,teddyrooseveltpark,Happy Sandy,229,46.933667,-103.52216700000001
46375331551,5f01fc5ff726a9c76d756a3f,0,True,1545187646,5,6,5565,True,4,14723335@N05,thor_mark ,thro,7cd8cf2d47,4837,alongroadside alongscenicloopdrive azimuth124 blueskies capturenx2edited colorefexpro day6 grassland grassyarea grassyfield grassymeadow greatplains landscape lookingese mixedgrassprairieecosystem nature nikond800e northamericaplains northernusgreatplains outside portfolio prairiegrass prairiegrasses project365 roadsidepulloff roadsidestop rollinghillsides southunit sunny theodorerooseveltnationalpark theodorerooseveltnationalparksouthunit triptodakotas triptodakotasandwyoming westcentraldakotaplains northdakota unitedstates,Morning Hours in Theodore Roosevelt National Park,1950,46.933483,-103.52145
27802302115,5f01fc5ff726a9c76d756e4a,0,True,1466457007,8,6,5530,True,4,42799047@N06,stonejd1946,thro,1cc76da688,7354,us unitedstates places northdakota medora theodorerooseveltnatlpark,"Theodore Roosevelt National Park, North Dakota",38,46.933888,-103.521112
27523974580,5f01fc5ff726a9c76d756e43,0,True,1466457079,8,6,5530,True,4,42799047@N06,stonejd1946,thro,b777b12ca6,7345,us unitedstates places northdakota medora theodorerooseveltnatlpark,Theodore Roosevelt National Park,23,46.933888,-103.521112
27523970510,5f01fc5ff726a9c76d756e44,0,True,1466457071,8,6,5530,True,4,42799047@N06,stonejd1946,thro,4b7374da5f,7395,horse nature us unitedstates places northdakota mammals medora theodorerooseveltnatlpark,Wild horses in Theodore Roosevelt National Park,46,46.933896999999995,-103.521028
27523966340,5f01fc5ff726a9c76d756e45,0,True,1466457062,8,6,5530,True,4,42799047@N06,stonejd1946,thro,940f0e07ab,7401,horse nature us unitedstates places northdakota mammals medora theodorerooseveltnatlpark,Wild horses in Theodore Roosevelt National Park,44,46.933896999999995,-103.521028
27523961850,5f01fc5ff726a9c76d756e46,0,True,1466457054,8,6,5530,True,4,42799047@N06,stonejd1946,thro,f542fb8a4f,7577,nature us unitedstates places northdakota bison mammals medora theodorerooseveltnatlpark,Bison in Theodore Roosevelt National Park,33,46.933896999999995,-103.521028
27190398934,5f01fc5ff726a9c76d756e42,0,True,1466457090,8,6,5530,True,4,42799047@N06,stonejd1946,thro,ef966fbd51,7406,us unitedstates places northdakota medora theodorerooseveltnatlpark,Theodore Roosevelt National Park,35,46.933896999999995,-103.521028
27802306095,5f01fc5ff726a9c76d756e49,0,True,1466457022,8,6,5530,True,4,42799047@N06,stonejd1946,thro,5daaaf8bf5,7622,horse nature us unitedstates places northdakota mammals medora theodorerooseveltnatlpark,Wild horses in Theodore Roosevelt National Park,41,46.933896999999995,-103.521028
48770359268,5f01fc5ff726a9c76d7569a3,0,True,1569090482,66,0,0,True,4,69189768@N04,David Fann,thro,d8e343f68b,65535,dakota dakotas southunit trnp theodorerooseveltnationalpark wildhorses,Wild horses beside the East River Rd,30,46.933873999999996,-103.52023100000001
4009341475,5f01fc5ff726a9c76d7574d2,0,True,1255478505,4,66,65535,True,4,32005048@N06,Arthur Chapman,thro,ddc70bcfe5,3226,mammalia mammal rodentia sciuridae cynomys ludovicianus theodorerooseveltnationalpark medora northdakota usa unitedstatesofamerica cynomysludovicianus blacktailedprairiedog taxonomy:class=mammalia taxonomy:order=rodentia taxonomy:family=sciuridae taxonomy:genus=cynomys taxonomy:binomial=cynomysludovicianus taxonomy:common=blacktailedprairiedog geocode:accuracy=100meters geocode:method=gps geo:country=unitedstatesofamerica taxonomy:phylum=chordata taxonomy:kingdom=animalia,Cynomys ludovicianus (Black-tailed Prairie Dog),516,46.93394,-103.51955
4009343241,5f01fc5ff726a9c76d7574d1,0,True,1255478550,3,66,65535,True,4,32005048@N06,Arthur Chapman,thro,80f454d055,2670,usa mammal unitedstatesofamerica northdakota mammalia rodentia cynomysludovicianus medora sciuridae ludovicianus theodorerooseveltnationalpark blacktailedprairiedog cynomys taxonomy:kingdom=animalia taxonomy:class=mammalia taxonomy:phylum=chordata geo:country=unitedstatesofamerica taxonomy:order=rodentia taxonomy:family=sciuridae taxonomy:common=blacktailedprairiedog taxonomy:binomial=cynomysludovicianus geocode:method=gps geocode:accuracy=100meters taxonomy:genus=cynomys,Cynomys ludovicianus (Black-tailed Prairie Dog),414,46.93394,-103.51955
4010106750,5f01fc5ff726a9c76d7574d3,0,True,1255478445,3,66,65535,True,4,32005048@N06,Arthur Chapman,thro,dfacbe3796,2574,usa mammal unitedstatesofamerica northdakota mammalia rodentia cynomysludovicianus medora sciuridae ludovicianus theodorerooseveltnationalpark blacktailedprairiedog cynomys taxonomy:kingdom=animalia taxonomy:class=mammalia taxonomy:phylum=chordata geo:country=unitedstatesofamerica taxonomy:order=rodentia taxonomy:family=sciuridae taxonomy:common=blacktailedprairiedog taxonomy:binomial=cynomysludovicianus geocode:method=gps geocode:accuracy=100meters taxonomy:genus=cynomys,Cynomys ludovicianus (Black-tailed Prairie Dog),471,46.93394,-103.51955
4009347305,5f01fc5ff726a9c76d7574cf,0,True,1255478654,4,66,65535,True,4,32005048@N06,Arthur Chapman,thro,d2cd0753c0,3230,usa mammal unitedstatesofamerica northdakota mammalia rodentia cynomysludovicianus medora sciuridae ludovicianus theodorerooseveltnationalpark blacktailedprairiedog cynomys taxonomy:kingdom=animalia taxonomy:class=mammalia taxonomy:phylum=chordata geo:country=unitedstatesofamerica taxonomy:order=rodentia taxonomy:family=sciuridae taxonomy:common=blacktailedprairiedog taxonomy:binomial=cynomysludovicianus geocode:method=gps geocode:accuracy=100meters taxonomy:genus=cynomys,Cynomys ludovicianus (Black-tailed Prairie Dog),431,46.93394,-103.51955
4009350873,5f01fc5ff726a9c76d7574ce,0,True,1255478751,3,66,65535,True,4,32005048@N06,Arthur Chapman,thro,92033c26a6,2584,usa mammal unitedstatesofamerica northdakota mammalia rodentia cynomysludovicianus medora sciuridae ludovicianus theodorerooseveltnationalpark blacktailedprairiedog cynomys taxonomy:kingdom=animalia taxonomy:class=mammalia taxonomy:phylum=chordata geo:country=unitedstatesofamerica taxonomy:order=rodentia taxonomy:family=sciuridae taxonomy:common=blacktailedprairiedog taxonomy:binomial=cynomysludovicianus geocode:method=gps geocode:accuracy=100meters taxonomy:genus=cynomys,Cynomys ludovicianus (Black-tailed Prairie Dog),425,46.93394,-103.51955
4010113098,5f01fc5ff726a9c76d7574d0,0,True,1255478605,3,66,65535,True,4,32005048@N06,Arthur Chapman,thro,6b3258aa32,2657,usa mammal unitedstatesofamerica northdakota mammalia rodentia cynomysludovicianus medora sciuridae ludovicianus theodorerooseveltnationalpark blacktailedprairiedog cynomys taxonomy:kingdom=animalia taxonomy:class=mammalia taxonomy:phylum=chordata geo:country=unitedstatesofamerica taxonomy:order=rodentia taxonomy:family=sciuridae taxonomy:common=blacktailedprairiedog taxonomy:binomial=cynomysludovicianus geocode:method=gps geocode:accuracy=100meters taxonomy:genus=cynomys,Cynomys ludovicianus (Black-tailed Prairie Dog),612,46.93394,-103.51955
5966324203,5f01fc5ff726a9c76d7573ec,0,True,1311424478,7,6,5560,True,4,46514221@N03,Dawn Coyote,thro,432eede0c4,6136,nationalpark northdakota bison theodorerooseveltnationalpark vacation2011,Bison,60,46.934878999999995,-103.51894399999999
5966889108,5f01fc5ff726a9c76d7573eb,0,True,1311424770,7,6,5560,True,4,46514221@N03,Dawn Coyote,thro,fbe7daf5e4,6003,nationalpark northdakota bison theodorerooseveltnationalpark vacation2011,Bison,72,46.934878999999995,-103.51894399999999
5966896974,5f01fc5ff726a9c76d7573ea,0,True,1311425046,7,6,5560,True,4,46514221@N03,Dawn Coyote,thro,b07acfcdea,6029,nationalpark northdakota bison theodorerooseveltnationalpark vacation2011,Bison,63,46.934878999999995,-103.51894399999999
27191054443,5f01fc5ff726a9c76d756e47,0,True,1466457043,8,6,5530,True,4,42799047@N06,stonejd1946,thro,4f615090e4,7463,nature us unitedstates places northdakota bison mammals medora theodorerooseveltnatlpark,Bison in Theodore Roosevelt National Park,31,46.933619,-103.51880600000001
27191051743,5f01fc5ff726a9c76d756e48,0,True,1466457032,8,6,5530,True,4,42799047@N06,stonejd1946,thro,5ac0f60601,7369,nature us unitedstates places northdakota prairiedog mammals medora theodorerooseveltnatlpark,"""Java the Prairie Dog"" in Theodore Roosevelt National Park",29,46.933619,-103.51880600000001
23675594604,5f01fc5ff726a9c76d756f27,0,True,1452471135,2,4,3818,True,4,100208196@N07,bdnb,thro,3fd2d0d694,1705,,Deer,19,46.933152,-103.517889
