,key,id,owner,secret,server,farm,title,ispublic,isfriend,isfamily,dateposted,tags,longitude,latitude,url
0,49782395663_40243520@N02_0ffc8a423e,49782395663,www78,0ffc8a423e,65535,66,Jordan Pond from North Bubble,1,0,0,2019-11-01 21:40:24,"['Eagle', 'Lake', 'from', 'North', 'Bubble', 'Bubbles', 'Acadia', 'National', 'Park', 'Maine', 'Bar', 'Harbor']",-68.25664,44.343869,https://www.flickr.com/photos/whsieh78/49782395663/
1,49783256857_40243520@N02_f726ddd4e8,49783256857,www78,f726ddd4e8,65535,66,Bubble Rock Trail 2,1,0,0,2019-09-13 07:35:44,"['Bubble', 'Rock', 'Trail', 'Bubbles', 'Acadia', 'National', 'Park', 'Maine', 'Bar', 'Harbor']",-68.253775,44.338237,https://www.flickr.com/photos/whsieh78/49783256857/
2,49783256297_40243520@N02_211c4bf61f,49783256297,www78,211c4bf61f,65535,66,Jordan Pond from South Bubble,1,0,0,2019-09-13 07:44:08,"['Jordan', 'Pond', 'from', 'South', 'Bubble', 'Bubbles', 'Acadia', 'National', 'Park', 'Maine', 'Bar', 'Harbor']",-68.253582,44.338613,https://www.flickr.com/photos/whsieh78/49783256297/
3,49783256007_40243520@N02_3a0b7d693b,49783256007,www78,3a0b7d693b,65535,66,Jordan Pond from South Bubble,1,0,0,2019-09-13 07:45:18,"['Jordan', 'Pond', 'from', 'South', 'Bubble', 'Bubbles', 'Acadia', 'National', 'Park', 'Maine', 'Bar', 'Harbor']",-68.25355,44.338882,https://www.flickr.com/photos/whsieh78/49783256007/
4,49783255482_40243520@N02_90249902ef,49783255482,www78,90249902ef,65535,66,North Bubble from South Bubble,1,0,0,2019-09-13 07:49:06,"['North', 'Bubble', 'from', 'South', 'Bubbles', 'Acadia', 'National', 'Park', 'Maine', 'Bar', 'Harbor']",-68.253443,44.339688,https://www.flickr.com/photos/whsieh78/49783255482/
5,49782933236_40243520@N02_63e352ce08,49782933236,www78,63e352ce08,65535,66,Bubble Rock,1,0,0,2019-09-13 07:51:16,"['Bubble', 'Rock', 'Bubbles', 'Acadia', 'National', 'Park', 'Maine', 'Bar', 'Harbor']",-68.25325,44.339649,https://www.flickr.com/photos/whsieh78/49782933236/
6,49781795267_31608341@N02_7f713fdede,49781795267,Greg from Maine,7f713fdede,65535,66,Twilight before the Dawn,1,0,0,2012-08-14 05:07:28,"['acadia national park', 'acadia', 'twilight', 'sunrise', 'sunset', 'maine', 'bar harbor', 'bar harbor maine', 'mdi', 'mount desert island', 'reflections', 'morning', 'morning mist', 'fog', 'foggy', 'hancock county', 'trees', 'mt desert narrows', 'mount desert narrows', 'ocean', 'water', 'bay', 'calm', 'peace', 'peaceful', 'nature', 'landscape', 'national park', 'dawn']",-68.364808,44.424294,https://www.flickr.com/photos/acadia-maine/49781795267/
7,49778671768_40243520@N02_3d46538de1,49778671768,www78,3d46538de1,65535,66,Bubble Rock Trail,1,0,0,2019-09-13 07:30:11,"['Bubble', 'Rock', 'Trail', 'Acadia', 'National', 'Park', 'Bar', 'Harbor', 'Maine']",-68.253411,44.336603,https://www.flickr.com/photos/whsieh78/49778671768/
8,49779533107_40243520@N02_fb0ba59c50,49779533107,www78,fb0ba59c50,65535,66,Jordan Pond,1,0,0,2019-09-13 06:51:32,"['Jordan', 'Pond', 'Acadia', 'National', 'Park', 'Bar', 'Harbor', 'Maine']",-68.254258,44.322566,https://www.flickr.com/photos/whsieh78/49779533107/
9,49778671008_40243520@N02_03fddc82ca,49778671008,www78,03fddc82ca,65535,66,Jordan Pond 2,1,0,0,2019-09-13 06:54:33,"['Jordan', 'Pond', 'Acadia', 'National', 'Park', 'Bar', 'Harbor', 'Maine']",-68.250042,44.323656,https://www.flickr.com/photos/whsieh78/49778671008/
10,49779201651_40243520@N02_ab5384bc15,49779201651,www78,ab5384bc15,65535,66,Jordan Pond 3,1,0,0,2019-09-13 06:58:42,"['Jordan', 'Pond', 'Acadia', 'National', 'Park', 'Bar', 'Harbor', 'Maine']",-68.250267,44.325521,https://www.flickr.com/photos/whsieh78/49779201651/
11,49779201386_40243520@N02_7b6d515928,49779201386,www78,7b6d515928,65535,66,Jordan Pond 4,1,0,0,2019-09-13 07:20:58,"['Jordan', 'Pond', 'Acadia', 'National', 'Park', 'Bar', 'Harbor', 'Maine']",-68.252906,44.335421,https://www.flickr.com/photos/whsieh78/49779201386/
12,49779201041_40243520@N02_98e4561bbc,49779201041,www78,98e4561bbc,65535,66,Jordan Pond 5,1,0,0,2019-09-13 07:21:38,"['Jordan', 'Pond', 'Acadia', 'National', 'Park', 'Bar', 'Harbor', 'Maine']",-68.251587,44.33229,https://www.flickr.com/photos/whsieh78/49779201041/
13,49775309723_53492087@N04_94da696e38,49775309723,cooks333,94da696e38,65535,66,Cadillac Sunrise,1,0,0,2017-10-23 05:52:55,"['PentaxArt', 'FlickrTravelAward', 'PentaxFlickrAward']",-68.222329,44.352677,https://www.flickr.com/photos/cooks333/49775309723/
14,49774896398_40243520@N02_abff764a30,49774896398,www78,abff764a30,65535,66,Jordan Pond House,1,0,0,2019-09-13 06:49:42,"['Bar', 'Harbor', 'Jordan', 'Pond', 'House', 'Maine', 'Acadia', 'National', 'Park']",-68.254365,44.320985,https://www.flickr.com/photos/whsieh78/49774896398/
15,49775423081_40243520@N02_ceeee25549,49775423081,www78,ceeee25549,65535,66,Geddy's Down Under,1,0,0,2019-09-13 05:05:01,"[""Geddy's"", 'Down', 'Under', 'Bar', 'Harbor', 'Maine']",-68.20497,44.390693,https://www.flickr.com/photos/whsieh78/49775423081/
16,49775756727_40243520@N02_d6c33051ef,49775756727,www78,d6c33051ef,65535,66,Agamont Park,1,0,0,2019-09-13 05:05:18,"['Bar', 'Harbor', 'Agamont', 'Park', 'Maine']",-68.204927,44.390402,https://www.flickr.com/photos/whsieh78/49775756727/
17,49775756542_40243520@N02_97b4c6e049,49775756542,www78,97b4c6e049,65535,66,Bar Harbor,1,0,0,2019-09-13 05:06:19,"['Bar', 'Harbor', 'Maine']",-68.204745,44.389566,https://www.flickr.com/photos/whsieh78/49775756542/
18,49775422156_40243520@N02_64bee94c30,49775422156,www78,64bee94c30,65535,66,Bar Harbor Post Office,1,0,0,2019-09-13 05:39:58,"['Bar', 'Harbor', 'Post', 'Office', 'Maine']",-68.206901,44.389512,https://www.flickr.com/photos/whsieh78/49775422156/
19,49774894888_40243520@N02_12d67a1e7f,49774894888,www78,12d67a1e7f,65535,66,Bar Harbor Town Hall,1,0,0,2019-09-13 05:43:35,"['Bar', 'Harbor', 'Town', 'Hall', 'Maine']",-68.208628,44.389221,https://www.flickr.com/photos/whsieh78/49774894888/
20,49775459262_95344565@N00_1695123a95,49775459262,courchez,1695123a95,65535,66,,1,0,0,2018-08-21 19:14:45,[],-68.076675,44.360377,https://www.flickr.com/photos/wallsend/49775459262/
21,49774596928_95344565@N00_bcf4608a3b,49774596928,courchez,bcf4608a3b,65535,66,,1,0,0,2018-08-21 19:14:30,[],-68.076662,44.360383,https://www.flickr.com/photos/wallsend/49774596928/
22,49774596813_95344565@N00_4507b7ef40,49774596813,courchez,4507b7ef40,65535,66,,1,0,0,2018-08-21 19:13:46,[],-68.076653,44.360394,https://www.flickr.com/photos/wallsend/49774596813/
23,49774596688_95344565@N00_f9f072a3f4,49774596688,courchez,f9f072a3f4,65535,66,,1,0,0,2018-08-21 19:10:35,[],-68.076662,44.360388,https://www.flickr.com/photos/wallsend/49774596688/
24,49775458847_95344565@N00_421db3edfa,49775458847,courchez,421db3edfa,65535,66,,1,0,0,2018-08-21 19:10:34,[],-68.076662,44.360388,https://www.flickr.com/photos/wallsend/49775458847/
25,49775127936_95344565@N00_762c030ea9,49775127936,courchez,762c030ea9,65535,66,,1,0,0,2018-08-21 19:10:12,[],-68.076667,44.360363,https://www.flickr.com/photos/wallsend/49775127936/
26,49775127786_95344565@N00_96ec03a163,49775127786,courchez,96ec03a163,65535,66,,1,0,0,2018-08-21 19:09:40,[],-68.076637,44.3604,https://www.flickr.com/photos/wallsend/49775127786/
27,49774595858_95344565@N00_e509d51a35,49774595858,courchez,e509d51a35,65535,66,,1,0,0,2018-08-21 19:09:10,[],-68.076637,44.360425,https://www.flickr.com/photos/wallsend/49774595858/
28,49775458022_95344565@N00_63d0d515e4,49775458022,courchez,63d0d515e4,65535,66,,1,0,0,2018-08-21 19:09:05,[],-68.076631,44.360425,https://www.flickr.com/photos/wallsend/49775458022/
29,49775127116_95344565@N00_00bf26c34a,49775127116,courchez,00bf26c34a,65535,66,,1,0,0,2018-08-21 19:09:05,[],-68.076631,44.360425,https://www.flickr.com/photos/wallsend/49775127116/
30,49775126866_95344565@N00_5c51f3a2d4,49775126866,courchez,5c51f3a2d4,65535,66,,1,0,0,2018-08-21 19:08:31,[],-68.0766,44.360427,https://www.flickr.com/photos/wallsend/49775126866/
31,49775126656_95344565@N00_e408720868,49775126656,courchez,e408720868,65535,66,,1,0,0,2018-08-21 19:08:12,[],-68.076606,44.360438,https://www.flickr.com/photos/wallsend/49775126656/
32,49775126496_95344565@N00_2a38390f01,49775126496,courchez,2a38390f01,65535,66,,1,0,0,2018-08-21 12:31:50,[],-68.045556,44.338875,https://www.flickr.com/photos/wallsend/49775126496/
33,49775126266_95344565@N00_0c39bb7d81,49775126266,courchez,0c39bb7d81,65535,66,,1,0,0,2018-08-21 12:30:39,[],-68.046303,44.338888,https://www.flickr.com/photos/wallsend/49775126266/
34,49775122361_95344565@N00_a82f5b87be,49775122361,courchez,a82f5b87be,65535,66,,1,0,0,2018-08-21 12:00:15,[],-68.04895,44.343863,https://www.flickr.com/photos/wallsend/49775122361/
35,49774590873_95344565@N00_e8e2d7bc0b,49774590873,courchez,e8e2d7bc0b,65535,66,,1,0,0,2018-08-21 11:54:53,[],-68.050653,44.345525,https://www.flickr.com/photos/wallsend/49774590873/
36,49774590658_95344565@N00_aae5d4b4e3,49774590658,courchez,aae5d4b4e3,65535,66,,1,0,0,2018-08-21 11:42:12,[],-68.052489,44.34938,https://www.flickr.com/photos/wallsend/49774590658/
37,49775451717_95344565@N00_ec8e7b874e,49775451717,courchez,ec8e7b874e,65535,66,,1,0,0,2018-08-21 11:08:14,[],-68.052917,44.35078,https://www.flickr.com/photos/wallsend/49775451717/
38,49775451462_95344565@N00_431b781a80,49775451462,courchez,431b781a80,65535,66,,1,0,0,2018-08-21 10:21:14,[],-68.052362,44.341805,https://www.flickr.com/photos/wallsend/49775451462/
39,49775120251_95344565@N00_c37c4f63a2,49775120251,courchez,c37c4f63a2,65535,66,,1,0,0,2018-08-21 10:09:00,[],-68.045137,44.339019,https://www.flickr.com/photos/wallsend/49775120251/
40,49775450462_95344565@N00_92be696438,49775450462,courchez,92be696438,65535,66,,1,0,0,2018-08-21 10:08:43,[],-68.045098,44.338955,https://www.flickr.com/photos/wallsend/49775450462/
41,49775448997_95344565@N00_2cc0d23777,49775448997,courchez,2cc0d23777,65535,66,,1,0,0,2018-08-21 09:22:10,[],-68.066612,44.335972,https://www.flickr.com/photos/wallsend/49775448997/
42,49774581388_95344565@N00_fd40424f34,49774581388,courchez,fd40424f34,65535,66,,1,0,0,2018-08-20 12:17:57,[],-68.075645,44.375716,https://www.flickr.com/photos/wallsend/49774581388/
43,49775443267_95344565@N00_7f4c83c26c,49775443267,courchez,7f4c83c26c,65535,66,,1,0,0,2018-08-20 11:54:26,[],-68.075631,44.375686,https://www.flickr.com/photos/wallsend/49775443267/
44,49774580863_95344565@N00_d0e1a5f2b2,49774580863,courchez,d0e1a5f2b2,65535,66,,1,0,0,2018-08-20 11:30:50,[],-68.075692,44.375675,https://www.flickr.com/photos/wallsend/49774580863/
45,49775315772_35376895@N03_390078ac37,49775315772,maryalley904,390078ac37,65535,66,"Eastern Bluebird, female",1,0,0,2020-04-06 09:44:56,[],-68.293606,44.417591,https://www.flickr.com/photos/maryalley/49775315772/
46,49774982216_35376895@N03_59cb1798ec,49774982216,maryalley904,59cb1798ec,65535,66,"Eastern Birdbird, female",1,0,0,2020-04-06 09:44:52,[],-68.293592,44.417588,https://www.flickr.com/photos/maryalley/49774982216/
47,49774448548_35376895@N03_363c23eeb5,49774448548,maryalley904,363c23eeb5,65535,66,Duck Brook,1,0,0,2020-04-06 09:11:36,[],-68.235803,44.390219,https://www.flickr.com/photos/maryalley/49774448548/
48,49771083313_40243520@N02_8c9d1e54b9,49771083313,www78,8c9d1e54b9,65535,66,Stewman's Lobster Pound,1,0,0,2019-09-13 05:03:52,"[""Stewman's"", 'Lobster', 'Pound', 'Bar', 'Harbor', 'Maine']",-68.206225,44.390969,https://www.flickr.com/photos/whsieh78/49771083313/
49,49771083058_40243520@N02_394c6a0ae9,49771083058,www78,394c6a0ae9,65535,66,Bar Harbor Night 2,1,0,0,2019-09-12 16:49:37,"['Bar', 'Harbor', 'Night', 'Maine']",-68.204466,44.388853,https://www.flickr.com/photos/whsieh78/49771083058/
50,49771616841_40243520@N02_94d4ecf315,49771616841,www78,94d4ecf315,65535,66,1947 Fire Memorial,1,0,0,2019-09-13 04:48:52,"['1947', 'Fire', 'Memorial', 'Bar', 'Harbor', 'Maine']",-68.216096,44.389236,https://www.flickr.com/photos/whsieh78/49771616841/
51,49771616306_40243520@N02_e8f80e8cb7,49771616306,www78,e8f80e8cb7,65535,66,La Rochelle Mansion,1,0,0,2019-09-13 04:51:45,"['La', 'Rochelle', 'Mansion', 'Bar', 'Harbor', 'Maine']",-68.213092,44.389903,https://www.flickr.com/photos/whsieh78/49771616306/
52,49771081198_40243520@N02_ce5c1dcb33,49771081198,www78,ce5c1dcb33,65535,66,Bar Harbor Mansions,1,0,0,2019-09-13 04:55:12,"['Bar', 'Harbor', 'Mansions', 'Maine']",-68.211976,44.390118,https://www.flickr.com/photos/whsieh78/49771081198/
53,49771942342_40243520@N02_c8c478aaec,49771942342,www78,c8c478aaec,65535,66,Bar Island High Tide,1,0,0,2019-09-13 04:57:34,"['Bar', 'Island', 'Low', 'Tide', 'Harbor', 'Maine', 'Acadia', 'National', 'Park']",-68.210173,44.392364,https://www.flickr.com/photos/whsieh78/49771942342/
54,49770441808_31608341@N02_02ede49e84,49770441808,Greg from Maine,02ede49e84,65535,66,"Margaret Todd in Bar Harbor, ME",1,0,0,2012-06-11 04:57:54,"['bar harbor', 'bar harbor maine', 'maine', 'schooner', 'margaret todd', 'acadia', 'acadia national park', 'mdi', 'mount desert island', 'island', 'island living', 'reflection', 'sky', 'nature', 'landscape', 'seascape', 'dock', 'hancock county', 'mast', 'morning', 'sunrise']",-68.204026,44.391184,https://www.flickr.com/photos/acadia-maine/49770441808/
55,49769984046_31608341@N02_6f8f242c7a,49769984046,Greg from Maine,6f8f242c7a,65535,66,"Bar Harbor, Maine",1,0,0,2012-06-11 04:53:12,"['bar harbor', 'bar harbor maine', 'maine', 'schooner', 'margaret todd', 'acadia', 'acadia national park', 'mdi', 'mount desert island', 'island', 'island living', 'reflection', 'sky', 'nature', 'landscape', 'seascape', 'dock', 'hancock county', 'mast', 'morning', 'sunrise', 'lobster boat']",-68.203897,44.39103,https://www.flickr.com/photos/acadia-maine/49769984046/
56,49768229852_31608341@N02_e1932b69eb,49768229852,Greg from Maine,e1932b69eb,65535,66,"Bar Harbor, Maine",1,0,0,2020-04-15 14:34:46,"['sunrise', 'bar harbor', 'bar harbor maine', 'schooner', 'margaret todd', 'acadia', 'acadia national park', 'maine', 'mdi', 'reflections', 'yacht', 'vacation', 'mount desert island', 'landscape', 'seascape', 'harbor', 'dock', 'hancock county']",-68.204219,44.391536,https://www.flickr.com/photos/acadia-maine/49768229852/
57,49766900296_35376895@N03_935e8ff261,49766900296,maryalley904,935e8ff261,65535,66,"Northern Shoveler, male",1,0,0,2020-03-31 14:20:52,[],-68.284356,44.428405,https://www.flickr.com/photos/maryalley/49766900296/
58,49766355178_35376895@N03_b4dfa05d85,49766355178,maryalley904,b4dfa05d85,65535,66,Wood Duck,1,0,0,2020-03-29 09:55:43,[],-68.284256,44.426344,https://www.flickr.com/photos/maryalley/49766355178/
59,49766872881_125106122@N07_b1b4385a80,49766872881,LifeIsForEnjoying,b1b4385a80,65535,66,DJI_0437,1,0,0,2020-03-21 18:17:26,['boat'],-68.321528,44.272897,https://www.flickr.com/photos/skysrfr/49766872881/
60,49766755496_13879794@N04_ec79ed4208,49766755496,Tiigra,ec79ed4208,65535,66,Rose color coast,1,0,0,2013-06-04 14:58:19,"['2013', 'Bar Harbor', 'Maine', 'United States', 'coast', 'landscape', 'moss', 'nature', 'plant', 'rock', 'sea', 'tree', 'USA']",-68.185834,44.326666,https://www.flickr.com/photos/13879794@N04/49766755496/
61,49766755426_13879794@N04_9be811f27e,49766755426,Tiigra,9be811f27e,65535,66,Colors of Otter Cove,1,0,0,2013-06-04 15:58:02,"['2013', 'Bar Harbor', 'Maine', 'United States', 'coast', 'color', 'moss', 'nature', 'rock', 'texture', 'USA']",-68.192117,44.306847,https://www.flickr.com/photos/13879794@N04/49766755426/
62,49766753996_13893079@N06_2398504ac8,49766753996,Tigra K,2398504ac8,65535,66,Rose color coast,1,0,0,2013-06-04 14:58:19,"['2013', 'Bar Harbor', 'Maine', 'United States', 'coast', 'landscape', 'moss', 'nature', 'plant', 'rock', 'sea', 'tree', 'USA']",-68.185834,44.326666,https://www.flickr.com/photos/tiigra/49766753996/
63,49766753861_13893079@N06_772a9f7cfc,49766753861,Tigra K,772a9f7cfc,65535,66,Colors of Otter Cove,1,0,0,2013-06-04 15:58:02,"['2013', 'Bar Harbor', 'Maine', 'United States', 'coast', 'color', 'moss', 'nature', 'rock', 'texture', 'USA']",-68.192117,44.306847,https://www.flickr.com/photos/tiigra/49766753861/
64,49766587257_40243520@N02_02da53316b,49766587257,www78,02da53316b,65535,66,Bar Harbor Night,1,0,0,2019-09-12 16:47:22,"['Bar', 'Harbor', 'Night', 'Maine']",-68.204905,44.390279,https://www.flickr.com/photos/whsieh78/49766587257/
65,49766585857_40243520@N02_e8a964287f,49766585857,www78,e8a964287f,65535,66,Bass Harbor Lighthouse Sunset Photographers,1,0,0,2019-09-12 15:48:50,"['Bass', 'Harbor', 'Lighthouse', 'Sunset', 'Photographers', 'Acadia', 'National', 'Park', 'Maine']",-68.337246,44.221799,https://www.flickr.com/photos/whsieh78/49766585857/
66,49766585252_40243520@N02_16e8fdccde,49766585252,www78,16e8fdccde,65535,66,Bass Harbor Light 2,1,0,0,2019-09-12 16:05:02,"['Bass', 'Harbor', 'Lighthouse', 'Acadia', 'National', 'Park', 'Maine']",-68.337771,44.222106,https://www.flickr.com/photos/whsieh78/49766585252/
67,49765720413_40243520@N02_2b88bb932b,49765720413,www78,2b88bb932b,65535,66,Maine Flag Over Bar Harbor,1,0,0,2019-09-12 16:47:34,"['Maine', 'Flag', 'Over', 'Bar', 'Harbor']",-68.204412,44.387979,https://www.flickr.com/photos/whsieh78/49765720413/
68,49765731478_31608341@N02_cf7cae84d2,49765731478,Greg from Maine,cf7cae84d2,65535,66,Acadia National Park Sunrise,1,0,0,2013-07-17 05:38:55,"['sunrise', 'acadia sunrise', 'acadia national park', 'maine', 'bar harbor', 'bar harbor maine', 'clouds', 'sky', 'reflections', 'mdi', 'mount desert island', 'national park', 'landscape', 'seascape', 'bay', 'cove', 'sun', 'sunburst', 'nature', 'peace', 'peaceful', 'morning', 'trees', 'hancock county']",-68.364787,44.424218,https://www.flickr.com/photos/acadia-maine/49765731478/
69,49762156058_56097032@N07_acfa66dc49,49762156058,Walt Polley,acfa66dc49,65535,66,No quarantine for me!,1,0,0,2019-10-29 10:02:06,"['200mm f/4D Mikro-Nikkor', 'Maine', 'Nikon D500', 'Â© Walter Polley']",-68.18907,44.310836,https://www.flickr.com/photos/walt_polley/49762156058/
70,49761812443_40243520@N02_b208a7543b,49761812443,www78,b208a7543b,65535,66,Bass Harbor Lighthouse Sunset,1,0,0,2019-09-12 15:56:06,"['Bass', 'Harbor', 'Lighthouse', 'Sunset', 'Acadia', 'National', 'Park']",-68.337278,44.221891,https://www.flickr.com/photos/whsieh78/49761812443/
71,49761756068_40243520@N02_ea941744d7,49761756068,www78,ea941744d7,65535,66,Bass Harbor Moonrise,1,0,0,2019-09-12 15:48:13,"['Bass', 'Harbor', 'Moonrise', 'Maine', 'Acadia', 'National', 'Park']",-68.336956,44.22206,https://www.flickr.com/photos/whsieh78/49761756068/
72,49761755813_40243520@N02_7416de4dfb,49761755813,www78,7416de4dfb,65535,66,Ship Harbor 3,1,0,0,2019-09-12 14:52:09,"['Ship', 'Harbor', 'Bass', 'Maine', 'Acadia', 'National', 'Park']",-68.31788,44.225527,https://www.flickr.com/photos/whsieh78/49761755813/
73,49761755148_40243520@N02_85d91b4959,49761755148,www78,85d91b4959,65535,66,Bass Harbor Lighthouse Keeper's House,1,0,0,2019-09-12 15:44:53,"['Bass', 'Harbor', 'Lighthouse', ""Keeper's"", 'House', 'Maine', 'Acadia', 'National', 'Park']",-68.337804,44.222314,https://www.flickr.com/photos/whsieh78/49761755148/
74,49762285361_40243520@N02_fd3f2c1e6e,49762285361,www78,fd3f2c1e6e,65535,66,Bass Harbor Lighthouse,1,0,0,2019-09-12 15:45:36,"['Bass', 'Harbor', 'Lighthouse', 'Maine', 'Acadia', 'National', 'Park']",-68.337686,44.222137,https://www.flickr.com/photos/whsieh78/49762285361/
75,49762284996_40243520@N02_341dcd8141,49762284996,www78,341dcd8141,65535,66,Bass Harbor Sunset,1,0,0,2019-09-12 15:46:00,"['Bass', 'Harbor', 'Sunset', 'Maine', 'Acadia', 'National', 'Park']",-68.336956,44.22206,https://www.flickr.com/photos/whsieh78/49762284996/
76,49754665718_40243520@N02_5d39124558,49754665718,www78,5d39124558,65535,66,Ship Harbor Tide Pools,1,0,0,2019-09-12 14:48:14,"['Southwest', 'Harbor', 'Maine', 'Acadia', 'National', 'Park', 'Ship', 'Tide', 'Pools']",-68.31758,44.225666,https://www.flickr.com/photos/whsieh78/49754665718/
77,49754665348_40243520@N02_8cb92c5581,49754665348,www78,8cb92c5581,65535,66,Southwest Harbor,1,0,0,2019-09-12 14:08:07,"['Southwest', 'Harbor', 'Maine']",-68.326023,44.279874,https://www.flickr.com/photos/whsieh78/49754665348/
78,49754665028_40243520@N02_99d6d2c0d1,49754665028,www78,99d6d2c0d1,65535,66,Ship Harbor Lagoon,1,0,0,2019-09-12 14:22:30,"['Southwest', 'Harbor', 'Maine', 'Acadia', 'National', 'Park', 'Ship', 'Lagoon']",-68.321045,44.22891,https://www.flickr.com/photos/whsieh78/49754665028/
79,49755191541_40243520@N02_2421985d38,49755191541,www78,2421985d38,65535,66,Ship Harbor,1,0,0,2019-10-28 21:59:18,"['Southwest', 'Harbor', 'Maine', 'Acadia', 'National', 'Park', 'Ship']",-68.320316,44.226473,https://www.flickr.com/photos/whsieh78/49755191541/
80,49755529737_40243520@N02_e88094018e,49755529737,www78,e88094018e,65535,66,Ship Harbor 2,1,0,0,2019-09-12 14:47:36,"['Southwest', 'Harbor', 'Maine', 'Acadia', 'National', 'Park', 'Ship', 'Tide', 'Pools']",-68.318878,44.225797,https://www.flickr.com/photos/whsieh78/49755529737/
81,49755529077_40243520@N02_87aa25e020,49755529077,www78,87aa25e020,65535,66,Ship Harbor Tide Pools 2,1,0,0,2019-09-12 14:48:39,"['Southwest', 'Harbor', 'Maine', 'Acadia', 'National', 'Park', 'Ship', 'Tide', 'Pools']",-68.31758,44.225666,https://www.flickr.com/photos/whsieh78/49755529077/
82,49754285393_35376895@N03_6b5db40149,49754285393,maryalley904,6b5db40149,65535,66,Sand Beach,1,0,0,2020-03-11 12:26:01,[],-68.183506,44.329386,https://www.flickr.com/photos/maryalley/49754285393/
83,49754282673_35376895@N03_73a7d4ab48,49754282673,maryalley904,73a7d4ab48,65535,66,American Wigeon,1,0,0,2020-03-11 09:23:37,[],-68.34102,44.253302,https://www.flickr.com/photos/maryalley/49754282673/
84,49755146882_35376895@N03_f594095092,49755146882,maryalley904,f594095092,65535,66,American Wigeon,1,0,0,2020-03-11 09:24:27,[],-68.341025,44.253311,https://www.flickr.com/photos/maryalley/49755146882/
85,49754805091_35376895@N03_53ceb0675f,49754805091,maryalley904,53ceb0675f,65535,66,American Wigeons,1,0,0,2020-03-11 09:26:39,[],-68.34102,44.253297,https://www.flickr.com/photos/maryalley/49754805091/
86,49755141052_35376895@N03_1344bd1c9e,49755141052,maryalley904,1344bd1c9e,65535,66,American Wigeon,1,0,0,2020-03-11 09:26:00,[],-68.341012,44.253297,https://www.flickr.com/photos/maryalley/49755141052/
87,49754060788_35376895@N03_1372738b2f,49754060788,maryalley904,1372738b2f,65535,66,Buffleheads,1,0,0,2020-03-01 13:29:17,[],-68.28425,44.294644,https://www.flickr.com/photos/maryalley/49754060788/
88,49754056293_35376895@N03_dfe2fe978c,49754056293,maryalley904,dfe2fe978c,65535,66,Ice,1,0,0,2020-03-01 12:16:48,[],-68.30507,44.323905,https://www.flickr.com/photos/maryalley/49754056293/
89,49754052573_35376895@N03_22a6ac8f43,49754052573,maryalley904,22a6ac8f43,65535,66,Mallards,1,0,0,2020-03-01 11:48:23,[],-68.33575,44.361402,https://www.flickr.com/photos/maryalley/49754052573/
90,49754918037_35376895@N03_1b0260053b,49754918037,maryalley904,1b0260053b,65535,66,Mallard Pair,1,0,0,2020-03-01 13:34:59,[],-68.284189,44.294588,https://www.flickr.com/photos/maryalley/49754918037/
91,49752441577_40243520@N02_fbf6b60397,49752441577,www78,fbf6b60397,65535,66,John D. Rockefeller Jr. Monument,1,0,0,2019-09-12 12:52:31,"['Acadia', 'National', 'Park', 'Bar', 'Harbor', 'Maine', 'John', 'D.', 'Rockefeller', 'Jr.', 'Monument']",-68.191559,44.307021,https://www.flickr.com/photos/whsieh78/49752441577/
92,49751574478_40243520@N02_d034f756fc,49751574478,www78,d034f756fc,65535,66,Monument Cove,1,0,0,2019-09-12 13:06:31,"['Acadia', 'National', 'Park', 'Bar', 'Harbor', 'Maine', 'Monument', 'Cove']",-68.190926,44.31816,https://www.flickr.com/photos/whsieh78/49751574478/
93,49751574508_40243520@N02_f8d6878019,49751574508,www78,f8d6878019,65535,66,Acadia Bald Eagle,1,0,0,2019-09-12 12:55:22,"['Acadia', 'National', 'Park', 'Bar', 'Harbor', 'Maine', 'Bald', 'Eagle']",-68.191215,44.307036,https://www.flickr.com/photos/whsieh78/49751574508/
94,49751574343_40243520@N02_c075256088,49751574343,www78,c075256088,65535,66,Thunder Hole,1,0,0,2019-09-12 13:16:03,"['Acadia', 'National', 'Park', 'Bar', 'Harbor', 'Maine', 'Thunder', 'Hole']",-68.18892,44.320639,https://www.flickr.com/photos/whsieh78/49751574343/
95,49751573958_40243520@N02_8845ca536e,49751573958,www78,8845ca536e,65535,66,Thunder Hole 2,1,0,0,2019-09-12 13:16:49,"['Acadia', 'National', 'Park', 'Bar', 'Harbor', 'Maine', 'Thunder', 'Hole']",-68.18892,44.320639,https://www.flickr.com/photos/whsieh78/49751573958/
96,49747437643_40243520@N02_107d8b2959,49747437643,www78,107d8b2959,65535,66,Otter Cliffs,1,0,0,2019-09-12 12:52:00,"['Otter', 'Cliffs', 'Ocean', 'Parth', 'Acadia', 'National', 'Park', 'Bar', 'Harbor', 'Maine']",-68.191709,44.307074,https://www.flickr.com/photos/whsieh78/49747437643/
97,49748309122_40243520@N02_0e10002d20,49748309122,www78,0e10002d20,65535,66,Otter Cliffs and Boulder Beach,1,0,0,2019-09-12 12:24:25,"['Otter', 'Cliffs', 'Monument', 'Cove', 'Boulder', 'Beach', 'Ocean', 'Parth', 'Acadia', 'National', 'Park', 'Bar', 'Harbor', 'Maine']",-68.190776,44.314682,https://www.flickr.com/photos/whsieh78/49748309122/
98,49748308797_40243520@N02_290fca55c3,49748308797,www78,290fca55c3,65535,66,Atop Otter Cliffs,1,0,0,2019-11-01 20:15:49,"['Atop', 'Otter', 'Cliffs', 'Ocean', 'Parth', 'Acadia', 'National', 'Park', 'Bar', 'Harbor', 'Maine']",-68.189274,44.310783,https://www.flickr.com/photos/whsieh78/49748308797/
99,49748308552_40243520@N02_4baeaaf979,49748308552,www78,4baeaaf979,65535,66,Otter Point,1,0,0,2019-09-12 12:38:39,"['Otter', 'Point', 'Ocean', 'Parth', 'Acadia', 'National', 'Park', 'Bar', 'Harbor', 'Maine']",-68.190228,44.307358,https://www.flickr.com/photos/whsieh78/49748308552/
100,49747436313_40243520@N02_d229d93548,49747436313,www78,d229d93548,65535,66,Otter Point 2,1,0,0,2019-09-12 12:41:46,"['Otter', 'Point', 'Ocean', 'Parth', 'Acadia', 'National', 'Park', 'Bar', 'Harbor', 'Maine']",-68.189821,44.307704,https://www.flickr.com/photos/whsieh78/49747436313/
101,49747436008_40243520@N02_3e2fd9bbd4,49747436008,www78,3e2fd9bbd4,65535,66,Western Point from Otter Point,1,0,0,2019-09-12 12:47:17,"['Western', 'Point', 'from', 'Otter', 'Ocean', 'Parth', 'Acadia', 'National', 'Park', 'Bar', 'Harbor', 'Maine']",-68.192664,44.307151,https://www.flickr.com/photos/whsieh78/49747436008/
102,49748110942_35376895@N03_780d204f52,49748110942,maryalley904,780d204f52,65535,66,Mallard/Black Duck Hybrid,1,0,0,2020-02-26 14:02:10,[],-68.336212,44.361591,https://www.flickr.com/photos/maryalley/49748110942/
103,49748106142_35376895@N03_01e6f12633,49748106142,maryalley904,01e6f12633,65535,66,Knotty!,1,0,0,2020-02-26 13:53:51,[],-68.335923,44.361497,https://www.flickr.com/photos/maryalley/49748106142/
104,49748102287_35376895@N03_cfcb21c398,49748102287,maryalley904,cfcb21c398,65535,66,Mallards,1,0,0,2020-02-26 13:50:37,[],-68.335898,44.361569,https://www.flickr.com/photos/maryalley/49748102287/
105,49744905696_40243520@N02_7453553413,49744905696,www78,7453553413,65535,66,Otter Cliffs Radio Station Monument,1,0,0,2019-09-12 12:15:52,"['Otter', 'Cliffs', 'Radio', 'Station', 'Monument', 'Acadia', 'National', 'Park', 'Bar', 'Harbor', 'Maine']",-68.196001,44.314045,https://www.flickr.com/photos/whsieh78/49744905696/
106,49745229737_40243520@N02_6318292fbd,49745229737,www78,6318292fbd,65535,66,Acadia Cliffs 2,1,0,0,2019-11-01 20:26:02,"['Acadia', 'Cliffs', 'National', 'Park', 'Bar', 'Harbor', 'Maine']",-68.189284,44.31003,https://www.flickr.com/photos/whsieh78/49745229737/
107,49745229542_40243520@N02_2afc55bd0e,49745229542,www78,2afc55bd0e,65535,66,Acadia Cliffs 3,1,0,0,2019-09-12 11:49:41,"['Acadia', 'National', 'Park', 'Bar', 'Harbor', 'Maine']",-68.190636,44.30722,https://www.flickr.com/photos/whsieh78/49745229542/
108,49744360453_40243520@N02_5a314f6872,49744360453,www78,5a314f6872,65535,66,Acadia Cliffs 4,1,0,0,2019-09-12 11:59:25,"['Acadia', 'National', 'Park', 'Bar', 'Harbor', 'Maine']",-68.189445,44.311796,https://www.flickr.com/photos/whsieh78/49744360453/
109,49744904666_40243520@N02_3a28404814,49744904666,www78,3a28404814,65535,66,Great Head from Ocean Path 2,1,0,0,2019-09-12 12:02:26,"['Acadia', 'National', 'Park', 'Bar', 'Harbor', 'Maine']",-68.189295,44.309224,https://www.flickr.com/photos/whsieh78/49744904666/
110,49744360123_40243520@N02_6a345a23d5,49744360123,www78,6a345a23d5,65535,66,Otter Cove 2,1,0,0,2019-09-12 12:17:04,"['Otter', 'Cove', 'Acadia', 'National', 'Park', 'Bar', 'Harbor', 'Maine']",-68.19599,44.313623,https://www.flickr.com/photos/whsieh78/49744360123/
111,49744432751_35376895@N03_00b68c35b2,49744432751,maryalley904,00b68c35b2,65535,66,The Northeast Harbor Marina,1,0,0,2020-02-23 12:21:12,[],-68.285387,44.295344,https://www.flickr.com/photos/maryalley/49744432751/
112,49743882778_35376895@N03_b4f2fef3e2,49743882778,maryalley904,b4f2fef3e2,65535,66,Herring Gull with Crab!,1,0,0,2020-02-23 10:55:43,[],-68.309881,44.268936,https://www.flickr.com/photos/maryalley/49743882778/
113,49744731202_35376895@N03_8a3b579d11,49744731202,maryalley904,8a3b579d11,65535,66,"Gadwall, a new find for me!",1,0,0,2020-02-21 13:04:36,[],-68.299387,44.242563,https://www.flickr.com/photos/maryalley/49744731202/
114,49739564076_40243520@N02_e1f253112e,49739564076,www78,e1f253112e,65535,66,Acadia Cliffs,1,0,0,2019-09-12 11:39:51,"['Acadia', 'Cliffs', 'National', 'Park', 'Bar', 'Harbor', 'Maine']",-68.185207,44.327524,https://www.flickr.com/photos/whsieh78/49739564076/
115,49739890572_40243520@N02_9bb5a879fa,49739890572,www78,9bb5a879fa,65535,66,Otter Cove Bridge,1,0,0,2019-09-12 09:59:26,"['Otter', 'Cove', 'Bridge', 'Acadia', 'National', 'Park', 'Bar', 'Harbor', 'Maine']",-68.198425,44.317239,https://www.flickr.com/photos/whsieh78/49739890572/
116,49739890317_40243520@N02_eea1e377a3,49739890317,www78,eea1e377a3,65535,66,Otter Cove,1,0,0,2019-09-12 09:59:29,"['Otter', 'Cove', 'Acadia', 'National', 'Park', 'Bar', 'Harbor', 'Maine']",-68.200292,44.317031,https://www.flickr.com/photos/whsieh78/49739890317/
117,49739017498_40243520@N02_1507b91065,49739017498,www78,1507b91065,65535,66,Park Loop Road,1,0,0,2019-09-12 10:04:58,"['Park', 'Loop', 'Road', 'Acadia', 'National', 'Bar', 'Harbor', 'Maine']",-68.21837,44.305355,https://www.flickr.com/photos/whsieh78/49739017498/
118,49739562711_40243520@N02_6a8f2947a9,49739562711,www78,6a8f2947a9,65535,66,The Jackson Laboratory,1,0,0,2019-09-12 11:21:57,"['The', 'Jackson', 'Laboratory', 'Acadia', 'National', 'Park', 'Bar', 'Harbor', 'Maine']",-68.198007,44.365219,https://www.flickr.com/photos/whsieh78/49739562711/
119,49739016813_40243520@N02_693beda292,49739016813,www78,693beda292,65535,66,Great Head from Ocean Path,1,0,0,2019-11-01 20:28:12,"['Great', 'Head', 'from', 'Ocean', 'Path', 'Acadia', 'National', 'Park', 'Bar', 'Harbor', 'Maine']",-68.18584,44.326603,https://www.flickr.com/photos/whsieh78/49739016813/
120,49737324302_14489732@N00_6fbe60498b,49737324302,DaveWilsonPhotography,6fbe60498b,65535,66,Sunrise at Thunder Hole,1,0,0,2014-10-07 05:39:09,"['me', 'Beach', 'sunrise', 'NXNW2014', 'Acadia National Park', 'creative commons', 'NxNW', 'dawn', 'Maine', 'coast', 'Thunder Hole', 'rocks']",-68.186001,44.325262,https://www.flickr.com/photos/dawilson/49737324302/
121,49736992206_14489732@N00_ed08dfa737,49736992206,DaveWilsonPhotography,ed08dfa737,65535,66,Rocks at Otter Cliffs,1,0,0,2014-10-06 05:42:38,"['me', 'Beach', 'NxNW', 'Mount Desert Island', 'NXNW2014', 'creative commons', 'Acadia National Park', 'Otter Cliffs', 'fall', 'autumn', 'Maine', 'Bar Harbor', 'boulders', 'rocks']",-68.190851,44.318023,https://www.flickr.com/photos/dawilson/49736992206/
122,49736451468_14489732@N00_281fd3c253,49736451468,DaveWilsonPhotography,281fd3c253,65535,66,"Thunder Hole, Acadia National Park",1,0,0,2014-10-07 06:27:09,"['me', 'Beach', 'NxNW', 'NXNW2014', 'dawn', 'creative commons', 'sunrise', 'coast', 'Acadia National Park', 'Maine', 'Thunder Hole', 'rocks']",-68.186001,44.325262,https://www.flickr.com/photos/dawilson/49736451468/
123,49736450693_14489732@N00_a8073e8a9b,49736450693,DaveWilsonPhotography,a8073e8a9b,65535,66,Sunrise near Otter Cliffs,1,0,0,2014-10-07 06:05:58,"['me', 'Beach', 'NxNW', 'NXNW2014', 'dawn', 'creative commons', 'sunrise', 'coast', 'Acadia National Park', 'Maine', 'Thunder Hole', 'rocks']",-68.186001,44.325262,https://www.flickr.com/photos/dawilson/49736450693/
124,49736449888_14489732@N00_615dcb6763,49736449888,DaveWilsonPhotography,615dcb6763,65535,66,Bass Harbor Head Lighthouse,1,0,0,2014-10-06 16:59:57,"['Bass Harbor', 'HDR', 'AuroraHDR', 'Bass Harbor Head Light', 'Mount Desert Island', 'NXNW2014', 'sunset', 'Acadia National Park', 'me', 'lighthouse', 'fall', 'autumn', 'Maine', 'NxNW', 'Bar Harbor']",-68.336617,44.221849,https://www.flickr.com/photos/dawilson/49736449888/
125,49735617918_40243520@N02_797c6838d4,49735617918,www78,797c6838d4,65535,66,Sand Beach 2,1,0,0,2019-09-12 09:44:34,"['Sand', 'Beach']",-68.181302,44.329036,https://www.flickr.com/photos/whsieh78/49735617918/
126,49735617578_40243520@N02_ce2b340101,49735617578,www78,ce2b340101,65535,66,Mount Desert Narrows from Great Head,1,0,0,2019-09-12 09:30:38,"['Mount', 'Desert', 'Narrows', 'from', 'Great', 'Head']",-68.177161,44.332474,https://www.flickr.com/photos/whsieh78/49735617578/
127,49736488867_40243520@N02_dd81416c6d,49736488867,www78,dd81416c6d,65535,66,The Beehive,1,0,0,2019-09-12 09:42:12,"['The', 'Beehive']",-68.181774,44.330571,https://www.flickr.com/photos/whsieh78/49736488867/
128,49735616903_40243520@N02_d8650dfaa5,49735616903,www78,d8650dfaa5,65535,66,Beehive Lagoon,1,0,0,2019-09-12 09:42:24,"['Beehive', 'Lagoon']",-68.181946,44.330494,https://www.flickr.com/photos/whsieh78/49735616903/
129,49736488317_40243520@N02_49bab6e1fd,49736488317,www78,49bab6e1fd,65535,66,Beehive Lagoon 2,1,0,0,2019-09-12 09:43:04,"['Beehive', 'Lagoon', 'Sand', 'Beach']",-68.181624,44.330387,https://www.flickr.com/photos/whsieh78/49736488317/
130,49736487907_40243520@N02_4b30c2abaa,49736487907,www78,4b30c2abaa,65535,66,Sand Beach from Beehive Lagoon,1,0,0,2019-09-12 09:43:19,"['Sand', 'Beach', 'from', 'Beehive', 'Lagoon']",-68.181946,44.330494,https://www.flickr.com/photos/whsieh78/49736487907/
131,49729837972_40243520@N02_cdf96ebf1a,49729837972,www78,cdf96ebf1a,65535,66,Great Head 3,1,0,0,2019-09-12 09:29:25,"['Acadia', 'National', 'Park', 'Bar', 'Harbor', 'Maine']",-68.176796,44.331354,https://www.flickr.com/photos/whsieh78/49729837972/
132,49729475311_40243520@N02_68694f1e77,49729475311,www78,68694f1e77,65535,66,Mount Desert Narrows,1,0,0,2019-09-12 09:30:25,"['Mount', 'Desert', 'Narrows', 'Acadia', 'National', 'Park', 'Bar', 'Harbor', 'Maine']",-68.176174,44.330617,https://www.flickr.com/photos/whsieh78/49729475311/
133,49728929078_40243520@N02_d98d67057c,49728929078,www78,d98d67057c,65535,66,Sand Beach,1,0,0,2019-09-12 08:38:55,"['Acadia', 'National', 'Park', 'Bar', 'Harbor', 'Maine']",-68.182804,44.329174,https://www.flickr.com/photos/whsieh78/49728929078/
134,49729791882_40243520@N02_90f181d865,49729791882,www78,90f181d865,65535,66,Old Soaker from Great Head,1,0,0,2019-09-12 09:03:48,"['Old', 'Soaker', 'from', 'Great', 'Head', 'Acadia', 'National', 'Park', 'Bar', 'Harbor', 'Maine']",-68.179543,44.327424,https://www.flickr.com/photos/whsieh78/49729791882/
135,49728928288_40243520@N02_b81c1da099,49728928288,www78,b81c1da099,65535,66,Great Head 2,1,0,0,2019-09-12 09:13:49,"['Great', 'Head', 'Trail', 'Acadia', 'National', 'Park', 'Bar', 'Harbor', 'Maine']",-68.177289,44.326534,https://www.flickr.com/photos/whsieh78/49728928288/
136,49728927953_40243520@N02_fe18291009,49728927953,www78,fe18291009,65535,66,Great Head Trail,1,0,0,2019-09-12 09:23:19,"['Great', 'Head', 'Trail', 'Acadia', 'National', 'Park', 'Bar', 'Harbor', 'Maine']",-68.175616,44.32922,https://www.flickr.com/photos/whsieh78/49728927953/
137,49729330981_31608341@N02_442771a35b,49729330981,Greg from Maine,442771a35b,65535,66,"Acadia National Park, Maine",1,0,0,2009-10-20 10:20:36,"['acadia national park', 'maine', 'acadia', 'acadia maine', 'mdi', 'mount desert island', 'seascape', 'landscape', 'rocky coast', 'ocean', 'sea', 'stump', 'tree stump', 'waves', 'cliffs', 'nature', 'shore', 'hancock county']",-68.207523,44.299972,https://www.flickr.com/photos/acadia-maine/49729330981/
138,49725419698_40243520@N02_156633ffe7,49725419698,www78,156633ffe7,65535,66,Acadia Carriage Bridge,1,0,0,2019-09-12 08:18:53,"['Acadia', 'National', 'Park', 'Bar', 'Harbor', 'Maine', 'Carriage', 'Bridge']",-68.203597,44.361545,https://www.flickr.com/photos/whsieh78/49725419698/
139,49725964216_40243520@N02_0e595b878b,49725964216,www78,0e595b878b,65535,66,Acadia from Dorr Mountain,1,0,0,2019-09-12 07:47:33,"['Acadia', 'from', 'Dorr', 'Mountain', 'National', 'Park', 'Bar', 'Harbor', 'Maine']",-68.212866,44.359129,https://www.flickr.com/photos/whsieh78/49725964216/
140,49725419368_40243520@N02_b93a86cbde,49725419368,www78,b93a86cbde,65535,66,Acadia from Dorr Mountain 2,1,0,0,2019-09-12 07:57:46,"['Acadia', 'from', 'Dorr', 'Mountain', 'National', 'Park', 'Bar', 'Harbor', 'Maine']",-68.214336,44.361184,https://www.flickr.com/photos/whsieh78/49725419368/
141,49726278477_40243520@N02_612ddd4397,49726278477,www78,612ddd4397,65535,66,"Red Leaf, Yellow Leaf, Green Leaf",1,0,0,2019-09-12 08:00:44,"['Acadia', 'from', 'Dorr', 'Mountain', 'National', 'Park', 'Bar', 'Harbor', 'Maine', 'Red', 'Leaf', 'Yellow', 'Green']",-68.214669,44.361522,https://www.flickr.com/photos/whsieh78/49726278477/
142,49725963441_40243520@N02_8cd2293548,49725963441,www78,8cd2293548,65535,66,Acadia from Dorr Mountain 3,1,0,0,2019-11-01 20:57:10,"['Acadia', 'from', 'Dorr', 'Mountain', 'National', 'Park', 'Bar', 'Harbor', 'Maine']",-68.213607,44.361775,https://www.flickr.com/photos/whsieh78/49725963441/
143,49722185298_40243520@N02_6bb6982c93,49722185298,www78,6bb6982c93,65535,66,Champlain Mountain,1,0,0,2019-11-01 21:06:20,"['Acadia', 'National', 'Park', 'Bar', 'Harbor', 'Maine', 'Iron', 'Rung', 'Trail', 'Dorr', 'Mountain', 'Champlain']",-68.211482,44.356789,https://www.flickr.com/photos/whsieh78/49722185298/
144,49723037337_40243520@N02_ba83852a04,49723037337,www78,ba83852a04,65535,66,Mountain Rowan,1,0,0,2019-09-12 07:07:01,"['Mountain', 'Rowan', 'Acadia', 'National', 'Park', 'Bar', 'Harbor', 'Maine']",-68.206386,44.352723,https://www.flickr.com/photos/whsieh78/49723037337/
145,49722725496_40243520@N02_ca41b78fd9,49722725496,www78,ca41b78fd9,65535,66,Dorr Mountain Trail,1,0,0,2019-09-12 07:14:09,"['Acadia', 'National', 'Park', 'Bar', 'Harbor', 'Maine', 'Iron', 'Rung', 'Trail', 'Dorr', 'Mountain']",-68.207931,44.353015,https://www.flickr.com/photos/whsieh78/49722725496/
146,49723036992_40243520@N02_df89b1b7b3,49723036992,www78,df89b1b7b3,65535,66,Dorr Mountain Trail 2,1,0,0,2019-09-12 07:17:56,"['Acadia', 'National', 'Park', 'Bar', 'Harbor', 'Maine', 'Iron', 'Rung', 'Trail', 'Dorr', 'Mountain']",-68.208897,44.352884,https://www.flickr.com/photos/whsieh78/49723036992/
147,49722725026_40243520@N02_87c13e2830,49722725026,www78,87c13e2830,65535,66,Dorr Mountain Trail 3,1,0,0,2019-09-12 07:19:55,"['Acadia', 'National', 'Park', 'Bar', 'Harbor', 'Maine', 'Iron', 'Rung', 'Trail', 'Dorr', 'Mountain']",-68.209487,44.354219,https://www.flickr.com/photos/whsieh78/49722725026/
148,49723036452_40243520@N02_c20cd079a2,49723036452,www78,c20cd079a2,65535,66,Iron Rung Trail,1,0,0,2019-09-12 07:20:23,"['Acadia', 'National', 'Park', 'Bar', 'Harbor', 'Maine', 'Iron', 'Rung', 'Trail', 'Dorr', 'Mountain']",-68.20983,44.354956,https://www.flickr.com/photos/whsieh78/49723036452/
149,49720608482_40243520@N02_a709e0f15e,49720608482,www78,a709e0f15e,65535,66,Wild Gardens of Acadia,1,0,0,2019-09-12 06:39:08,"['Acadia', 'National', 'Park', 'Bar', 'Harbor', 'Maine', 'Wild', 'Gardens']",-68.207995,44.362849,https://www.flickr.com/photos/whsieh78/49720608482/
150,49719752053_40243520@N02_ae4bb31c72,49719752053,www78,ae4bb31c72,65535,66,Sieur de Monts Spring,1,0,0,2019-09-12 06:41:54,"['Acadia', 'National', 'Park', 'Bar', 'Harbor', 'Maine', 'Sieur', 'de', 'Monts', 'Spring']",-68.208199,44.361882,https://www.flickr.com/photos/whsieh78/49719752053/
151,49720289431_40243520@N02_a131a067d8,49720289431,www78,a131a067d8,65535,66,Abbe Museum (Sieur de Monts),1,0,0,2019-09-12 06:43:51,"['Acadia', 'National', 'Park', 'Bar', 'Harbor', 'Maine', 'Abbe', 'Museum', 'Sieur', 'de', 'Monts']",-68.207888,44.361253,https://www.flickr.com/photos/whsieh78/49720289431/
152,49720606072_40243520@N02_9b7d02313a,49720606072,www78,9b7d02313a,65535,66,The Tarn Trails,1,0,0,2019-09-12 06:49:25,"['Acadia', 'National', 'Park', 'Bar', 'Harbor', 'Maine']",-68.207362,44.359006,https://www.flickr.com/photos/whsieh78/49720606072/
153,49719749958_40243520@N02_3c880f95e0,49719749958,www78,3c880f95e0,65535,66,The Tarn 2,1,0,0,2019-09-12 06:52:32,"['Acadia', 'National', 'Park', 'Bar', 'Harbor', 'Maine', 'The', 'Tarn']",-68.206772,44.355976,https://www.flickr.com/photos/whsieh78/49719749958/
154,49720605077_40243520@N02_0132518c43,49720605077,www78,0132518c43,65535,66,The Tarn,1,0,0,2019-09-12 06:49:42,"['Acadia', 'National', 'Park', 'Bar', 'Harbor', 'Maine']",-68.207287,44.358361,https://www.flickr.com/photos/whsieh78/49720605077/
155,49717781891_17094005@N00_b8ed076349,49717781891,Christian Collins,b8ed076349,65535,66,cloud blanket,1,0,0,2018-09-17 03:46:48,"['sunrise', 'acadia', 'park', 'schoodic', 'peninsula', 'atlantic', 'maine', 'blanket', 'Cadillac mountain', 'bar harbor', 'harbor', 'winter harbor']",-68.222728,44.352503,https://www.flickr.com/photos/collins_family/49717781891/
156,49714940792_19908866@N03_1c204403a9,49714940792,Jim Strain,1c204403a9,65535,66,Maine - Acadia National Park,1,0,0,2016-09-30 11:04:20,"['jmstrain', 'national park', 'acadia', 'maine', 'ocean', 'water', 'shore']",-68.186523,44.323356,https://www.flickr.com/photos/19908866@N03/49714940792/
157,49714276431_40243520@N02_e3e4928790,49714276431,www78,e3e4928790,65535,66,Acadia National Park Visitor's Center,1,0,0,2019-09-12 06:03:04,"['Acadia', 'National', 'Park', 'headquarters', 'Maine', 'Bar', 'Harbor']",-68.247349,44.409122,https://www.flickr.com/photos/whsieh78/49714276431/
158,49712436138_42277392@N00_7d4aa7491c,49712436138,Robert Stone Nature Photography,7d4aa7491c,65535,66,Acadia NP,1,0,0,2019-05-17 07:44:29,"['Acadia', 'Jordan Pond']",-68.25149,44.324243,https://www.flickr.com/photos/bobstone/49712436138/
159,49713292052_42277392@N00_2db6e7cb45,49713292052,Robert Stone Nature Photography,2db6e7cb45,65535,66,Acadia NP,1,0,0,2019-05-17 07:15:04,"['Acadia', 'Jordan Pond']",-68.25149,44.324243,https://www.flickr.com/photos/bobstone/49713292052/
160,49712969156_42277392@N00_76dea6dc52,49712969156,Robert Stone Nature Photography,76dea6dc52,65535,66,Acadia NP,1,0,0,2020-03-29 12:50:11,"['Acadia', 'Jordan Pond']",-68.25149,44.324243,https://www.flickr.com/photos/bobstone/49712969156/
161,49709467648_31608341@N02_9c8590390e,49709467648,Greg from Maine,9c8590390e,65535,66,"Acadia National Park, Maine",1,0,0,2018-08-26 07:03:53,"['acadia national park', 'acadia', 'bar harbor', 'bar harbor maine', 'nature', 'beehive', 'the beehive', 'mountain', 'landscape', 'reflections', 'mdi', 'mount desert island']",-68.1801,44.329097,https://www.flickr.com/photos/acadia-maine/49709467648/
162,49704828298_31608341@N02_dec37a371e,49704828298,Greg from Maine,dec37a371e,65535,66,"Schoodic Peninsula, Maine",1,0,0,2020-03-27 19:04:58,"['acadia national park', 'schoodic peninsula', 'maine', 'beach', 'stone beach', 'landscape', 'sunrise', 'sunset', 'nature', 'hancock county', 'winter harbor', 'winter harbor maine', 'national park']",-68.04172,44.354434,https://www.flickr.com/photos/acadia-maine/49704828298/
163,49700779763_125106122@N07_31089430e5,49700779763,LifeIsForEnjoying,31089430e5,65535,66,IMG_20200322_131619914,1,0,0,2020-03-22 13:16:19,"['Maine', 'Acadia', 'Hike', 'Hiking', 'OptOutside', 'Wallk', 'Walking', 'Isolation', 'RV', 'RoadTrip']",-68.189353,44.319777,https://www.flickr.com/photos/skysrfr/49700779763/
164,49700779608_125106122@N07_b8dc0f4d2e,49700779608,LifeIsForEnjoying,b8dc0f4d2e,65535,66,IMG_20200322_125209782_HDR,1,0,0,2020-03-22 12:52:10,"['Maine', 'Acadia', 'Hike', 'Hiking', 'OptOutside', 'Wallk', 'Walking', 'Isolation', 'RV', 'RoadTrip']",-68.192817,44.318966,https://www.flickr.com/photos/skysrfr/49700779608/
165,49700779638_125106122@N07_5de485d1b7,49700779638,LifeIsForEnjoying,5de485d1b7,65535,66,IMG_20200322_131208294,1,0,0,2020-03-22 13:12:09,"['Maine', 'Acadia', 'Hike', 'Hiking', 'OptOutside', 'Wallk', 'Walking', 'Isolation', 'RV', 'RoadTrip']",-68.191337,44.317977,https://www.flickr.com/photos/skysrfr/49700779638/
166,49701313821_125106122@N07_87c106cdaa,49701313821,LifeIsForEnjoying,87c106cdaa,65535,66,IMG_20200322_114509012_HDR,1,0,0,2020-03-22 11:45:10,"['Maine', 'Acadia', 'Hike', 'Hiking', 'OptOutside', 'Wallk', 'Walking', 'Isolation', 'RV', 'RoadTrip', 'Nike', 'Husky', 'Dog']",-68.190959,44.329172,https://www.flickr.com/photos/skysrfr/49701313821/
167,49700779453_125106122@N07_b158693b7e,49700779453,LifeIsForEnjoying,b158693b7e,65535,66,IMG_20200322_113338715_HDR,1,0,0,2020-03-22 11:33:39,"['Maine', 'Acadia', 'Hike', 'Hiking', 'OptOutside', 'Wallk', 'Walking', 'Isolation', 'RV', 'RoadTrip']",-68.191026,44.329119,https://www.flickr.com/photos/skysrfr/49700779453/
168,49701313681_125106122@N07_fbfa0821f7,49701313681,LifeIsForEnjoying,fbfa0821f7,65535,66,IMG_20200322_113836718,1,0,0,2020-03-22 11:38:37,"['Maine', 'Acadia', 'Hike', 'Hiking', 'OptOutside', 'Wallk', 'Walking', 'Isolation', 'RV', 'RoadTrip']",-68.191014,44.329202,https://www.flickr.com/photos/skysrfr/49701313681/
169,49701313511_125106122@N07_de2a5ea503,49701313511,LifeIsForEnjoying,de2a5ea503,65535,66,IMG_20200322_104736571_BURST001,1,0,0,2020-03-22 10:47:36,"['Maine', 'Acadia', 'Hike', 'Hiking', 'OptOutside', 'Wallk', 'Walking', 'Isolation', 'RV', 'RoadTrip', 'Beach', 'Ocean']",-68.182931,44.329277,https://www.flickr.com/photos/skysrfr/49701313511/
170,49700779053_125106122@N07_6b2ed1bcd5,49700779053,LifeIsForEnjoying,6b2ed1bcd5,65535,66,IMG_20200322_104438766,1,0,0,2020-03-22 10:44:38,"['Maine', 'Acadia', 'Hike', 'Hiking', 'OptOutside', 'Wallk', 'Walking', 'Isolation', 'RV', 'RoadTrip', 'Beach', 'Ocean', 'Husky', 'WoolyHusky', 'HuskyGermanShepard', 'Nike', 'Kaskae', 'Stika', 'Dog']",-68.181637,44.329166,https://www.flickr.com/photos/skysrfr/49700779053/
171,49701621617_125106122@N07_6876fdf123,49701621617,LifeIsForEnjoying,6876fdf123,65535,66,IMG_20200322_104435370,1,0,0,2020-03-22 10:44:35,"['Maine', 'Acadia', 'Hike', 'Hiking', 'OptOutside', 'Wallk', 'Walking', 'Isolation', 'RV', 'RoadTrip', 'Beach', 'Ocean']",-68.181637,44.329166,https://www.flickr.com/photos/skysrfr/49701621617/
172,49701621587_125106122@N07_eb73cbacb6,49701621587,LifeIsForEnjoying,eb73cbacb6,65535,66,IMG_20200322_100758812,1,0,0,2020-03-22 10:07:58,"['Maine', 'Acadia', 'Hike', 'Hiking', 'OptOutside', 'Wallk', 'Walking', 'Isolation', 'RV', 'RoadTrip']",-68.182559,44.339277,https://www.flickr.com/photos/skysrfr/49701621587/
173,49701313131_125106122@N07_cb61a08ba9,49701313131,LifeIsForEnjoying,cb61a08ba9,65535,66,IMG_20200322_100756125_BURST000_COVER_TOP,1,0,0,2020-03-22 10:07:56,"['Maine', 'Acadia', 'Hike', 'Hiking', 'OptOutside', 'Wallk', 'Walking', 'Isolation', 'RV', 'RoadTrip']",-68.182559,44.339277,https://www.flickr.com/photos/skysrfr/49701313131/
174,49700778653_125106122@N07_2c49563662,49700778653,LifeIsForEnjoying,2c49563662,65535,66,IMG_20200321_162220131_HDR,1,0,0,2020-03-21 16:22:21,"['Maine', 'Acadia', 'Hike', 'Hiking', 'OptOutside', 'Wallk', 'Walking', 'Isolation', 'RV', 'RoadTrip', 'LightHouse']",-68.33745,44.221963,https://www.flickr.com/photos/skysrfr/49700778653/
175,49701312881_125106122@N07_9bb0058c32,49701312881,LifeIsForEnjoying,9bb0058c32,65535,66,IMG_20200321_160642799,1,0,0,2020-03-21 16:06:43,"['Maine', 'Acadia', 'Hike', 'Hiking', 'OptOutside', 'Wallk', 'Walking', 'Isolation', 'RV', 'RoadTrip', 'sign']",-68.339564,44.228811,https://www.flickr.com/photos/skysrfr/49701312881/
176,49700777833_125106122@N07_0ede34cd78,49700777833,LifeIsForEnjoying,0ede34cd78,65535,66,IMG_20200321_131146825_HDR,1,0,0,2020-03-21 13:11:47,"['Maine', 'Acadia', 'Hike', 'Hiking', 'OptOutside', 'Wallk', 'Walking', 'Isolation', 'RV', 'RoadTrip', 'Jordan', 'Pond', 'Ice']",-68.250717,44.326433,https://www.flickr.com/photos/skysrfr/49700777833/
177,49701620477_125106122@N07_d0913737ac,49701620477,LifeIsForEnjoying,d0913737ac,65535,66,IMG_20200321_131140747_HDR,1,0,0,2020-03-21 13:11:41,"['Maine', 'Acadia', 'Hike', 'Hiking', 'OptOutside', 'Wallk', 'Walking', 'Isolation', 'RV', 'RoadTrip', 'Jordan', 'Pond', 'Ice', 'Wave']",-68.250717,44.326433,https://www.flickr.com/photos/skysrfr/49701620477/
178,49700777773_125106122@N07_700a05ea29,49700777773,LifeIsForEnjoying,700a05ea29,65535,66,IMG_20200321_122914120,1,0,0,2020-03-21 12:29:14,"['Maine', 'Acadia', 'Hike', 'Hiking', 'OptOutside', 'Wallk', 'Walking', 'Isolation', 'RV', 'RoadTrip', 'Sikta', 'Husky', 'Dog']",-68.251737,44.348855,https://www.flickr.com/photos/skysrfr/49700777773/
179,49701619947_125106122@N07_7610f76471,49701619947,LifeIsForEnjoying,7610f76471,65535,66,IMG_20200321_122046332,1,0,0,2020-03-21 12:20:46,"['Maine', 'Acadia', 'Hike', 'Hiking', 'OptOutside', 'Wallk', 'Walking', 'Isolation', 'RV', 'RoadTrip', 'Nike', 'Kaskae', 'Husky', 'HuskyGermanShepard', 'dog']",-68.25162,44.33023,https://www.flickr.com/photos/skysrfr/49701619947/
180,49700776708_125106122@N07_cef3e4a6d5,49700776708,LifeIsForEnjoying,cef3e4a6d5,65535,66,IMG_20200321_113525332,1,0,0,2020-03-21 11:35:25,"['Maine', 'Acadia', 'Hike', 'Hiking', 'OptOutside', 'Wallk', 'Walking', 'Isolation', 'RV', 'RoadTrip', 'Jordan', 'Pond', 'mountains']",-68.25162,44.33023,https://www.flickr.com/photos/skysrfr/49700776708/
181,49700776718_125106122@N07_ec0bcc3618,49700776718,LifeIsForEnjoying,ec0bcc3618,65535,66,IMG_20200321_112834859_HDR,1,0,0,2020-03-21 11:28:35,"['Maine', 'Acadia', 'Hike', 'Hiking', 'OptOutside', 'Wallk', 'Walking', 'Isolation', 'RV', 'RoadTrip', 'Jordan', 'Pond', 'Ice']",-68.251281,44.327786,https://www.flickr.com/photos/skysrfr/49700776718/
182,49701619202_125106122@N07_1d0105e8f7,49701619202,LifeIsForEnjoying,1d0105e8f7,65535,66,IMG_20200321_111414288_HDR,1,0,0,2020-03-21 11:14:15,"['Maine', 'Acadia', 'Hike', 'Hiking', 'OptOutside', 'Wallk', 'Walking', 'Isolation', 'RV', 'RoadTrip', 'Jordan', 'Pond', 'ice', 'mountains']",-68.250889,44.323852,https://www.flickr.com/photos/skysrfr/49701619202/
183,49700776318_125106122@N07_6afb3b7308,49700776318,LifeIsForEnjoying,6afb3b7308,65535,66,IMG_20200321_094007883_HDR,1,0,0,2020-03-21 09:40:09,"['Maine', 'Acadia', 'Hike', 'Hiking', 'OptOutside', 'Wallk', 'Walking', 'Isolation', 'RV', 'RoadTrip', 'sign']",-68.246262,44.409544,https://www.flickr.com/photos/skysrfr/49700776318/
184,49691187496_125106122@N07_0576cd6bdd,49691187496,LifeIsForEnjoying,0576cd6bdd,65535,66,20200322_131238,1,0,0,2020-03-22 13:12:38,"['Maine', 'Acadia', 'Hike', 'Hiking', 'OptOutside', 'Wallk', 'Walking', 'Isolation', 'RV', 'RoadTrip', 'panorama']",-68.190834,44.318055,https://www.flickr.com/photos/skysrfr/49691187496/
185,49691495852_125106122@N07_c01648cc6b,49691495852,LifeIsForEnjoying,c01648cc6b,65535,66,20200322_131221,1,0,0,2020-03-22 13:12:21,"['Maine', 'Acadia', 'Hike', 'Hiking', 'OptOutside', 'Wallk', 'Walking', 'Isolation', 'RV', 'RoadTrip']",-68.190834,44.318055,https://www.flickr.com/photos/skysrfr/49691495852/
186,49691494102_125106122@N07_fbf10743e7,49691494102,LifeIsForEnjoying,fbf10743e7,65535,66,20200322_122410,1,0,0,2020-03-22 12:24:09,"['Maine', 'Acadia', 'Hike', 'Hiking', 'OptOutside', 'Wallk', 'Walking', 'Isolation', 'RV', 'RoadTrip', 'panorama']",-68.191667,44.323888,https://www.flickr.com/photos/skysrfr/49691494102/
187,49691185301_125106122@N07_ca31b8595b,49691185301,LifeIsForEnjoying,ca31b8595b,65535,66,20200322_121815,1,0,0,2020-03-22 12:18:15,"['Maine', 'Acadia', 'Hike', 'Hiking', 'OptOutside', 'Wallk', 'Walking', 'Isolation', 'RV', 'RoadTrip', 'panorama']",-68.192778,44.326388,https://www.flickr.com/photos/skysrfr/49691185301/
188,49685069741_125106122@N07_769ac23d62,49685069741,LifeIsForEnjoying,769ac23d62,65535,66,20200321_132100,1,0,0,2020-03-21 13:21:00,"['Maine', 'Acadia', 'Hike', 'Hiking', 'OptOutside', 'Wallk', 'Walking', 'Isolation', 'RV', 'RoadTrip', 'Jordan', 'Pond', 'mountains']",-68.25,44.323611,https://www.flickr.com/photos/skysrfr/49685069741/
189,49671941446_95795254@N02_b9226c018e,49671941446,Mobile Lynn,b9226c018e,65535,66,Common Loon-Great Northern Diver 502_1892.jpg,1,0,0,2019-10-10 11:10:18,"['Common Loon', 'Birds', 'Nature', 'Bird', 'Diver', 'Fauna', 'Gavia immer', 'Great Northern Diver', 'Loon', 'Wildlife', 'Mount Desert', 'Maine', 'United States of America']",-68.257042,44.334116,https://www.flickr.com/photos/moblynn/49671941446/
190,49669692206_35376895@N03_97b3d7c09e,49669692206,maryalley904,97b3d7c09e,65535,66,Bass Harbor,1,0,0,2020-01-15 12:15:55,[],-68.352256,44.240938,https://www.flickr.com/photos/maryalley/49669692206/
191,49668715781_37317281@N08_5737d714b1,49668715781,Norm Powell,5737d714b1,65535,66,"Newport Cove, Acadia National Park, ME, September, 2018",1,0,0,2018-09-19 11:22:26,"['Winter Harbor', 'Maine', 'United States', '#picture', '#photooftheday', '#travel', '#traveltheworld', '#landscape_captures', '#agameoftones', '#art', '#NPS', '#landscapephotography', '#justgoshoot', '#NewportCove', '#landscape', '#AmericanPhotographs', '#pic', '#AmericanPortrait', '#picoftheday', '#instaphoto', '#AcadiaNationalPark', '#pics']",-68.14592,44.354994,https://www.flickr.com/photos/napowell/49668715781/
192,49646354753_95795254@N02_d01d63d738,49646354753,Mobile Lynn,d01d63d738,65535,66,Treecreeper in Autumn splendour 502_1965.jpg,1,0,0,2019-10-10 13:26:21,"['Birds', 'Nuthatches & Treecreepers', 'Treecreeper', 'Nature', 'Bird', 'Certhia familiaris', 'Certhiidae', 'Common treecreeper', 'Eurasian treecreeper', 'Fauna', 'Oscines', 'Passeri', 'Passeriformes', 'Songbird', 'Songbirds', 'Wildlife', 'Bar Harbor', 'Maine', 'United States of America']",-68.208045,44.362552,https://www.flickr.com/photos/moblynn/49646354753/
193,49642444387_38593652@N03_386840e3ae,49642444387,SunnyDazzled,386840e3ae,65535,66,Cracked,1,0,0,2019-10-16 17:04:16,"['Acadia National Park', 'stones', 'lichen', 'geology', 'viewpoint', 'view', 'nature', 'stone', 'rock', 'lakes', 'distance', 'autumn']",-68.230462,44.350276,https://www.flickr.com/photos/sunnydazzled/49642444387/
194,49641365756_31744041@N02_b48853f86b,49641365756,Ktr101,b48853f86b,65535,66,IMG_1347,1,0,0,2019-06-24 19:24:42,"['Bass Harbor', 'Maine', 'United States of America']",-68.336798,44.221788,https://www.flickr.com/photos/ktr101/49641365756/
195,49626642016_20905078@N04_3e989008d5,49626642016,patrickjoust,3e989008d5,65535,66,,1,0,0,2019-06-01 00:00:00,"['Mamiya', 'C330', 'S', 'Sekor', '80mm', 'f/2.8', 'Fujichrome', 'Velvia', '50', '6x6', 'medium', 'format', '120', 'TLR', 'twin', 'lens', 'reflex', 'Fuji', 'chrome', 'slide', 'e-6', 'color', 'reversal', 'expired', 'film', 'manual', 'focus', 'analog', 'mechanical', 'patrick', 'joust', 'patrickjoust', 'Mt.', 'Mount', 'Desert', 'Island', 'Maine', 'ME', 'New', 'England', 'USA', 'US', 'United', 'States', 'North', 'America', 'Estados', 'Unidos', 'rural', 'country', 'Llewelyn', 'kid', 'boy', 'child', 'smile', 'green', 'shirt', 'stairs', 'CAUTION', 'sign', 'dusk', 'Southwest', 'Harbor', 'bokeh', 'Atlantic', 'ocean', 'sea', 'water', 'shore', 'clouds', 'yellow', 'purple']",-68.323996,44.277669,https://www.flickr.com/photos/patrickjoust/49626642016/
196,49625986718_20905078@N04_bf7daed21a,49625986718,patrickjoust,bf7daed21a,65535,66,,1,0,0,2019-06-01 00:00:00,"['Mamiya', 'C330', 'S', 'Sekor', '80mm', 'f/2.8', 'Fujichrome', 'Velvia', '50', '6x6', 'medium', 'format', '120', 'TLR', 'twin', 'lens', 'reflex', 'Fuji', 'chrome', 'slide', 'e-6', 'color', 'reversal', 'expired', 'film', 'manual', 'focus', 'analog', 'mechanical', 'patrick', 'joust', 'patrickjoust', 'Mt.', 'Mount', 'Desert', 'Island', 'Maine', 'ME', 'New', 'England', 'USA', 'US', 'United', 'States', 'North', 'America', 'Estados', 'Unidos', 'rural', 'country', 'Acadia', 'National', 'Park', 'rain', 'rainy', 'bus', 'auto', 'automobile', 'van', 'vehicle', 'parked', 'parking', 'lot', 'green', 'trees', 'gloomy', 'cloudy', 'overcast', 'reflection']",-68.188061,44.349555,https://www.flickr.com/photos/patrickjoust/49625986718/
197,49625103381_38593652@N03_a36945e43e,49625103381,SunnyDazzled,a36945e43e,65535,66,In the Waves,1,0,0,2019-10-17 12:46:04,"['Acadia National Park', 'ocean', 'wave', 'water', 'curl', 'light', 'storm', 'sky', 'seafoam', 'sea', 'curlers', 'nature', 'rollers']",-68.201365,44.305255,https://www.flickr.com/photos/sunnydazzled/49625103381/
198,49621997308_20905078@N04_67879038c5,49621997308,patrickjoust,67879038c5,65535,66,,1,0,0,2019-06-01 00:00:00,"['Mamiya', 'C330', 'S', 'Sekor', '80mm', 'f/2.8', 'Fujichrome', 'Velvia', '50', 'TLR', 'twin', 'lens', 'reflex', '120', '6x6', 'medium', 'format', 'e-6', 'color', 'reversal', 'chrome', 'expired', 'Fuji', 'film', 'manual', 'focus', 'analog', 'mechanical', 'patrick', 'joust', 'patrickjoust', 'New', 'England', 'USA', 'US', 'United', 'States', 'North', 'America', 'Estados', 'Unidos', 'rural', 'country', 'Maine', 'ME', 'mt.', 'Mount', 'Desert', 'Island', 'Llewelyn', 'kid', 'boy', 'child', 'standing', 'low', 'tide', 'Southwest', 'Harbor', 'Atlantic', 'ocean', 'sea', 'water', 'shore', 'coast', 'boats', 'clouds']",-68.32141,44.276663,https://www.flickr.com/photos/patrickjoust/49621997308/
199,49622651427_20905078@N04_799585e62c,49622651427,patrickjoust,799585e62c,65535,66,,1,0,0,2019-06-01 00:00:00,"['Mamiya', 'C330', 'S', 'Sekor', '80mm', 'f/2.8', 'Fujichrome', 'Velvia', '50', 'TLR', 'twin', 'lens', 'reflex', '120', '6x6', 'medium', 'format', 'e-6', 'color', 'reversal', 'chrome', 'expired', 'Fuji', 'film', 'manual', 'focus', 'analog', 'mechanical', 'patrick', 'joust', 'patrickjoust', 'New', 'England', 'USA', 'US', 'United', 'States', 'North', 'America', 'Estados', 'Unidos', 'rural', 'country', 'Maine', 'ME', 'mt.', 'Mount', 'Desert', 'Island', 'Southwest', 'Harbor', 'picnic', 'table', 'green', 'grass', 'low', 'tide', 'Atlantic', 'ocean', 'sea', 'water', 'coast', 'fog', 'foggy', 'rain', 'rainy', 'cloud', 'cloudy', 'boats']",-68.32435,44.277723,https://www.flickr.com/photos/patrickjoust/49622651427/
200,49622468192_20905078@N04_496f71380f,49622468192,patrickjoust,496f71380f,65535,66,,1,0,0,2019-06-01 00:00:00,"['Mamiya', 'C330', 'S', 'Sekor', '80mm', 'f/2.8', 'Fujichrome', 'Velvia', '50', 'TLR', 'twin', 'lens', 'reflex', '120', '6x6', 'medium', 'format', 'e-6', 'color', 'reversal', 'chrome', 'expired', 'Fuji', 'film', 'manual', 'focus', 'analog', 'mechanical', 'patrick', 'joust', 'patrickjoust', 'New', 'England', 'USA', 'US', 'United', 'States', 'North', 'America', 'Estados', 'Unidos', 'rural', 'country', 'Maine', 'ME', 'mt.', 'Mount', 'Desert', 'Island', 'Geneva', 'baby', 'girl', 'child', 'playground', 'Town', 'Hill', 'kid', 'swing']",-68.33495,44.39747,https://www.flickr.com/photos/patrickjoust/49622468192/
201,49617860001_20905078@N04_8acbf83905,49617860001,patrickjoust,8acbf83905,65535,66,,1,0,0,2019-04-01 00:00:00,"['Mamiya', 'C330', 'S', 'Sekor', '80mm', 'f/2.8', 'Fujichrome', 'Provia', '100F', 'TLR', 'twin', 'lens', 'reflex', '120', '6x6', 'medium', 'format', 'e-6', 'color', 'reversal', 'chrome', 'expired', 'Fuji', 'film', 'manual', 'focus', 'analog', 'mechanical', 'patrick', 'joust', 'patrickjoust', 'New', 'England', 'USA', 'US', 'United', 'States', 'North', 'America', 'Estados', 'Unidos', 'rural', 'country', 'Maine', 'ME', 'mt.', 'Mount', 'Desert', 'Island', 'old', 'green', 'car', 'auto', 'automobile', 'vehicle', 'parked', 'Asticou', 'tree', 'root', 'grass']",-68.282207,44.303788,https://www.flickr.com/photos/patrickjoust/49617860001/
202,49601290453_7630637@N02_15aef5b41f,49601290453,Jonmikel & Kat-YSNP,15aef5b41f,65535,66,When you are driving down a dirt dead-end road next to an old abandoned quarry and you chance upon another Bus  - Deer Isle Maine,1,0,0,2019-06-08 18:39:04,"['Maine', 'Summer', 'Deer Isle', 'VW', 'Bus', 'VW Bus', 'Camping', 'New England']",-68.641,44.172993,https://www.flickr.com/photos/ysnp/49601290453/
203,49602037092_7630637@N02_ea34993a96,49602037092,Jonmikel & Kat-YSNP,ea34993a96,65535,66,When you are driving down a dirt dead-end road next to an old abandoned quarry and you chance upon another Bus  - Deer Isle Maine,1,0,0,2019-06-08 18:38:50,"['Maine', 'Summer', 'Deer Isle', 'VW', 'Bus', 'VW Bus', 'Camping', 'New England']",-68.641,44.172993,https://www.flickr.com/photos/ysnp/49602037092/
204,49602035247_7630637@N02_c6ee650664,49602035247,Jonmikel & Kat-YSNP,c6ee650664,65535,66,When you are driving down a dirt dead-end road next to an old abandoned quarry and you chance upon another Bus  - Deer Isle Maine,1,0,0,2019-06-08 18:42:54,"['Maine', 'Summer', 'Deer Isle', 'VW', 'Bus', 'VW Bus', 'Camping', 'New England']",-68.641,44.172993,https://www.flickr.com/photos/ysnp/49602035247/
205,49600990808_36531876@N00_c2565e22c6,49600990808,Oleg S .,c2565e22c6,65535,66,"Foggy afternoon on Jordan Pond, Acadia",1,0,0,2017-07-06 19:30:40,"['rock', 'USA', 'nature', 'water', 'fog', 'Acadia', 'Maine', 'lake', 'Acadia_NP']",-68.252692,44.323786,https://www.flickr.com/photos/olegsokol/49600990808/
206,49593910362_8712554@N02_8ae4c20ae7,49593910362,davidecasteel,8ae4c20ae7,65535,66,6101581565_7e72d6b246_o.jpg,1,0,0,2011-07-22 12:03:53,"['Bar Harbor', 'Maine', 'United States of America']",-68.205306,44.391033,https://www.flickr.com/photos/8712554@N02/49593910362/
207,49592865418_7630637@N02_1ec1255754,49592865418,Jonmikel & Kat-YSNP,1ec1255754,65535,66,Settlement Quarry Preserve - Deer Isle Maine,1,0,0,2019-06-08 10:55:09,"['Maine', 'Summer', 'Quarry', 'Deer Isle', 'New England', 'Stone', 'Island', 'Trees']",-68.639971,44.176225,https://www.flickr.com/photos/ysnp/49592865418/
208,49592862818_7630637@N02_e9f6e717c7,49592862818,Jonmikel & Kat-YSNP,e9f6e717c7,65535,66,Settlement Quarry Preserve - Deer Isle Maine,1,0,0,2019-06-08 10:48:08,"['Maine', 'Summer', 'Quarry', 'Deer Isle', 'New England', 'Stone', 'Island', 'Trees']",-68.639971,44.176225,https://www.flickr.com/photos/ysnp/49592862818/
209,49580477981_7630637@N02_e0f0e8418b,49580477981,Jonmikel & Kat-YSNP,e0f0e8418b,65535,66,Settlement Quarry Preserve - Deer Isle Maine,1,0,0,2019-06-08 10:36:33,"['Maine', 'Summer', 'New England', 'Quarry', 'Deer Isle', 'Old', 'Rusting']",-68.640046,44.175309,https://www.flickr.com/photos/ysnp/49580477981/
210,49579977943_7630637@N02_39ed3ba81c,49579977943,Jonmikel & Kat-YSNP,39ed3ba81c,65535,66,Settlement Quarry Preserve - Deer Isle Maine,1,0,0,2019-06-08 10:37:41,"['Maine', 'Summer', 'New England', 'Quarry', 'Deer Isle', 'Old', 'Rusting']",-68.640067,44.175325,https://www.flickr.com/photos/ysnp/49579977943/
211,49580475781_7630637@N02_9f3f0cf462,49580475781,Jonmikel & Kat-YSNP,9f3f0cf462,65535,66,Settlement Quarry Preserve - Deer Isle Maine,1,0,0,2019-06-08 10:37:24,"['Maine', 'Summer', 'New England', 'Quarry', 'Deer Isle', 'Old', 'Rusting']",-68.640013,44.175317,https://www.flickr.com/photos/ysnp/49580475781/
212,49579355888_7630637@N02_eb5f58f941,49579355888,Jonmikel & Kat-YSNP,eb5f58f941,65535,66,Settlement Quarry Preserve - Deer Isle Maine,1,0,0,2019-06-08 10:33:00,"['Maine', 'Summer', 'Deer Isle', 'New England', 'Quarry']",-68.639702,44.175371,https://www.flickr.com/photos/ysnp/49579355888/
213,49579857211_7630637@N02_af7ef1ce5f,49579857211,Jonmikel & Kat-YSNP,af7ef1ce5f,65535,66,Settlement Quarry Preserve - Deer Isle Maine,1,0,0,2019-06-08 10:30:39,"['Maine', 'Summer', 'Deer Isle', 'New England', 'Quarry']",-68.639531,44.175979,https://www.flickr.com/photos/ysnp/49579857211/
214,49577490171_80807663@N00_df1ee4276b,49577490171,Janet Moore-Coll,df1ee4276b,65535,66,"Psychic, Bar Harbor, Maine (July 2019)",1,0,0,2019-07-23 13:54:13,"['X-T3', 'summer 2019']",-68.203543,44.391015,https://www.flickr.com/photos/jmoorecoll/49577490171/
215,49564240918_7630637@N02_243a281c9f,49564240918,Jonmikel & Kat-YSNP,243a281c9f,65535,66,Settlement Quarry Preserve - Deer Isle Maine,1,0,0,2019-06-08 10:30:35,"['Maine', 'Summer', 'Deer Isle', 'New England', 'Quarry']",-68.639498,44.175794,https://www.flickr.com/photos/ysnp/49564240918/
216,49564239248_7630637@N02_52e22532c0,49564239248,Jonmikel & Kat-YSNP,52e22532c0,65535,66,Settlement Quarry Preserve - Deer Isle Maine,1,0,0,2019-06-08 10:29:29,"['Maine', 'Summer', 'Deer Isle', 'New England', 'Quarry']",-68.639498,44.175794,https://www.flickr.com/photos/ysnp/49564239248/
217,49564236593_7630637@N02_03416e7aa6,49564236593,Jonmikel & Kat-YSNP,03416e7aa6,65535,66,Settlement Quarry Preserve - Deer Isle Maine,1,0,0,2019-06-08 10:30:19,"['Maine', 'Summer', 'Deer Isle', 'New England', 'Quarry']",-68.639498,44.175794,https://www.flickr.com/photos/ysnp/49564236593/
218,49560921333_49959666@N04_6900fed1c7,49560921333,scotrailm 63A,6900fed1c7,65535,66,CHRYSLER Newport 4 door Hardtop 1965,1,0,0,2019-09-21 22:14:03,"['cars', 'usa', 'classic']",-68.204948,44.390816,https://www.flickr.com/photos/mikealaska/49560921333/
219,49561415321_49959666@N04_0396a92a80,49561415321,scotrailm 63A,0396a92a80,65535,66,CHRYSLER Newport 4 door Hardtop 1965,1,0,0,2019-09-21 21:57:00,"['cars', 'usa', 'classic']",-68.204991,44.3908,https://www.flickr.com/photos/mikealaska/49561415321/
220,49560526868_49959666@N04_15e754da3b,49560526868,scotrailm 63A,15e754da3b,65535,66,MCA Transportation Orlando Florida,1,0,0,2019-09-21 18:54:05,"['buses', 'coaches', 'usa']",-68.204433,44.390509,https://www.flickr.com/photos/mikealaska/49560526868/
221,49561024521_49959666@N04_132248ce7d,49561024521,scotrailm 63A,132248ce7d,65535,66,Island Explorer Downeast Transportation Bar Harbor Maine,1,0,0,2019-09-21 18:28:41,"['buses', 'coaches', 'usa']",-68.205871,44.38617,https://www.flickr.com/photos/mikealaska/49561024521/
222,49545104703_56097032@N07_0cc87586ea,49545104703,Walt Polley,0cc87586ea,65535,66,Acadian Sunrise,1,0,0,2019-10-29 06:02:13,"['200mm f/4D Mikro-Nikkor', 'Maine', 'Nikon D500', 'Â© Walter Polley']",-68.18907,44.310836,https://www.flickr.com/photos/walt_polley/49545104703/
223,49539665246_25391839@N02_0930461009,49539665246,eric0669,0930461009,65535,66,Bass Harbor Light House,1,0,0,2019-08-10 14:50:19,"['coast', 'Maine', 'Prospect', 'harbor', 'lighthouse']",-68.337514,44.222045,https://www.flickr.com/photos/eric0669/49539665246/
224,49513802318_76302244@N00_766d7794e8,49513802318,The Burgys,766d7794e8,65535,66,_DSC0786-Edit.jpg,1,0,0,2016-07-13 18:24:42,[],-68.221956,44.35355,https://www.flickr.com/photos/theburgys/49513802318/
225,49514540742_76302244@N00_5d2ed7485a,49514540742,The Burgys,5d2ed7485a,65535,66,_DSC0774-Edit.jpg,1,0,0,2016-07-13 18:09:21,[],-68.223659,44.352005,https://www.flickr.com/photos/theburgys/49514540742/
226,49499250781_7630637@N02_279eb39ae4,49499250781,Jonmikel & Kat-YSNP,279eb39ae4,65535,66,Settlement Quarry Preserve - Deer Isle Maine,1,0,0,2019-06-08 10:08:21,"['Maine', 'Summer', 'Deer Isle', 'New England', 'Quarry']",-68.639713,44.174663,https://www.flickr.com/photos/ysnp/49499250781/
227,49499248451_7630637@N02_5e92f797ab,49499248451,Jonmikel & Kat-YSNP,5e92f797ab,65535,66,Settlement Quarry Preserve - Deer Isle Maine,1,0,0,2019-06-08 10:26:43,"['Maine', 'Summer', 'Deer Isle', 'New England', 'Quarry']",-68.639541,44.175809,https://www.flickr.com/photos/ysnp/49499248451/
228,49498746068_7630637@N02_4f04d36afb,49498746068,Jonmikel & Kat-YSNP,4f04d36afb,65535,66,Settlement Quarry Preserve - Deer Isle Maine,1,0,0,2019-06-08 10:16:49,"['Maine', 'Summer', 'Deer Isle', 'New England', 'Quarry']",-68.639713,44.174663,https://www.flickr.com/photos/ysnp/49498746068/
229,49494614563_76302244@N00_1ffb8579dd,49494614563,The Burgys,1ffb8579dd,65535,66,_DSC1133.jpg,1,0,0,2016-07-14 13:46:33,[],-68.310998,44.229283,https://www.flickr.com/photos/theburgys/49494614563/
230,49495108616_76302244@N00_ccbd9566f3,49495108616,The Burgys,ccbd9566f3,65535,66,_DSC1089-Edit.jpg,1,0,0,2016-07-14 13:26:27,[],-68.310634,44.228894,https://www.flickr.com/photos/theburgys/49495108616/
231,49494613198_76302244@N00_fb2c580e8e,49494613198,The Burgys,fb2c580e8e,65535,66,_DSC1083.jpg,1,0,0,2016-07-14 13:24:28,[],-68.310881,44.228861,https://www.flickr.com/photos/theburgys/49494613198/
232,49494612988_76302244@N00_5c951e374f,49494612988,The Burgys,5c951e374f,65535,66,_DSC1054-Edit.jpg,1,0,0,2016-07-14 12:25:09,[],-68.352403,44.239338,https://www.flickr.com/photos/theburgys/49494612988/
233,49495328252_76302244@N00_24004a82ab,49495328252,The Burgys,24004a82ab,65535,66,_DSC1003_4_5.jpg,1,0,0,2016-07-14 12:13:53,[],-68.352664,44.239355,https://www.flickr.com/photos/theburgys/49495328252/
234,49495328037_76302244@N00_c6fc8306a6,49495328037,The Burgys,c6fc8306a6,65535,66,_DSC0987-Edit.jpg,1,0,0,2016-07-14 10:18:02,[],-68.320262,44.226208,https://www.flickr.com/photos/theburgys/49495328037/
235,49494612138_76302244@N00_3096226f58,49494612138,The Burgys,3096226f58,65535,66,_DSC0960-Edit.jpg,1,0,0,2016-07-14 09:46:07,[],-68.322337,44.228047,https://www.flickr.com/photos/theburgys/49494612138/
236,49494611903_76302244@N00_0cb969f11a,49494611903,The Burgys,0cb969f11a,65535,66,_DSC1217-Edit.jpg,1,0,0,2016-07-14 18:36:41,[],-68.336709,44.221833,https://www.flickr.com/photos/theburgys/49494611903/
237,49492881867_7630637@N02_c63309d211,49492881867,Jonmikel & Kat-YSNP,c63309d211,65535,66,"Car Carcuss - Settlement Quarry Preserve, Deer Isle Maine",1,0,0,2019-06-08 11:10:43,"['Summer', 'Maine', 'New England', 'Woods', 'Trail', 'Hiking', 'Trees', 'Deer Isle', 'Outdoors', 'Outside']",-68.639584,44.177949,https://www.flickr.com/photos/ysnp/49492881867/
238,49492879727_7630637@N02_d35db3f361,49492879727,Jonmikel & Kat-YSNP,d35db3f361,65535,66,"Boardwalk - Settlement Quarry Preserve, Deer Isle Maine",1,0,0,2019-06-08 11:13:17,"['Summer', 'Maine', 'New England', 'Woods', 'Trail', 'Hiking', 'Trees', 'Deer Isle', 'Outdoors', 'Outside']",-68.639584,44.177949,https://www.flickr.com/photos/ysnp/49492879727/
239,49482101247_95795254@N02_0008e12d31,49482101247,Mobile Lynn,0008e12d31,65535,66,Downy Woodpecker 502_1979.jpg,1,0,0,2019-10-10 13:29:49,"['Nature', 'Downy Woodpecker', 'Birds', 'Woodpecker', 'Bird', 'Fauna', 'Picoides pubescens', 'Wildlife', 'Bar Harbor', 'Maine', 'United States of America']",-68.208045,44.362552,https://www.flickr.com/photos/moblynn/49482101247/
240,49471158238_95795254@N02_6f10fc09c8,49471158238,Mobile Lynn,6f10fc09c8,65535,66,Autumnal delight D85_0001.jpg,1,0,0,2019-10-08 15:07:53,"['trees', 'Landscape', 'Tree', 'Audley', 'Permissions', 'Autumnal', 'Fall', 'Water', 'River', 'Autumn', 'Landscape Photography', 'Outdoor Photography', 'Mount Desert', 'Maine', 'United States of America']",-68.335339,44.361411,https://www.flickr.com/photos/moblynn/49471158238/
241,49465850531_9615774@N05_049cfc66ba,49465850531,kmg1635,049cfc66ba,65535,66,Acadia National Park Maine IMG_1420,1,0,0,2019-10-14 15:46:13,"['Acadia National Park', 'Maine']",-68.253656,44.321358,https://www.flickr.com/photos/kmg1635/49465850531/
242,49453592942_132770804@N07_37e74717bc,49453592942,ccbutch,37e74717bc,65535,66,"Eagle Lake, Acadia National Park  10/21/2013",1,0,0,2013-10-21 17:33:54,"['Acadia National Park', 'Eagle Lake', 'Cadillac Mountain Road', 'Roadtrip USA', 'geotagged', 'Maine', 'NPS', 'water', 'sky', 'sunset', 'Cadillac Mountain']",-68.231195,44.358735,https://www.flickr.com/photos/chriscrossingamerica/49453592942/
243,49453592052_132770804@N07_392492414c,49453592052,ccbutch,392492414c,65535,66,"Great Head Trail, Acadia National Park  10/21/2013",1,0,0,2013-10-21 15:23:05,"['Acadia National Park', 'Great Head Trail', 'Atlantic Ocean', 'Roadtrip USA', 'geotagged', 'Maine', 'NPS', 'water', 'ocean', 'trail', 'hike', 'hiking']",-68.177976,44.325866,https://www.flickr.com/photos/chriscrossingamerica/49453592052/
244,49448741341_95795254@N02_e844c6c20e,49448741341,Mobile Lynn,e844c6c20e,65535,66,Monarch Butterfly 502_1658.jpg,1,0,0,2019-10-09 11:12:04,"['Nature', 'Butterfly', 'Insects', 'Fauna', 'Insect', 'Wildlife', 'Bar Harbor', 'Maine', 'United States of America']",-68.190775,44.307413,https://www.flickr.com/photos/moblynn/49448741341/
245,49752109926_40243520@N02_bb2cc9e4d4,49752109926,www78,bb2cc9e4d4,65535,66,Thunder Hole Gift Shop,1,0,0,2019-09-12 13:19:13,"['Acadia', 'National', 'Park', 'Bar', 'Harbor', 'Maine', 'Thunder', 'Hole', 'Gift', 'Shop']",-68.189392,44.321238,https://www.flickr.com/photos/whsieh78/49752109926/
246,49744713337_35376895@N03_6d25ec4d40,49744713337,maryalley904,6d25ec4d40,65535,66,Waterfront,1,0,0,2020-02-13 12:37:14,[],-68.586087,44.412852,https://www.flickr.com/photos/maryalley/49744713337/
247,49726277837_40243520@N02_d42e12d9db,49726277837,www78,d42e12d9db,65535,66,Sieur de Monts Nature Center,1,0,0,2019-09-12 06:41:19,"['Acadia', 'National', 'Park', 'Bar', 'Harbor', 'Maine', 'Sieur', 'de', 'Monts', 'Nature', 'Center']",-68.208414,44.362043,https://www.flickr.com/photos/whsieh78/49726277837/
248,49712969661_42277392@N00_1504d6c02f,49712969661,Robert Stone Nature Photography,1504d6c02f,65535,66,Acadia NP,1,0,0,2019-05-17 06:59:13,"['Acadia', 'Jordan Pond']",-68.25149,44.324243,https://www.flickr.com/photos/bobstone/49712969661/
249,49693198453_64513382@N00_374b06f365,49693198453,pandt,374b06f365,65535,66,Thuya Gardens,1,0,0,2019-08-04 11:16:21,"['butterfly', 'flower', 'garden', 'thuya', 'maine', 'northeast harbor', 'acadia', 'park', 'gardens', 'canon', 'eos', 'slr', '6d', 'beautiful', 'outdoor', 'nature', 'outside', 'flickr', 'green', 'orange', 'black', 'bokeh']",-68.276285,44.300272,https://www.flickr.com/photos/pfmimages/49693198453/
250,49442598797_28685278@N02_ec7740e6eb,49442598797,Brian Collins Photography,ec7740e6eb,65535,66,,1,0,0,2019-07-01 12:28:17,[],-68.239423,44.38205,https://www.flickr.com/photos/ih8nyyanks/49442598797/
251,49436467907_97226469@N07_d7432aab05,49436467907,johnny4eyes1,d7432aab05,65535,66,"Dawn, Schooner Head",1,0,0,2019-10-21 06:04:42,"['golden hour', 'landscape', 'calm', 'water', 'nature', 'dawn', 'Acadia National Park', 'tidal pool', 'sunrise', 'seaside', 'Maine', 'Bar Harbor', 'rocks', 'sea', 'Schooner Head', 'scenic', 'tide', 'ocean', 'Travel', 'bluff', 'hiking', 'dramatic light', 'outdoors', 'seascape', 'Acadia', 'Mt Desert Island', 'cliff', 'dramatic', 'focus stack', 'focus stacked', 'long exposure']",-68.177524,44.339721,https://www.flickr.com/photos/97226469@N07/49436467907/
252,49420290193_20905078@N04_d33a1d8141,49420290193,patrickjoust,d33a1d8141,65535,66,,1,0,0,2018-06-01 00:00:00,"['Super', 'Ricohflex', 'Kodak', 'Verichrome', 'Pan', '100', '(expired', '1982)', 'developed', 'Rodinal', '1:50', '6x6', 'medium', 'format', '120', 'TLR', 'twin', 'lens', 'reflex', 'black', 'white', 'home', 'develop', 'film', 'blanc et noir', 'blanco y negro', 'schwarz und weiss', 'manual', 'focus', 'analog', 'mechanical', 'patrick', 'joust', 'patrickjoust', 'USA', 'US', 'United', 'States', 'North', 'America', 'Estados', 'Unidos', 'Llewelyn', 'kid', 'boy', 'child', 'binoculars', 'Mt', 'Mount', 'Desert', 'Island', 'Maine', 'ME', 'New', 'England', 'woods', 'forest', 'Acadia', 'National', 'Park', 'Jordan', 'Pond', 'shadow', 'light', 'trees', 'Junior', 'Ranger']",-68.256082,44.324861,https://www.flickr.com/photos/patrickjoust/49420290193/
253,49407713297_95795254@N02_f2bcbe39f6,49407713297,Mobile Lynn,f2bcbe39f6,65535,66,Autumnal splendour 850_0073.jpg,1,0,0,2019-10-11 08:54:35,"['Water', 'trees', 'Tree', 'Autumnal', 'Fall', 'River', 'Landscape', 'Autumn', 'Landscape Photography', 'Outdoor Photography', 'Bar Harbor', 'Maine', 'United States of America', 'NGC', 'coth5', 'NPC']",-68.326967,44.424483,https://www.flickr.com/photos/moblynn/49407713297/
254,49402944278_150860303@N05_627fa343a4,49402944278,Kemp Davis,627fa343a4,65535,66,IMG22656,1,0,0,2019-08-12 08:49:10,"['Winter Harbor', 'Maine', 'United States of America']",-68.147942,44.372063,https://www.flickr.com/photos/kemp_davis/49402944278/
255,49402704232_150860303@N05_637f1a850f,49402704232,Kemp Davis,637f1a850f,65535,66,IMG22656,1,0,0,2019-08-12 08:49:10,"['Winter Harbor', 'Maine', 'United States of America']",-68.147942,44.372063,https://www.flickr.com/photos/kemp_davis/49402704232/
256,49402503126_150860303@N05_de483d63e0,49402503126,Kemp Davis,de483d63e0,65535,66,IMG22657,1,0,0,2019-08-12 08:49:12,"['Winter Harbor', 'Maine', 'United States of America', 'Egg Rock Lighthouse']",-68.147942,44.372063,https://www.flickr.com/photos/kemp_davis/49402503126/
257,49402025903_150860303@N05_87e6da288b,49402025903,Kemp Davis,87e6da288b,65535,66,IMG22919,1,0,0,2019-08-12 13:06:02,"['Bar Harbor', 'Maine', 'United States of America']",-68.182153,44.368094,https://www.flickr.com/photos/kemp_davis/49402025903/
258,49402703727_150860303@N05_165530459b,49402703727,Kemp Davis,165530459b,65535,66,IMG22908,1,0,0,2019-08-12 13:04:21,"['Bar Harbor', 'Maine', 'United States of America']",-68.176934,44.359022,https://www.flickr.com/photos/kemp_davis/49402703727/
259,49399856818_184589561@N03_96af47b1a7,49399856818,Jessica Hunsicker,96af47b1a7,65535,66,IMG_7355,1,0,0,2019-08-17 13:47:11,[],-68.211793,44.298083,https://www.flickr.com/photos/jhunsi/49399856818/
260,49400331351_184589561@N03_7f37a00a38,49400331351,Jessica Hunsicker,7f37a00a38,65535,66,IMG_7356,1,0,0,2019-08-17 14:15:47,[],-68.212244,44.298928,https://www.flickr.com/photos/jhunsi/49400331351/
261,49397462723_95795254@N02_22829c37af,49397462723,Mobile Lynn,22829c37af,65535,66,Common Loon-Great Northern Diver 502_1861.jpg,1,0,0,2019-10-10 11:09:26,"['Common Loon', 'Birds', 'Nature', 'Bird', 'Diver', 'Fauna', 'Gavia immer', 'Great Northern Diver', 'Loon', 'Wildlife', 'Mount Desert', 'Maine', 'United States of America']",-68.257042,44.334116,https://www.flickr.com/photos/moblynn/49397462723/
262,49395760307_150860303@N05_2c7733164e,49395760307,Kemp Davis,2c7733164e,65535,66,IMG22561,1,0,0,2019-08-11 14:59:45,"['Bass Harbor', 'Maine', 'United States of America']",-68.33752,44.222038,https://www.flickr.com/photos/kemp_davis/49395760307/
263,49395760227_150860303@N05_22bedee567,49395760227,Kemp Davis,22bedee567,65535,66,IMG22575,1,0,0,2019-08-11 15:12:39,"['Bass Harbor', 'Maine', 'United States of America']",-68.336425,44.22185,https://www.flickr.com/photos/kemp_davis/49395760227/
264,49395760092_150860303@N05_eafe7e308e,49395760092,Kemp Davis,eafe7e308e,65535,66,IMG22592,1,0,0,2019-08-11 17:43:09,[],-68.205388,44.39128,https://www.flickr.com/photos/kemp_davis/49395760092/
265,49395081963_150860303@N05_e6ab4e1b7a,49395081963,Kemp Davis,e6ab4e1b7a,65535,66,IMG22593,1,0,0,2019-08-11 17:43:14,[],-68.205388,44.39128,https://www.flickr.com/photos/kemp_davis/49395081963/
266,49395081808_150860303@N05_c2b4121528,49395081808,Kemp Davis,c2b4121528,65535,66,IMG22598,1,0,0,2019-08-11 18:26:45,"['Bar Harbor', 'Maine', 'United States of America']",-68.205953,44.391427,https://www.flickr.com/photos/kemp_davis/49395081808/
267,49395557741_150860303@N05_0a1f3e983f,49395557741,Kemp Davis,0a1f3e983f,65535,66,IMG22599,1,0,0,2019-08-11 18:29:45,[],-68.205953,44.391427,https://www.flickr.com/photos/kemp_davis/49395557741/
268,49395759682_150860303@N05_59d241214e,49395759682,Kemp Davis,59d241214e,65535,66,IMG22580,1,0,0,2019-08-11 15:20:15,"['Bass Harbor', 'Maine', 'United States of America']",-68.33642,44.22193,https://www.flickr.com/photos/kemp_davis/49395759682/
269,49395759562_150860303@N05_152659f60b,49395759562,Kemp Davis,152659f60b,65535,66,IMG22563,1,0,0,2019-08-11 14:59:53,"['Bass Harbor', 'Maine', 'United States of America']",-68.33752,44.222038,https://www.flickr.com/photos/kemp_davis/49395759562/
270,49395759452_150860303@N05_2b10318ae4,49395759452,Kemp Davis,2b10318ae4,65535,66,IMG22600,1,0,0,2019-08-11 18:29:49,[],-68.205953,44.391427,https://www.flickr.com/photos/kemp_davis/49395759452/
271,49395557291_150860303@N05_456bc269cd,49395557291,Kemp Davis,456bc269cd,65535,66,IMG22601,1,0,0,2019-08-11 18:29:53,[],-68.205953,44.391427,https://www.flickr.com/photos/kemp_davis/49395557291/
272,49395557216_150860303@N05_c602ff0919,49395557216,Kemp Davis,c602ff0919,65535,66,IMG22603,1,0,0,2019-08-11 18:33:32,"['Bar Harbor', 'Maine', 'United States of America']",-68.205964,44.391413,https://www.flickr.com/photos/kemp_davis/49395557216/
273,49395557106_150860303@N05_4fe0c6281f,49395557106,Kemp Davis,4fe0c6281f,65535,66,IMG22604,1,0,0,2019-08-11 18:33:38,"['Bar Harbor', 'Maine', 'United States of America']",-68.205964,44.391413,https://www.flickr.com/photos/kemp_davis/49395557106/
274,49395759037_150860303@N05_986464fda1,49395759037,Kemp Davis,986464fda1,65535,66,IMG22605,1,0,0,2019-08-11 18:33:47,"['Bar Harbor', 'Maine', 'United States of America']",-68.205964,44.391413,https://www.flickr.com/photos/kemp_davis/49395759037/
275,49395758927_150860303@N05_77bb800f96,49395758927,Kemp Davis,77bb800f96,65535,66,IMG22602,1,0,0,2019-08-11 18:29:55,[],-68.205953,44.391427,https://www.flickr.com/photos/kemp_davis/49395758927/
276,49395556791_150860303@N05_1f25061d59,49395556791,Kemp Davis,1f25061d59,65535,66,IMG22607,1,0,0,2019-08-11 18:33:53,"['Bar Harbor', 'Maine', 'United States of America']",-68.205948,44.391391,https://www.flickr.com/photos/kemp_davis/49395556791/
277,49395080643_150860303@N05_8858066f71,49395080643,Kemp Davis,8858066f71,65535,66,IMG22608,1,0,0,2019-08-11 18:33:54,"['Bar Harbor', 'Maine', 'United States of America']",-68.205948,44.391391,https://www.flickr.com/photos/kemp_davis/49395080643/
278,49395556581_150860303@N05_d564aa5b28,49395556581,Kemp Davis,d564aa5b28,65535,66,IMG22610,1,0,0,2019-08-11 19:30:00,"['Bar Harbor', 'Maine', 'United States of America']",-68.204298,44.392036,https://www.flickr.com/photos/kemp_davis/49395556581/
279,49395080413_150860303@N05_e80014c152,49395080413,Kemp Davis,e80014c152,65535,66,IMG22611,1,0,0,2019-08-11 19:30:52,"['Bar Harbor', 'Maine', 'United States of America']",-68.204298,44.392083,https://www.flickr.com/photos/kemp_davis/49395080413/
280,49395080343_150860303@N05_8b88133469,49395080343,Kemp Davis,8b88133469,65535,66,IMG22612,1,0,0,2019-08-11 19:31:04,"['Bar Harbor', 'Maine', 'United States of America']",-68.204298,44.392083,https://www.flickr.com/photos/kemp_davis/49395080343/
281,49395080248_150860303@N05_68521abf74,49395080248,Kemp Davis,68521abf74,65535,66,IMG22614,1,0,0,2019-08-11 19:31:24,"['Bar Harbor', 'Maine', 'United States of America']",-68.204295,44.392102,https://www.flickr.com/photos/kemp_davis/49395080248/
282,49395080083_150860303@N05_803955f31a,49395080083,Kemp Davis,803955f31a,65535,66,IMG22619,1,0,0,2019-08-11 19:33:34,"['Bar Harbor', 'Maine', 'United States of America']",-68.204178,44.392238,https://www.flickr.com/photos/kemp_davis/49395080083/
283,49395556136_150860303@N05_9c9abf6908,49395556136,Kemp Davis,9c9abf6908,65535,66,IMG22623,1,0,0,2019-08-11 19:36:30,"['Bar Harbor', 'Maine', 'United States of America']",-68.204273,44.392027,https://www.flickr.com/photos/kemp_davis/49395556136/
284,49395555976_150860303@N05_64769eb682,49395555976,Kemp Davis,64769eb682,65535,66,IMG22627,1,0,0,2019-08-11 19:38:54,"['Bar Harbor', 'Maine', 'United States of America']",-68.203931,44.391313,https://www.flickr.com/photos/kemp_davis/49395555976/
285,49395079728_150860303@N05_e5f90be42d,49395079728,Kemp Davis,e5f90be42d,65535,66,IMG22639,1,0,0,2019-08-11 19:49:16,"['Bar Harbor', 'Maine', 'United States of America']",-68.20367,44.390669,https://www.flickr.com/photos/kemp_davis/49395079728/
286,49395079623_150860303@N05_d20e238c34,49395079623,Kemp Davis,d20e238c34,65535,66,IMG22640,1,0,0,2019-08-11 19:50:19,"['Bar Harbor', 'Maine', 'United States of America']",-68.203539,44.390705,https://www.flickr.com/photos/kemp_davis/49395079623/
287,49395079533_150860303@N05_c28707e43b,49395079533,Kemp Davis,c28707e43b,65535,66,IMG22650,1,0,0,2019-08-11 20:06:33,"['Bar Harbor', 'Maine', 'United States of America']",-68.205289,44.387822,https://www.flickr.com/photos/kemp_davis/49395079533/
288,49382915858_95795254@N02_d11932e249,49382915858,Mobile Lynn,d11932e249,65535,66,Common Loon-Great Northern Diver 502_1869.jpg,1,0,0,2019-10-10 11:09:38,"['Common Loon', 'Birds', 'Nature', 'Bird', 'Diver', 'Fauna', 'Gavia immer', 'Great Northern Diver', 'Loon', 'Wildlife', 'Mount Desert', 'Maine', 'United States of America', 'Coth', 'SpecAnimal']",-68.257042,44.334116,https://www.flickr.com/photos/moblynn/49382915858/
289,49373927547_35376895@N03_396d24a10a,49373927547,maryalley904,396d24a10a,65535,66,"Snow Goose, a rare visitor!",1,0,0,2020-01-11 13:30:18,[],-68.205064,44.382347,https://www.flickr.com/photos/maryalley/49373927547/
290,49373720376_35376895@N03_8261f9ef5a,49373720376,maryalley904,8261f9ef5a,65535,66,"Snow Goose, a rare visitor!",1,0,0,2020-01-11 13:30:09,[],-68.205064,44.382355,https://www.flickr.com/photos/maryalley/49373720376/
291,49373714886_35376895@N03_70413f12a5,49373714886,maryalley904,70413f12a5,65535,66,"Snow Goose, a rare visitor!",1,0,0,2020-01-11 13:28:00,[],-68.204953,44.382266,https://www.flickr.com/photos/maryalley/49373714886/
292,49369058153_54386413@N07_e6e38b766f,49369058153,pkwill,e6e38b766f,65535,66,IMG_20190814_115708,1,0,0,2019-08-14 11:57:08,[],-68.174459,44.328291,https://www.flickr.com/photos/pkgw/49369058153/
293,49369518791_54386413@N07_d58919ee88,49369518791,pkwill,d58919ee88,65535,66,IMG_20190814_115655,1,0,0,2019-08-14 11:56:55,[],-68.177503,44.332008,https://www.flickr.com/photos/pkgw/49369518791/
294,49369056818_54386413@N07_56b1cdcb22,49369056818,pkwill,56b1cdcb22,65535,66,IMG_20190814_114315,1,0,0,2019-08-14 11:43:15,[],-68.229456,44.382013,https://www.flickr.com/photos/pkgw/49369056818/
295,49353960917_35376895@N03_32ab4e1c00,49353960917,maryalley904,32ab4e1c00,65535,66,White-tailed Deer,1,0,0,2019-12-22 15:00:59,[],-68.296945,44.249586,https://www.flickr.com/photos/maryalley/49353960917/
296,49346023456_136356243@N03_cd367336a1,49346023456,benno.dierauer,cd367336a1,65535,66,endless vastness,1,0,0,2019-10-06 08:26:42,"['Autumn', 'Herbst', 'Pano', 'Panorama', 'Landscape', 'Landschaft', 'Natur', 'Nature', 'Acadia National Park', 'Maine', 'USA', 'Amerika', 'Canon EOS R', 'Canon RF 24-105']",-68.230923,44.359949,https://www.flickr.com/photos/dieben/49346023456/
297,49342145793_35376895@N03_53b3e15749,49342145793,maryalley904,53b3e15749,65535,66,Bald Eagle,1,0,0,2019-12-07 14:30:07,[],-68.3335,44.362711,https://www.flickr.com/photos/maryalley/49342145793/
298,49342141823_35376895@N03_f3c92c9dc0,49342141823,maryalley904,f3c92c9dc0,65535,66,Bald Eagle,1,0,0,2019-12-07 14:36:48,[],-68.333506,44.362702,https://www.flickr.com/photos/maryalley/49342141823/
299,49342804962_35376895@N03_bb69096f2b,49342804962,maryalley904,bb69096f2b,65535,66,White-tailed Deer,1,0,0,2019-12-07 10:04:03,[],-68.308606,44.239188,https://www.flickr.com/photos/maryalley/49342804962/
300,49341867668_35376895@N03_d7bb113d90,49341867668,maryalley904,d7bb113d90,65535,66,"Bald Eagle, juvenile",1,0,0,2019-12-01 09:21:03,[],-68.23657,44.388861,https://www.flickr.com/photos/maryalley/49341867668/
301,49342314171_35376895@N03_05ac1b07fa,49342314171,maryalley904,05ac1b07fa,65535,66,"Southwest Harbor, Maine",1,0,0,2019-11-30 13:28:46,[],-68.326123,44.271744,https://www.flickr.com/photos/maryalley/49342314171/
302,49341847923_35376895@N03_db2aa8354d,49341847923,maryalley904,db2aa8354d,65535,66,Gray Seals,1,0,0,2019-11-26 14:36:35,[],-68.039659,44.362641,https://www.flickr.com/photos/maryalley/49341847923/
303,49342292846_35376895@N03_75781bc59e,49342292846,maryalley904,75781bc59e,65535,66,Great Blue Heron,1,0,0,2019-11-26 10:16:38,[],-68.290039,44.323438,https://www.flickr.com/photos/maryalley/49342292846/
304,49338845233_68616274@N08_b908f6f14d,49338845233,MikeWeinhold,b908f6f14d,65535,66,Boulder Beach,1,0,0,2018-08-16 06:23:33,"['Acadia', 'Boulder', 'Beach']",-68.190432,44.315534,https://www.flickr.com/photos/mikeweinhold/49338845233/
305,49327718636_8412758@N04_a119240456,49327718636,Northern Wolf Photography,a119240456,65535,66,Wet Ride,1,0,0,2019-06-20 11:57:40,"['14mm', '3 Wheels', 'Acadia', 'E-M5', 'Fog', 'Landscape', 'MP3', 'Mountain', 'National Park', 'Olympus', 'Road', 'Rocks', 'Scooter', 'Somes Sound', 'The Roal Less Traveled', 'Trees', 'Wet', 'Northeast Harbor', 'Maine', 'United States of America']",-68.305845,44.319738,https://www.flickr.com/photos/wo1ves/49327718636/
306,49326325307_136356243@N03_d85347e314,49326325307,benno.dierauer,d85347e314,65535,66,Bass Harbor Head Light,1,0,0,2019-10-05 08:42:16,"['Maine', 'Amerika', 'USA', 'Leuchtturm', 'Canon EOS R', 'Canon RF 24-105', 'Head Light']",-68.337246,44.221891,https://www.flickr.com/photos/dieben/49326325307/
307,49304664033_43659940@N00_0e43445a0a,49304664033,Cerianthus,0e43445a0a,65535,66,20161015-IMG_1063,1,0,0,2016-10-15 19:07:05,"['New England', 'vakantie', 'Â© Gerard Wijnsma', 'Â© Gerard Wijnsma 2017', 'Mount Desert', 'Maine', 'United States']",-68.208947,44.307144,https://www.flickr.com/photos/cerianthus/49304664033/
308,49305155431_43659940@N00_29aa626518,49305155431,Cerianthus,29aa626518,65535,66,20161015-IMG_1060,1,0,0,2016-10-15 19:06:36,"['New England', 'vakantie', 'Â© Gerard Wijnsma', 'Â© Gerard Wijnsma 2017', 'Mount Desert', 'Maine', 'United States']",-68.20863,44.307219,https://www.flickr.com/photos/cerianthus/49305155431/
309,49305154631_43659940@N00_86beb63c2a,49305154631,Cerianthus,86beb63c2a,65535,66,20161015-IMG_1033,1,0,0,2016-10-15 16:49:37,"['New England', 'vakantie', 'Â© Gerard Wijnsma', 'Â© Gerard Wijnsma 2017', 'Bar Harbor', 'Maine', 'United States']",-68.188928,44.32096,https://www.flickr.com/photos/cerianthus/49305154631/
310,49305364242_43659940@N00_f67c41fe39,49305364242,Cerianthus,f67c41fe39,65535,66,20161015-IMG_1006-Pano,1,0,0,2016-10-15 16:17:44,"['New England', 'vakantie', 'Â© Gerard Wijnsma', 'Â© Gerard Wijnsma 2017', 'Bar Harbor', 'Maine', 'United States']",-68.188333,44.36,https://www.flickr.com/photos/cerianthus/49305364242/
311,49304656468_43659940@N00_ef77c94269,49304656468,Cerianthus,ef77c94269,65535,66,20161015-IMG_0879,1,0,0,2016-10-15 15:33:28,"['New England', 'vakantie', 'Â© Gerard Wijnsma', 'Â© Gerard Wijnsma 2017', 'Mount Desert', 'Maine', 'United States']",-68.36342,44.354847,https://www.flickr.com/photos/cerianthus/49304656468/
312,49305358537_43659940@N00_fcfa068e77,49305358537,Cerianthus,fcfa068e77,65535,66,20161015-IMG_0869,1,0,0,2016-10-15 15:28:53,"['New England', 'vakantie', 'Â© Gerard Wijnsma', 'Â© Gerard Wijnsma 2017', 'Mount Desert', 'Maine', 'United States']",-68.363387,44.354823,https://www.flickr.com/photos/cerianthus/49305358537/
313,49305147416_43659940@N00_da8bc93a05,49305147416,Cerianthus,da8bc93a05,65535,66,20161015-IMG_0846,1,0,0,2016-10-15 14:46:12,"['New England', 'vakantie', 'Â© Gerard Wijnsma', 'Â© Gerard Wijnsma 2017', 'Bernard', 'Maine', 'United States']",-68.352466,44.240114,https://www.flickr.com/photos/cerianthus/49305147416/
314,49305357007_43659940@N00_6685a845a7,49305357007,Cerianthus,6685a845a7,65535,66,20161015-IMG_0839,1,0,0,2016-10-15 14:42:35,"['New England', 'vakantie', 'Â© Gerard Wijnsma', 'Â© Gerard Wijnsma 2017', 'Bernard', 'Maine', 'United States']",-68.352466,44.240114,https://www.flickr.com/photos/cerianthus/49305357007/
315,49305142081_43659940@N00_12b5ceb06e,49305142081,Cerianthus,12b5ceb06e,65535,66,20161015-IMG_0798,1,0,0,2016-10-15 13:01:38,"['New England', 'vakantie', 'Â© Gerard Wijnsma', 'Â© Gerard Wijnsma 2017', 'Bernard', 'Maine', 'United States']",-68.352606,44.237836,https://www.flickr.com/photos/cerianthus/49305142081/
316,49305140571_43659940@N00_fb690bd2c2,49305140571,Cerianthus,fb690bd2c2,65535,66,20161015-IMG_0698,1,0,0,2016-10-15 11:53:00,"['New England', 'vakantie', 'Â© Gerard Wijnsma', 'Â© Gerard Wijnsma 2017', 'Southwest Harbor', 'Maine', 'United States']",-68.326052,44.27145,https://www.flickr.com/photos/cerianthus/49305140571/
317,49305138626_43659940@N00_ba5b51fe51,49305138626,Cerianthus,ba5b51fe51,65535,66,20161015-IMG_0689,1,0,0,2016-10-15 11:30:11,"['New England', 'vakantie', 'Â© Gerard Wijnsma', 'Â© Gerard Wijnsma 2017', 'Southwest Harbor', 'Maine', 'United States']",-68.313159,44.276388,https://www.flickr.com/photos/cerianthus/49305138626/
318,49305131721_43659940@N00_b7d7320e11,49305131721,Cerianthus,b7d7320e11,65535,66,20161014-IMG_0588,1,0,0,2016-10-14 16:31:30,"['Jordan Pond', 'New England', 'vakantie', 'Â© Gerard Wijnsma', 'Â© Gerard Wijnsma 2017', 'Mount Desert', 'Maine', 'United States']",-68.254545,44.322554,https://www.flickr.com/photos/cerianthus/49305131721/
319,49305340242_43659940@N00_5fc9edbd3c,49305340242,Cerianthus,5fc9edbd3c,65535,66,20161014-IMG_0542-Pano,1,0,0,2016-10-14 15:56:18,"['New England', 'vakantie', 'Â© Gerard Wijnsma', 'Â© Gerard Wijnsma 2017', 'Mount Desert', 'Maine', 'United States']",-68.260277,44.333611,https://www.flickr.com/photos/cerianthus/49305340242/
320,49305338862_43659940@N00_3f72e96d72,49305338862,Cerianthus,3f72e96d72,65535,66,20161014-IMG_0499,1,0,0,2016-10-14 15:42:12,"['Jordan Pond', 'New England', 'vakantie', 'Â© Gerard Wijnsma', 'Â© Gerard Wijnsma 2017', 'Mount Desert', 'Maine', 'United States']",-68.259474,44.337499,https://www.flickr.com/photos/cerianthus/49305338862/
321,49305338112_43659940@N00_7d43abeb64,49305338112,Cerianthus,7d43abeb64,65535,66,20161014-IMG_0488,1,0,0,2016-10-14 15:38:39,"['Jordan Pond', 'New England', 'vakantie', 'Â© Gerard Wijnsma', 'Â© Gerard Wijnsma 2017', 'Mount Desert', 'Maine', 'United States']",-68.259619,44.338217,https://www.flickr.com/photos/cerianthus/49305338112/
322,49305126666_43659940@N00_15d8769290,49305126666,Cerianthus,15d8769290,65535,66,20161014-IMG_0482,1,0,0,2016-10-14 15:36:34,"['Jordan Pond', 'New England', 'vakantie', 'Â© Gerard Wijnsma', 'Â© Gerard Wijnsma 2017', 'Mount Desert', 'Maine', 'United States']",-68.259652,44.338601,https://www.flickr.com/photos/cerianthus/49305126666/
323,49304633848_43659940@N00_1949b200a2,49304633848,Cerianthus,1949b200a2,65535,66,20161014-IMG_0481,1,0,0,2016-10-14 15:32:41,"['Jordan Pond', 'New England', 'vakantie', 'Â© Gerard Wijnsma', 'Â© Gerard Wijnsma 2017', 'Mount Desert', 'Maine', 'United States']",-68.259659,44.339368,https://www.flickr.com/photos/cerianthus/49304633848/
324,49305335642_43659940@N00_699ec633e0,49305335642,Cerianthus,699ec633e0,65535,66,20161014-IMG_0470,1,0,0,2016-10-14 15:29:00,"['Jordan Pond', 'New England', 'vakantie', 'Â© Gerard Wijnsma', 'Â© Gerard Wijnsma 2017', 'Mount Desert', 'Maine', 'United States']",-68.259231,44.340206,https://www.flickr.com/photos/cerianthus/49305335642/
325,49305124521_43659940@N00_2f66078b64,49305124521,Cerianthus,2f66078b64,65535,66,20161014-IMG_0434,1,0,0,2016-10-14 15:08:07,"['Jordan Pond', 'New England', 'vakantie', 'Â© Gerard Wijnsma', 'Â© Gerard Wijnsma 2017', 'Mount Desert', 'Maine', 'United States']",-68.253679,44.335477,https://www.flickr.com/photos/cerianthus/49305124521/
326,49305333882_43659940@N00_65fdd0acc7,49305333882,Cerianthus,65fdd0acc7,65535,66,20161014-IMG_0425,1,0,0,2016-10-14 15:01:13,"['Jordan Pond', 'New England', 'vakantie', 'Â© Gerard Wijnsma', 'Â© Gerard Wijnsma 2017', 'Mount Desert', 'Maine', 'United States']",-68.252836,44.335165,https://www.flickr.com/photos/cerianthus/49305333882/
327,49304630473_43659940@N00_aeb1aba94a,49304630473,Cerianthus,aeb1aba94a,65535,66,20161014-IMG_0424,1,0,0,2016-10-14 14:59:57,"['Jordan Pond', 'New England', 'vakantie', 'Â© Gerard Wijnsma', 'Â© Gerard Wijnsma 2017', 'Mount Desert', 'Maine', 'United States']",-68.252817,44.335151,https://www.flickr.com/photos/cerianthus/49304630473/
328,49304628208_43659940@N00_f601b03f58,49304628208,Cerianthus,f601b03f58,65535,66,20161014-IMG_0395,1,0,0,2016-10-14 14:42:47,"['Jordan Pond', 'New England', 'vakantie', 'Â© Gerard Wijnsma', 'Â© Gerard Wijnsma 2017', 'Mount Desert', 'Maine', 'United States']",-68.252569,44.334952,https://www.flickr.com/photos/cerianthus/49304628208/
329,49305329322_43659940@N00_eaf55a7b5a,49305329322,Cerianthus,eaf55a7b5a,65535,66,20161014-IMG_0378,1,0,0,2016-10-14 14:20:45,"['Jordan Pond', 'New England', 'vakantie', 'Â© Gerard Wijnsma', 'Â© Gerard Wijnsma 2017', 'Mount Desert', 'Maine', 'United States']",-68.252251,44.334697,https://www.flickr.com/photos/cerianthus/49305329322/
330,49305326327_43659940@N00_b223c0e7df,49305326327,Cerianthus,b223c0e7df,65535,66,20161014-IMG_0346,1,0,0,2016-10-14 14:03:25,"['Jordan Pond', 'New England', 'vakantie', 'Â© Gerard Wijnsma', 'Â© Gerard Wijnsma 2017', 'Mount Desert', 'Maine', 'United States']",-68.2518,44.33177,https://www.flickr.com/photos/cerianthus/49305326327/
331,49304622208_43659940@N00_f29f329b79,49304622208,Cerianthus,f29f329b79,65535,66,20161014-IMG_0306,1,0,0,2016-10-14 13:39:48,"['Jordan Pond', 'New England', 'vakantie', 'Â© Gerard Wijnsma', 'Â© Gerard Wijnsma 2017', 'Mount Desert', 'Maine', 'United States']",-68.250875,44.326522,https://www.flickr.com/photos/cerianthus/49304622208/
332,49305112821_43659940@N00_3741131035,49305112821,Cerianthus,3741131035,65535,66,20161014-IMG_0288,1,0,0,2016-10-14 13:35:48,"['Jordan Pond', 'New England', 'vakantie', 'Â© Gerard Wijnsma', 'Â© Gerard Wijnsma 2017', 'Mount Desert', 'Maine', 'United States']",-68.250712,44.326054,https://www.flickr.com/photos/cerianthus/49305112821/
333,49305322062_43659940@N00_154d861ce1,49305322062,Cerianthus,154d861ce1,65535,66,20161014-IMG_0279,1,0,0,2016-10-14 13:32:00,"['Jordan Pond', 'New England', 'vakantie', 'Â© Gerard Wijnsma', 'Â© Gerard Wijnsma 2017', 'Mount Desert', 'Maine', 'United States']",-68.250556,44.325609,https://www.flickr.com/photos/cerianthus/49305322062/
334,49304618983_43659940@N00_7f06695c15,49304618983,Cerianthus,7f06695c15,65535,66,20161014-IMG_0269,1,0,0,2016-10-14 13:25:40,"['Jordan Pond', 'New England', 'vakantie', 'Â© Gerard Wijnsma', 'Â© Gerard Wijnsma 2017', 'Mount Desert', 'Maine', 'United States']",-68.250297,44.324868,https://www.flickr.com/photos/cerianthus/49304618983/
335,49305110701_43659940@N00_280a568ce3,49305110701,Cerianthus,280a568ce3,65535,66,20161014-IMG_0246-Pano,1,0,0,2016-10-14 13:15:42,"['New England', 'vakantie', 'Â© Gerard Wijnsma', 'Â© Gerard Wijnsma 2017', 'Mount Desert', 'Maine', 'United States']",-68.250277,44.323611,https://www.flickr.com/photos/cerianthus/49305110701/
336,49305108701_43659940@N00_55dd32e2c3,49305108701,Cerianthus,55dd32e2c3,65535,66,20161014-IMG_0201,1,0,0,2016-10-14 13:03:23,"['Jordan Pond', 'New England', 'vakantie', 'Â© Gerard Wijnsma', 'Â© Gerard Wijnsma 2017', 'Mount Desert', 'Maine', 'United States']",-68.25116,44.323014,https://www.flickr.com/photos/cerianthus/49305108701/
337,49305107971_43659940@N00_b53dcdc829,49305107971,Cerianthus,b53dcdc829,65535,66,20161014-IMG_0194-Pano,1,0,0,2016-10-14 12:56:30,"['New England', 'vakantie', 'Â© Gerard Wijnsma', 'Â© Gerard Wijnsma 2017', 'Mount Desert', 'Maine', 'United States']",-68.251666,44.322777,https://www.flickr.com/photos/cerianthus/49305107971/
338,49305317192_43659940@N00_fe5d18af81,49305317192,Cerianthus,fe5d18af81,65535,66,20161014-IMG_0185,1,0,0,2016-10-14 12:56:17,"['Jordan Pond', 'New England', 'vakantie', 'Â© Gerard Wijnsma', 'Â© Gerard Wijnsma 2017', 'Mount Desert', 'Maine', 'United States']",-68.251654,44.322644,https://www.flickr.com/photos/cerianthus/49305317192/
339,49305106281_43659940@N00_7bc6542bff,49305106281,Cerianthus,7bc6542bff,65535,66,20161014-IMG_0176,1,0,0,2016-10-14 12:10:04,"['New England', 'vakantie', 'Â© Gerard Wijnsma', 'Â© Gerard Wijnsma 2017', 'Mount Desert', 'Maine', 'United States']",-68.215324,44.297496,https://www.flickr.com/photos/cerianthus/49305106281/
340,49304610378_43659940@N00_fc9e8e0c12,49304610378,Cerianthus,fc9e8e0c12,65535,66,20161014-IMG_0111,1,0,0,2016-10-14 11:08:50,"['New England', 'vakantie', 'Â© Gerard Wijnsma', 'Â© Gerard Wijnsma 2017', 'Bar Harbor', 'Maine', 'United States']",-68.192549,44.307446,https://www.flickr.com/photos/cerianthus/49304610378/
341,49305312312_43659940@N00_28ebc4ea28,49305312312,Cerianthus,28ebc4ea28,65535,66,20161014-IMG_0104,1,0,0,2016-10-14 11:04:05,"['New England', 'vakantie', 'Â© Gerard Wijnsma', 'Â© Gerard Wijnsma 2017', 'Bar Harbor', 'Maine', 'United States']",-68.192391,44.307225,https://www.flickr.com/photos/cerianthus/49305312312/
