,Unnamed: 0,id,owner,secret,server,farm,title,ispublic,isfriend,isfamily,dateupload,ownername,iconserver,iconfarm,views,tags,originalsecret,originalformat,latitude,longitude,accuracy,context,place_id,woeid,geo_is_public,geo_is_contact,geo_is_friend,geo_is_family,machine_tags,in_park
0,0,50029056081,127410939@N04,6d1b9e590a,65535,66,"Sand Dunes, Colorado",1,0,0,1592739218,amithchatterjee1,65535,66,62,colorado greatsanddunes nationalpark rockies rockymountains,d5bcbb23d7,jpg,37.791201,-105.61240900000001,16,0,,5428393.0,1,0,0,0,,True
1,1,49922823167,68497070@N00,6aa420e517,65535,66,Layered Landscape,1,0,0,1590150067,Michael Dales,65535,66,556,mosca colorado unitedstates greatsanddunes nationalpark desert mountains,333094d310,jpg,37.716858,-105.525775,16,0,,5428393.0,1,0,0,0,,True
2,2,49861057568,50449338@N02,b7d152b485,65535,66,"Wind and Sand, Alamosa County, CO",1,0,0,1588735116,4 Corners Photo,7408,8,427,4cornersphoto alamosacounty colorado dunefield greatsanddunesnationalpark landscape mountains nature northamerica outdoor rural sanluisvalley sand sanddune sangredecristomountains sangredecristowilderness scenery shadow spring unitedstates weather wind mosca unitedstatesofamerica,,,37.740990999999994,-105.529592,16,0,,5428393.0,1,0,0,0,,True
3,3,49753991137,42181342@N04,e894ee23e4,65535,66,Great Sand Dunes National Park_82_85733.jpg,1,0,0,1586448641,Lee Hoy,7454,8,24,mosca colorado unitedstatesofamerica,b8bb11b284,jpg,37.744483,-105.507617,16,0,,5428393.0,1,0,0,0,,True
4,4,49748419671,127114259@N08,1fbe77b126,65535,66,Convergent Relief,1,0,0,1586319823,courtney_meier,65535,66,36905,colorado coloradorockies fall greatsanddunesnationalpark landscape nationalpark rockymountains sangredecristos southernrockies usnationalpark afternoon afternoonlight autumn cottonwoods dunes fallcolor mountains sand sanddunes shadows mosca unitedstatesofamerica,2fda9bb362,jpg,37.746091,-105.50967299999999,16,0,,5428393.0,1,0,0,0,,True
5,5,49725552288,155152466@N03,d92bda93de,65535,66,Great Sand Dunes Colorado,1,0,0,1585798814,wximagery,7828,8,1214,arid colorado daytime desert dry geology landscape minimalist monochrome nationalpark nature outdoor outdoors sand sanddune sun texture,,,37.753527000000005,-105.525075,16,0,,5428393.0,1,0,0,0,,True
6,6,49712161047,68497070@N00,df215f2327,65535,66,The early photographer gets the shot,1,0,0,1585483765,Michael Dales,65535,66,1120,greatsanddunes greatsanddunesnationalpark sand dunes photographer sky shadow light,b95a52fee6,jpg,37.735986,-105.5166,15,0,,5428393.0,1,0,0,0,,True
7,7,49708518273,68085076@N00,1a8d80ee85,65535,66,Sunset at the Great Sand Dunes,1,0,0,1585420799,chris lazzery,7415,8,624,greatsanddunesnationalpark colorado sunset mountains sanddunes alpenglow canon6d canonef24105mmf4l,,,37.74819,-105.52617,15,0,,5428393.0,1,0,0,0,,True
8,8,49706737643,68497070@N00,b9146cfb65,65535,66,Crossing,1,0,0,1585386034,Michael Dales,65535,66,1817,colorado road sands perspective distance crossing,149de19274,jpg,37.663108,-105.70198400000001,16,0,,5550375.0,1,0,0,0,,True
9,9,49633865323,127410939@N04,86060a09fa,65535,66,"Sand and snow, Great Sand Dunes, Colorado",1,0,0,1583671963,amithchatterjee1,65535,66,258,colorado rockies greatsanddunes sanddune nationalpark,0b2023730e,jpg,37.791201,-105.61240900000001,16,0,,5428393.0,1,0,0,0,,True
10,10,49557670138,167758463@N04,871e047230,65535,66,Chillaxing on the Dunes,1,0,0,1582144429,AnnesTravels6,65535,66,21,greatsanddunesnationalpark colorado sanddunes sangedecristomountains mountains hikers,b70cd11d50,jpg,37.743588,-105.52198600000001,15,0,,5428393.0,1,0,0,0,,True
11,11,49550831047,22403667@N05,c79646f0ba,65535,66,_DSC4386 (4) GSDNP,1,0,0,1581991317,Allen Woosley,3735,4,4770,great sandunes np colorado sand sagebrush,,,37.74605,-105.507295,16,0,,5428393.0,1,0,0,0,,True
12,12,49546475271,20950817@N06,23020fbf31,65535,66,Great Sand Dunes at Sunset,1,0,0,1581919376,Joy Forever,3702,4,299,greatsanddunes greatsanddunesnationalpark colorado sand sanddunes dunes blackwhite blackandwhite bw,,,37.741721000000005,-105.53018300000001,15,0,,5428393.0,1,0,0,0,,True
13,13,49504348893,7305851@N07,4a76a12d14,65535,66,Medano Creek,1,0,0,1581150041,Ian Aberle,65535,66,351,2017 2020 copyright©2020ianaberle greatsanddunesnationalparkandpreserve medanocreek nps sangredecristomountains sangredecristo creekbed mosca colorado unitedstates geo:city=mosca exif:model=canoneos7d exif:focallength=28mm camera:make=canon exif:lens=ef28135mmf3556isusm geo:country=unitedstates camera:model=canoneos7d geo:lon=10551583305556 geo:location=unnamedroad exif:isospeed=200 geo:lat=37743055277778 geo:state=colorado exif:aperture=ƒ16 exif:make=canon,,,37.743055,-105.515833,16,0,,5428393.0,1,0,0,0,,True
14,14,49406880052,127114259@N08,1f8a465655,65535,66,Crescendo over Dunes,1,0,0,1579403736,courtney_meier,65535,66,2227,colorado fall greatsanddunesnationalpark landscape nationalpark usnationalpark autumn cloud clouds dunes evening sand sanddunes shadows sky sunlight sunset twilight mosca unitedstates,d9a7579fd5,jpg,37.747952000000005,-105.513423,16,0,,5428393.0,1,0,0,0,,True
15,15,49364310841,18571547@N07,85706856f9,65535,66,2019 Colorado,1,0,0,1578699512,rhayward46,2634,3,26,red,f47754cd34,jpg,37.738847,-105.51411999999999,16,0,,5428393.0,1,0,0,0,,True
16,16,49317143006,39027998@N02,5287d2abf7,65535,66,You must do the things you think you cannot do...,1,0,0,1577987169,ferpectshotz,7427,8,1259,colorado greatsanddunesnationalpark sunset desert wind goldenhour colors sky dunescaling duneclimb hike salida southeasterncolorado,,,37.74285,-105.523192,16,0,,5428393.0,1,0,0,0,,True
17,17,49305712793,39027998@N02,82e7e3f94b,65535,66,Let us permit nature to have her way. She understands her business better than we do...,1,0,0,1577820337,ferpectshotz,7427,8,1543,greatsanddunesnationalpark colorado sunset desert wind goldenhour colors sky dunescaling duneclimb hike salida southeasterncolorado,,,37.742802000000005,-105.523234,16,0,,5428393.0,1,0,0,0,,True
18,18,49255879318,141802260@N05,b3050011ce,65535,66,Wisps of wind on a fading day,1,0,0,1576984024,asonyphotographer,65535,66,1988,crestone colorado unitedstatesofamerica wind sony sonyilca77m2 sonya7r3 greatsanddunesnationalpark sand sanddunes grass shadow black blue sky,517fe0f9d7,jpg,37.759005,-105.512409,16,0,,5428393.0,1,0,0,0,,True
19,19,49219477486,35702041@N00,88951a9b3f,65535,66,Dunes,1,0,0,1576361606,@Michael,872,1,269,colorado gear greatsanddunesnationalmonument motog places travel,99ba3a4ff6,jpg,37.746842,-105.51603899999999,16,0,,5428393.0,1,0,0,0,,True
20,20,49184426156,43005444@N04,61c56dc965,65535,66,"Great Sand Dunes National Park, Colorado",1,0,0,1575754199,Bob Patton,4247,5,369,colorado mosca unitedstatesofamerica sand dunes greatsanddunesnationalpark,,,37.740319,-105.51693700000001,16,0,,5428393.0,1,0,0,0,,True
21,21,49091154837,42181342@N04,a14f9f4a1e,65535,66,Great Sand Dunes National Park_80_85276-Edit.jpg,1,0,0,1574182837,Lee Hoy,7454,8,29,mosca colorado unitedstatesofamerica,02082cf50a,jpg,37.743277,-105.52146699999999,16,0,,5428393.0,1,0,0,0,,True
22,22,49080687858,141802260@N05,32d0c9568c,65535,66,The Decend -- The Path They Walked,1,0,0,1574027942,asonyphotographer,65535,66,3604,sony ilce7rm3 greatsanddunesnationalparkandpreserve colorado sanddunes sand dunes hiking blend sky shadow,71ea63ee56,jpg,37.762759,-105.508253,16,0,,5428393.0,1,0,0,0,,True
23,23,49066885306,17094005@N00,404ea9f928,65535,66,san luis valley evening,1,0,0,1573776504,Christian Collins,7404,8,1010,canoneos5dmarkiv ef24105mmf4lisusm sanluisvalley greatsanddunes nationalpark colorado us canon evening twilight storm snag deadtree scrub dunes mountains rocky sangredecristo,57cc1c2385,jpg,37.725809999999996,-105.519,16,0,,5428393.0,1,0,0,0,,True
24,24,49040098833,141802260@N05,209e3eec61,65535,66,Light on the Sinking Outhouse,1,0,0,1573349170,asonyphotographer,65535,66,2439,crestone colorado unitedstatesofamerica sand dunes national park great greatsanddunesnationalpark landscapephotography outdoors landscape fall hiking offroad nationalpark aspen sony ilce7rm3 7rm3,fd801624a8,jpg,37.794936,-105.50635,16,0,,5428393.0,1,0,0,0,,True
25,25,49034684481,99491151@N00,925ccd141e,65535,66,"Great Sand Dunes National Park and Preserve (Alamosa County, Colorado)",1,0,0,1573246743,courthouselover,7353,8,106,colorado co landscapes alamosacounty greatsanddunesnationalpark greatsanddunesnationalparkandpreserve nationalparks nationalparksystem sanluisvalley northamerica unitedstates us,,,37.73273,-105.512956,16,0,,5428393.0,1,0,0,0,,True
26,26,49034186218,99491151@N00,bd3961b25d,65535,66,"Great Sand Dunes National Park and Preserve Headquarters (Alamosa County, Colorado)",1,0,0,1573246744,courthouselover,7353,8,123,colorado co alamosacounty greatsanddunesnationalpark greatsanddunesnationalparkandpreserve nationalparks nationalparksystem sanluisvalley northamerica unitedstates us,,,37.73273,-105.512956,16,0,,5428393.0,1,0,0,0,,True
27,27,49034186033,99491151@N00,5b04c5a6be,65535,66,"Great Sand Dunes National Park and Preserve (Alamosa County, Colorado)",1,0,0,1573246745,courthouselover,7353,8,94,colorado co landscapes alamosacounty greatsanddunesnationalpark greatsanddunesnationalparkandpreserve nationalparks nationalparksystem sanluisvalley northamerica unitedstates us,,,37.73273,-105.512956,16,0,,5428393.0,1,0,0,0,,True
28,28,49034185708,99491151@N00,712083ddde,65535,66,"Great Sand Dunes National Park and Preserve (Alamosa County, Colorado)",1,0,0,1573246746,courthouselover,7353,8,93,colorado co landscapes alamosacounty greatsanddunesnationalpark greatsanddunesnationalparkandpreserve nationalparks nationalparksystem sanluisvalley northamerica unitedstates us,,,37.73273,-105.512956,16,0,,5428393.0,1,0,0,0,,True
29,29,49034683611,99491151@N00,9454d5ccd0,65535,66,"Great Sand Dunes National Park and Preserve (Alamosa County, Colorado)",1,0,0,1573246746,courthouselover,7353,8,96,colorado co landscapes alamosacounty greatsanddunesnationalpark greatsanddunesnationalparkandpreserve nationalparks nationalparksystem sanluisvalley northamerica unitedstates us,,,37.741183,-105.51780900000001,16,0,,5428393.0,1,0,0,0,,True
30,30,49034185318,99491151@N00,b84765a4fa,65535,66,"Great Sand Dunes National Park and Preserve (Alamosa County, Colorado)",1,0,0,1573246747,courthouselover,7353,8,94,colorado co landscapes alamosacounty greatsanddunesnationalpark greatsanddunesnationalparkandpreserve nationalparks nationalparksystem sanluisvalley northamerica unitedstates us,,,37.741183,-105.51780900000001,16,0,,5428393.0,1,0,0,0,,True
31,31,49034905897,99491151@N00,0ea190d08c,65535,66,"Great Sand Dunes National Park and Preserve (Alamosa County, Colorado)",1,0,0,1573246749,courthouselover,7353,8,113,colorado co landscapes alamosacounty greatsanddunesnationalpark greatsanddunesnationalparkandpreserve nationalparks nationalparksystem sanluisvalley northamerica unitedstates us,,,37.741183,-105.51780900000001,16,0,,5428393.0,1,0,0,0,,True
32,32,49034185033,99491151@N00,9e1f5c592a,65535,66,"Great Sand Dunes National Park and Preserve (Alamosa County, Colorado)",1,0,0,1573246748,courthouselover,7353,8,97,colorado co landscapes alamosacounty greatsanddunesnationalpark greatsanddunesnationalparkandpreserve nationalparks nationalparksystem sanluisvalley northamerica unitedstates us,,,37.741183,-105.51780900000001,16,0,,5428393.0,1,0,0,0,,True
33,33,48923716132,141802260@N05,7b17fc3d6e,65535,66,Colorado Fall Colors,1,0,0,1571491196,asonyphotographer,65535,66,3944,yellow green water stream colorado sand dune footprint trees mountain keen sony ilce7rm3 sky fall landscape sonyflickraward 7rm3,4a29573913,jpg,37.770205,-105.50707299999999,15,0,,5428393.0,1,0,0,0,,True
34,34,48914187601,22403667@N05,a093601b73,65535,66,_DSC4454 (2),1,0,0,1571326919,Allen Woosley,3735,4,153,great sand dunes national park south western colorado,,,37.744888,-105.50719199999999,16,0,,5428393.0,1,0,0,0,,True
35,35,48887806023,141802260@N05,d3f6ed3b5b,65535,66,Great Sand Dune Pano,1,0,0,1570931475,asonyphotographer,65535,66,3451,panorama sand dune great national park yellow mountain colorado sony ilce7rm3 fall blue brown 7rm3,5fd678dc37,jpg,37.720073,-105.523703,16,0,,5428393.0,1,0,0,0,,True
36,36,48878275381,141802260@N05,a5126afc32,65535,66,Great Sand Dune Grass,1,0,0,1570758924,asonyphotographer,65535,66,2887,sand grass ripple dune colorado tan brown blue sky sun shadow crest national white sony ilce7rm3 7rm3,cfc12ef3d7,jpg,37.762759,-105.508253,16,0,,5428393.0,1,0,0,0,,True
37,37,49773301391,68506538@N08,bf2db7f0d6,65535,66,Great Sand Dunes National Park,1,0,0,1586873113,apr34,8521,9,3,,,,37.73268,-105.512495,16,0,,5428393.0,1,0,0,0,,True
38,38,49773300841,68506538@N08,642df88205,65535,66,Great Sand Dunes National Park,1,0,0,1586873114,apr34,8521,9,3,,,,37.771361,-105.50719199999999,16,0,,5428393.0,1,0,0,0,,True
39,39,49772769738,68506538@N08,03078bd16d,65535,66,Great Sand Dunes National Park,1,0,0,1586873115,apr34,8521,9,3,,,,37.771691,-105.507189,16,0,,5428393.0,1,0,0,0,,True
40,40,49695408758,157654202@N06,a7f5e97cf0,65535,66,Great Sand Dunes,1,0,0,1585099694,Peter.R.Keller,7881,8,13,colorado unitedstatesofamerica states nationalparks mosca sand dunes great em1m2,,,37.718847,-105.524423,16,0,,5428393.0,1,0,0,0,,True
41,41,49695408338,157654202@N06,f30e7f0fd1,65535,66,Great Sand Dunes,1,0,0,1585099695,Peter.R.Keller,7881,8,13,colorado unitedstates mosca sand dunes great nationalparks em1m2,,,37.761505,-105.50981200000001,16,0,,5428393.0,1,0,0,0,,True
42,42,49696249547,157654202@N06,7f2dfb0fe2,65535,66,Great Sand Dunes,1,0,0,1585099695,Peter.R.Keller,7881,8,13,colorado unitedstates states mosca sand dunes great nationalparks em1m2,,,37.761505,-105.50981200000001,16,0,,5428393.0,1,0,0,0,,True
43,43,49696248862,157654202@N06,4d0ea69f25,65535,66,Great Sand Dunes,1,0,0,1585099696,Peter.R.Keller,7881,8,12,colorado states mosca unitedstates nationalparks great sand dunes em1m2,,,37.76455,-105.51335300000001,16,0,,5428393.0,1,0,0,0,,True
44,44,49558167186,167758463@N04,5c983300ee,65535,66,Views to the Northwest,1,0,0,1582144424,AnnesTravels6,65535,66,13,greatsanddunesnationalpark colorado sanddunes sangedecristomountains mountains,d0418e7869,jpg,37.750205,-105.532951,15,0,,5428393.0,1,0,0,0,,True
45,45,49558167151,167758463@N04,d22aedde05,65535,66,About to Head Down,1,0,0,1582144425,AnnesTravels6,65535,66,13,greatsanddunesnationalpark colorado sanddunes sangedecristomountains mountains,527bc97375,jpg,37.749016999999995,-105.53106299999999,15,0,,5428393.0,1,0,0,0,,True
46,46,49558402222,167758463@N04,b93a697df1,65535,66,Atop Star Dune,1,0,0,1582144426,AnnesTravels6,65535,66,12,greatsanddunesnationalpark colorado sanddunes hikers,19f5a6b33d,jpg,37.750408,-105.528016,15,0,,5428393.0,1,0,0,0,,True
47,47,49558402152,167758463@N04,53fa02da82,65535,66,Beginning Upward,1,0,0,1582144427,AnnesTravels6,65535,66,33,greatsanddunesnationalpark colorado sanddunes hikers,044072cc3f,jpg,37.743842,-105.52003300000001,15,0,,5428393.0,1,0,0,0,,True
48,48,49558167031,167758463@N04,e9a69393df,65535,66,California Peak and Twin Peaks from Star Dune,1,0,0,1582144428,AnnesTravels6,65535,66,19,greatsanddunesnationalpark colorado sanddunes sangedecristomountains mountains,880d2d37e5,jpg,37.749509,-105.532758,15,0,,5428393.0,1,0,0,0,,True
49,49,49558402067,167758463@N04,b0b67e408b,65535,66,California Peak,1,0,0,1582144428,AnnesTravels6,65535,66,16,greatsanddunesnationalpark colorado sanddunes sangedecristomountains mountains,131c827339,jpg,37.749016999999995,-105.53106299999999,15,0,,5428393.0,1,0,0,0,,True
50,50,49558166656,167758463@N04,3e273c16f0,65535,66,Cleveland Peak,1,0,0,1582144429,AnnesTravels6,65535,66,13,greatsanddunesnationalpark colorado sanddunes sangedecristomountains mountains,58aae605d1,jpg,37.75392,-105.53456000000001,15,0,,5428393.0,1,0,0,0,,True
51,51,49558401757,167758463@N04,21da7503ab,65535,66,Climbing the Ridgeline,1,0,0,1582144429,AnnesTravels6,65535,66,17,greatsanddunesnationalpark colorado sanddunes hikers,9b9aaf466b,jpg,37.744453,-105.52153500000001,15,0,,5428393.0,1,0,0,0,,True
52,52,49558401677,167758463@N04,ee4daf9a72,65535,66,Crossing the Dry Creek,1,0,0,1582144430,AnnesTravels6,65535,66,17,greatsanddunesnationalpark colorado sanddunes hikers,78ba84d748,jpg,37.739872,-105.518285,16,0,,5428393.0,1,0,0,0,,True
53,53,49558401587,167758463@N04,a7ec6f9c88,65535,66,Dancing Down the Dunes,1,0,0,1582144431,AnnesTravels6,65535,66,14,greatsanddunesnationalpark colorado sanddunes sangedecristomountains mountains jumping hikers,56b4af6702,jpg,37.745234,-105.52466799999999,15,0,,5428393.0,1,0,0,0,,True
54,54,49558166426,167758463@N04,df6690e19f,65535,66,Dunes after Sunrise,1,0,0,1582144432,AnnesTravels6,65535,66,14,greatsanddunesnationalpark colorado sanddunes,52d6ee0182,jpg,37.743588,-105.52198600000001,15,0,,5428393.0,1,0,0,0,,True
55,55,49558166326,167758463@N04,2e2ca0512f,65535,66,Jumping Down the Dunes,1,0,0,1582144433,AnnesTravels6,65535,66,19,greatsanddunesnationalpark colorado sanddunes jumping hikers,58d95315be,jpg,37.743588,-105.52198600000001,15,0,,5428393.0,1,0,0,0,,True
56,56,49558401487,167758463@N04,886c6dfbd0,65535,66,Jumping Down Star Dune,1,0,0,1582144432,AnnesTravels6,65535,66,19,greatsanddunesnationalpark colorado sanddunes hikingpoles jumping hikers,6a1a2f6a8a,jpg,37.746031,-105.52700700000001,15,0,,5428393.0,1,0,0,0,,True
57,57,49557669438,167758463@N04,a27d5b357e,65535,66,Looking Back at the Mountains,1,0,0,1582144434,AnnesTravels6,65535,66,14,greatsanddunesnationalpark colorado sanddunes sangedecristomountains mountains,0151ae95b1,jpg,37.741585,-105.52040900000001,16,0,,5428393.0,1,0,0,0,,True
58,58,49558166126,167758463@N04,e93a0206a5,65535,66,Almost at the Top,1,0,0,1582144426,AnnesTravels6,65535,66,16,greatsanddunesnationalpark colorado sanddunes hikers,b9e9ca792b,jpg,37.748983,-105.53196399999999,15,0,,5428393.0,1,0,0,0,,True
59,59,49558401202,167758463@N04,88da5ae2cb,65535,66,Early Morning Footprints,1,0,0,1582144432,AnnesTravels6,65535,66,15,greatsanddunesnationalpark colorado sanddunes sangedecristomountains mountains,2d7e205010,jpg,37.743062,-105.51983999999999,15,0,,5428393.0,1,0,0,0,,True
60,60,49558401157,167758463@N04,4c67cbd294,65535,66,Star Dune Trail Map,1,0,0,1582144434,AnnesTravels6,65535,66,14,greatsanddunesnationalpark colorado sanddunes map trailmap elevationprofile,1241fe8a0a,jpg,37.739643,-105.517362,16,0,,5428393.0,1,0,0,0,,True
61,61,49550100478,22403667@N05,b2aacdb1b7,65535,66,_DSC4399 (3) GSNP CO.,1,0,0,1581991317,Allen Woosley,3735,4,255,great sandunes np colorado sand sagebrush,,,37.746371999999994,-105.50835,16,0,,5428393.0,1,0,0,0,,True
62,62,49341848113,51010383@N06,4794248d98,65535,66,"Great Sand Dunes, Colorado",1,0,0,1578356882,Ron '53,65535,66,19,colorado dog greatsanddunes molly northamerica usa unitedstates,6c3c94af89,jpg,37.747222,-105.516667,16,0,,5428393.0,1,0,0,0,,True
63,63,49286340542,76882919@N07,8435ddfb6d,65535,66,Clouds,1,0,0,1577524076,WxTonyD,7364,8,8,,0510d942c6,jpg,37.74195,-105.518731,16,0,,5428393.0,1,0,0,0,,True
64,64,49278448981,42181342@N04,4b4873617f,65535,66,Great Sand Dunes National Park_82_85702-Pano.jpg,1,0,0,1577376060,Lee Hoy,7454,8,125,mosca colorado unitedstatesofamerica,c592b22087,jpg,37.744483,-105.507617,16,0,,5428393.0,1,0,0,0,,True
65,65,49233900793,22152932@N08,052000dc9c,65535,66,Color Spot,1,0,0,1576608389,atsubor,587,1,17,colorado usa sand greatsanddunes nationalpark me dunes,15855506ed,jpg,37.743094,-105.523103,16,0,,5428393.0,1,0,0,0,,True
66,66,49234364131,22152932@N08,e7749bcd2b,65535,66,Great Sand Dunes,1,0,0,1576608389,atsubor,587,1,14,colorado usa sand greatsanddunes nationalpark dunes,6a55a8ea29,jpg,37.754438,-105.49756699999999,16,0,,5428393.0,1,0,0,0,,True
67,67,49234591592,22152932@N08,2345718d9a,65535,66,Great Sand Dunes,1,0,0,1576608389,atsubor,587,1,14,colorado usa sand greatsanddunes nationalpark dunes,7a7a98c874,jpg,37.754438,-105.49756699999999,16,0,,5428393.0,1,0,0,0,,True
68,68,49234591522,22152932@N08,820f4a0399,65535,66,Dunes Overlook,1,0,0,1576608390,atsubor,587,1,21,colorado usa sand greatsanddunes nationalpark me dunes,9494093e0d,jpg,37.754438,-105.49756699999999,16,0,,5428393.0,1,0,0,0,,True
69,69,49234591472,22152932@N08,a3ec22e17e,65535,66,Late Dinner,1,0,0,1576608391,atsubor,587,1,25,colorado usa sand greatsanddunes nationalpark animals flowers,1da5b4039b,jpg,37.739344,-105.51756999999999,16,0,,5428393.0,1,0,0,0,,True
70,70,49234363816,22152932@N08,ca2a38868e,65535,66,Jumping in the Sand,1,0,0,1576608392,atsubor,587,1,27,colorado usa sand greatsanddunes nationalpark me dunes,554a35f234,jpg,37.743094,-105.523103,16,0,,5428393.0,1,0,0,0,,True
71,71,49204588416,22152932@N08,dcc50b6287,65535,66,Sand is everywhere,1,0,0,1576084801,atsubor,587,1,19,colorado usa greatsanddunes dunes me sand nationalpark,40d404e3b4,jpg,37.743094,-105.523103,16,0,,5428393.0,1,0,0,0,,True
72,72,49203850256,35702041@N00,dfb52e5a07,65535,66,Dunes,1,0,0,1576073909,@Michael,872,1,225,colorado gear greatsanddunesnationalmonument motog places travel,9397a09f2d,jpg,37.746006,-105.510273,16,0,,5428393.0,1,0,0,0,,True
73,73,49195093962,22152932@N08,f66d1aa1a1,65535,66,Sun Behind the Dunes,1,0,0,1575917698,atsubor,587,1,16,colorado park nationalpark greatsanddunes dunes sunset road clouds,c94c52208d,jpg,37.714771,-105.52721100000001,16,0,,5428393.0,1,0,0,0,,True
74,74,49190512921,185913327@N03,c64307d0ae,65535,66,IMG_3831[1],1,0,0,1575850429,kwerning,0,0,2,,528a233c5b,jpg,37.761333,-105.520523,16,0,,5428393.0,1,0,0,0,,True
75,75,49165401013,42181342@N04,176c843339,65535,66,Great Sand Dunes National Park_82_85725.jpg,1,0,0,1575415592,Lee Hoy,7454,8,114,mosca colorado unitedstatesofamerica,1d6f50fb2e,jpg,37.744483,-105.507617,16,0,,5428393.0,1,0,0,0,,True
76,76,49166106447,42181342@N04,bb68b00182,65535,66,Great Sand Dunes National Park_84_86033.jpg,1,0,0,1575415457,Lee Hoy,7454,8,104,mosca colorado unitedstatesofamerica,cd471f2022,jpg,37.732786,-105.51219499999999,16,0,,5428393.0,1,0,0,0,,True
77,77,49166105597,42181342@N04,a51cb0db16,65535,66,Great Sand Dunes National Park_84_85967.jpg,1,0,0,1575415442,Lee Hoy,7454,8,85,mosca colorado unitedstatesofamerica,ab28947615,jpg,37.73283,-105.51228400000001,16,0,,5428393.0,1,0,0,0,,True
78,78,49090461748,42181342@N04,115e0cbf24,65535,66,Great Sand Dunes National Park_81_85686.jpg,1,0,0,1574183110,Lee Hoy,7454,8,76,mosca colorado unitedstatesofamerica,407ce1c8af,jpg,37.742129999999996,-105.51940900000001,16,0,,5428393.0,1,0,0,0,,True
79,79,49091173437,42181342@N04,4b1d0d1dec,65535,66,Great Sand Dunes National Park_81_85652-Edit.jpg,1,0,0,1574183071,Lee Hoy,7454,8,65,mosca colorado unitedstatesofamerica,9d96e893cd,jpg,37.743619,-105.52171399999999,16,0,,5428393.0,1,0,0,0,,True
80,80,49090455398,42181342@N04,0971630bc8,65535,66,Great Sand Dunes National Park_81_85647.jpg,1,0,0,1574183035,Lee Hoy,7454,8,71,mosca colorado unitedstatesofamerica,1dbf9be204,jpg,37.743619,-105.52171399999999,16,0,,5428393.0,1,0,0,0,,True
81,81,49091168532,42181342@N04,4ff81f7630,65535,66,Great Sand Dunes National Park_80_85545.jpg,1,0,0,1574183011,Lee Hoy,7454,8,58,mosca colorado unitedstatesofamerica,cdbd19dc97,jpg,37.744927000000004,-105.522675,16,0,,5428393.0,1,0,0,0,,True
82,82,49090451023,42181342@N04,5b2c5ef57f,65535,66,Great Sand Dunes National Park_80_85419-Edit.jpg,1,0,0,1574182979,Lee Hoy,7454,8,27,mosca colorado unitedstatesofamerica,1d03a77fbb,jpg,37.745141,-105.52276200000001,16,0,,5428393.0,1,0,0,0,,True
83,83,49090449108,42181342@N04,dd8982114a,65535,66,Great Sand Dunes National Park_78_84084.jpg,1,0,0,1574182953,Lee Hoy,7454,8,27,mosca colorado unitedstatesofamerica,e54f5c8a41,jpg,37.745538,-105.522745,16,0,,5428393.0,1,0,0,0,,True
84,84,49090957691,42181342@N04,6fe26d667f,65535,66,Great Sand Dunes National Park_80_85375.jpg,1,0,0,1574182913,Lee Hoy,7454,8,27,mosca colorado unitedstatesofamerica,c3c24bddc2,jpg,37.744902,-105.52264199999999,16,0,,5428393.0,1,0,0,0,,True
85,85,49091159577,42181342@N04,54374cd74d,65535,66,Great Sand Dunes National Park_80_85348-Edit.jpg,1,0,0,1574182896,Lee Hoy,7454,8,28,mosca colorado unitedstatesofamerica,9e3a8dcb8b,jpg,37.744527000000005,-105.52266999999999,16,0,,5428393.0,1,0,0,0,,True
86,86,49090443323,42181342@N04,d787507b96,65535,66,Great Sand Dunes National Park_80_85346.jpg,1,0,0,1574182874,Lee Hoy,7454,8,25,mosca colorado unitedstatesofamerica,8b712d8492,jpg,37.744527000000005,-105.522673,16,0,,5428393.0,1,0,0,0,,True
87,87,49090953136,42181342@N04,9a0fc18c9c,65535,66,Great Sand Dunes National Park_80_85344-Edit.jpg,1,0,0,1574182856,Lee Hoy,7454,8,27,mosca colorado unitedstatesofamerica,ea31c25e7c,jpg,37.744527000000005,-105.522673,16,0,,5428393.0,1,0,0,0,,True
88,88,49090889752,42181342@N04,4ff0391b5e,65535,66,Great Sand Dunes National Park_80_85246-Edit.jpg,1,0,0,1574179490,Lee Hoy,7454,8,132,mosca colorado unitedstatesofamerica,74be8b2dfc,jpg,37.743190999999996,-105.52126200000001,16,0,,5428393.0,1,0,0,0,,True
89,89,49090684701,42181342@N04,5c30dc860c,65535,66,Great Sand Dunes National Park_80_85218-Edit.jpg,1,0,0,1574179462,Lee Hoy,7454,8,52,mosca colorado unitedstatesofamerica,293b2f339c,jpg,37.743069,-105.52099799999999,16,0,,5428393.0,1,0,0,0,,True
90,90,49090652581,42181342@N04,6efdcc2cbd,65535,66,Great Sand Dunes National Park_80_85207-Edit.jpg,1,0,0,1574179049,Lee Hoy,7454,8,57,mosca colorado unitedstatesofamerica,41234f70d0,jpg,37.743055,-105.520995,16,0,,5428393.0,1,0,0,0,,True
91,91,49090503631,42181342@N04,7db6f0bfce,65535,66,Great Sand Dunes National Park_80_85327-Edit.jpg,1,0,0,1574177251,Lee Hoy,7454,8,48,mosca colorado unitedstatesofamerica,e888d1dd7e,jpg,37.744344,-105.522345,16,0,,5428393.0,1,0,0,0,,True
92,92,49089989473,42181342@N04,e529393e8c,65535,66,Great Sand Dunes National Park_80_85310-Edit.jpg,1,0,0,1574177198,Lee Hoy,7454,8,43,mosca colorado unitedstatesofamerica,8ba5bc05cc,jpg,37.743891,-105.52202,16,0,,5428393.0,1,0,0,0,,True
93,93,49089984998,42181342@N04,effdc84b2f,65535,66,Great Sand Dunes National Park_80_85297.jpg,1,0,0,1574177139,Lee Hoy,7454,8,27,mosca colorado unitedstatesofamerica,9fd08fb45b,jpg,37.743683000000004,-105.52172,16,0,,5428393.0,1,0,0,0,,True
94,94,49090694977,42181342@N04,a9397246a4,65535,66,Great Sand Dunes National Park_80_85290.jpg,1,0,0,1574177088,Lee Hoy,7454,8,27,mosca colorado unitedstatesofamerica,702fe7893c,jpg,37.74365,-105.521681,16,0,,5428393.0,1,0,0,0,,True
95,95,49089977593,42181342@N04,b088e77634,65535,66,Great Sand Dunes National Park_78_84052-Edit.jpg,1,0,0,1574177037,Lee Hoy,7454,8,25,mosca colorado unitedstatesofamerica,7c2b6afa96,jpg,37.743619,-105.52171200000001,16,0,,5428393.0,1,0,0,0,,True
96,96,49090482961,42181342@N04,0010d7397e,65535,66,Great Sand Dunes National Park_80_85289-Edit.jpg,1,0,0,1574176988,Lee Hoy,7454,8,27,mosca colorado unitedstatesofamerica,18e0605ffd,jpg,37.743611,-105.521698,16,0,,5428393.0,1,0,0,0,,True
97,97,49090683287,42181342@N04,d3073634ac,65535,66,Great Sand Dunes National Park_80_85280-Edit.jpg,1,0,0,1574176943,Lee Hoy,7454,8,131,mosca colorado unitedstatesofamerica,410f93cc13,jpg,37.743261,-105.521498,16,0,,5428393.0,1,0,0,0,,True
98,98,49090478376,42181342@N04,5a8e66c66e,65535,66,Great Sand Dunes National Park_80_85249-Edit.jpg,1,0,0,1574176927,Lee Hoy,7454,8,83,mosca colorado unitedstatesofamerica,80965ff996,jpg,37.743194,-105.52126399999999,16,0,,5428393.0,1,0,0,0,,True
99,99,49089961233,42181342@N04,2e060b887b,65535,66,Great Sand Dunes National Park_80_85235-Edit.jpg,1,0,0,1574176858,Lee Hoy,7454,8,52,mosca colorado unitedstatesofamerica,a038156535,jpg,37.743186,-105.52122299999999,16,0,,5428393.0,1,0,0,0,,True
100,100,49089955893,42181342@N04,653365c47b,65535,66,Great Sand Dunes National Park_80_85226.jpg,1,0,0,1574176796,Lee Hoy,7454,8,42,mosca colorado unitedstatesofamerica,dd95325fb1,jpg,37.743111,-105.52103100000001,16,0,,5428393.0,1,0,0,0,,True
101,101,49090661622,42181342@N04,369a9c397e,65535,66,Great Sand Dunes National Park_80_85226-Edit.jpg,1,0,0,1574176684,Lee Hoy,7454,8,26,mosca colorado unitedstatesofamerica,22d2a865d3,jpg,37.743111,-105.52103100000001,16,0,,5428393.0,1,0,0,0,,True
102,102,49090656047,42181342@N04,cfe18c6d90,65535,66,Great Sand Dunes National Park_80_85211-Edit.jpg,1,0,0,1574176618,Lee Hoy,7454,8,25,mosca colorado unitedstatesofamerica,fac4ba7d7a,jpg,37.743063,-105.521,16,0,,5428393.0,1,0,0,0,,True
103,103,49089930683,42181342@N04,f44f86ecfc,65535,66,Great Sand Dunes National Park_80_85207.jpg,1,0,0,1574176501,Lee Hoy,7454,8,24,mosca colorado unitedstatesofamerica,1c7f69bb76,jpg,37.743055,-105.520995,16,0,,5428393.0,1,0,0,0,,True
104,104,49090429361,42181342@N04,ff86ba2625,65535,66,Great Sand Dunes National Park_80_85201-Edit.jpg,1,0,0,1574176365,Lee Hoy,7454,8,24,mosca colorado unitedstatesofamerica,bcc3971973,jpg,37.742955,-105.520823,16,0,,5428393.0,1,0,0,0,,True
105,105,49071655002,32368927@N02,980802c634,65535,66,The Photographer,1,0,0,1573864238,virtualwayfarer,5462,6,121,colorado unitedstatesofamerica crestone sand greatsanddunes sanddunes longlens dunesdune wild southwest nature landscape outdoors nationalpark desert aweinspiring protected naturephotography pristine americansouthwest greatoutdoors landscapephotography dramaticnature travel usa abstract beautiful beauty natural roadtrip natgeo singleexposure sonyalpha photographingamerica sonynordic a7riii sonyamericas rockies shadows scenic windy windswept continentaldivide coloradorockies travelphotographer alexberger,d018d96a45,jpg,37.760388,-105.514678,16,0,,5428393.0,1,0,0,0,,True
106,106,49070921038,32368927@N02,537e2fc9c4,65535,66,The Photographer,1,0,0,1573864239,virtualwayfarer,5462,6,120,colorado crestone unitedstatesofamerica greatsanddunes sanddunes longlens dunesdune wild nature landscape outdoors nationalpark sand desert aweinspiring protected naturephotography pristine greatoutdoors landscapephotography dramaticnature usa abstract southwest beautiful natural roadtrip natgeo americansouthwest singleexposure sonyalpha photographingamerica sonynordic a7riii sonyamericas travel beauty rockies shadows scenic windy windswept continentaldivide coloradorockies travelphotographer alexberger,4df9093864,jpg,37.760388,-105.514678,16,0,,5428393.0,1,0,0,0,,True
107,107,49071654642,32368927@N02,38973a41e8,65535,66,The Great Dunes of Colorado,1,0,0,1573864225,virtualwayfarer,5462,6,62,colorado unitedstatesofamerica crestone nature sand greatsanddunes sanddunes longlens greatoutdoors dunesdune wild southwest landscape outdoors nationalpark desert aweinspiring protected naturephotography pristine americansouthwest landscapephotography dramaticnature photographingamerica travel usa abstract beautiful beauty shadows natural scenic roadtrip windswept natgeo singleexposure sonyalpha sonynordic a7riii sonyamericas rockies windy continentaldivide coloradorockies travelphotographer alexberger,4e074b9a96,jpg,37.760388,-105.514678,16,0,,5428393.0,1,0,0,0,,True
108,108,49071654497,32368927@N02,7e266629cd,65535,66,Windswept,1,0,0,1573864239,virtualwayfarer,5462,6,132,colorado unitedstatesofamerica crestone nature sand greatsanddunes sanddunes longlens greatoutdoors dunesdune wild usa southwest landscape outdoors nationalpark desert aweinspiring protected naturephotography pristine americansouthwest landscapephotography dramaticnature photographingamerica travel abstract beautiful beauty shadows natural scenic roadtrip windswept natgeo singleexposure sonyalpha sonynordic a7riii sonyamericas rockies windy continentaldivide coloradorockies travelphotographer alexberger,f87e0f1a13,jpg,37.760388,-105.514678,16,0,,5428393.0,1,0,0,0,,True
109,109,49071448756,32368927@N02,8830d0d77a,65535,66,Windswept,1,0,0,1573864240,virtualwayfarer,5462,6,116,longlens colorado unitedstatesofamerica sanddunes greatsanddunes dunesdune sand nature greatoutdoors outdoors landscape landscapephotography naturephotography wild nationalpark desert pristine protected dramaticnature aweinspiring southwest americansouthwest photographingamerica usa roadtrip sonyalpha sonynordic sonyamericas a7riii singleexposure abstract natgeo natural beautiful beauty travel scenic shadows windswept windy coloradorockies rockies continentaldivide alexberger travelphotographer,9ff5b46a3a,jpg,37.745188,-105.52566399999999,16,0,,5428393.0,1,0,0,0,,True
110,110,49071654367,32368927@N02,959de4e660,65535,66,Sandswept,1,0,0,1573864221,virtualwayfarer,5462,6,108,colorado unitedstatesofamerica crestone nature sand greatsanddunes sanddunes longlens dunesdune wild southwest landscape outdoors nationalpark desert aweinspiring protected naturephotography pristine americansouthwest greatoutdoors landscapephotography dramaticnature photographingamerica travel usa abstract beautiful beauty shadows natural scenic roadtrip natgeo singleexposure sonyalpha sonynordic a7riii sonyamericas blackandwhite rockies windy windswept continentaldivide blackandwhitephotography coloradorockies travelphotographer alexberger,fe4f5ec045,jpg,37.760388,-105.514678,16,0,,5428393.0,1,0,0,0,,True
111,111,49070920538,32368927@N02,d4bf9a2e0e,65535,66,The Dunes - Colorado,1,0,0,1573864221,virtualwayfarer,5462,6,109,colorado unitedstatesofamerica crestone sand greatsanddunes sanddunes longlens dunesdune wild southwest nature landscape outdoors nationalpark desert aweinspiring protected naturephotography pristine greatoutdoors landscapephotography dramaticnature usa abstract beautiful beauty natural roadtrip natgeo americansouthwest singleexposure sonyalpha photographingamerica sonynordic a7riii sonyamericas travel blackandwhite rockies shadows scenic windy windswept continentaldivide blackandwhitephotography coloradorockies travelphotographer alexberger,49c430ef63,jpg,37.760388,-105.514678,16,0,,5428393.0,1,0,0,0,,True
112,112,49070919528,32368927@N02,668893ce85,65535,66,Colorado - The Dunes,1,0,0,1573864246,virtualwayfarer,5462,6,128,colorado unitedstatesofamerica crestone nature sand greatsanddunes sanddunes longlens dunesdune wild southwest landscape outdoors nationalpark desert aweinspiring protected naturephotography pristine americansouthwest greatoutdoors landscapephotography dramaticnature photographingamerica travel usa abstract beautiful beauty shadows natural scenic roadtrip natgeo singleexposure sonyalpha sonynordic a7riii sonyamericas rockies windy windswept continentaldivide coloradorockies travelphotographer alexberger,15e15d119e,jpg,37.760388,-105.514678,16,0,,5428393.0,1,0,0,0,,True
113,113,49071447616,32368927@N02,bd902d09c8,65535,66,The Great Dunes of Colorado,1,0,0,1573864222,virtualwayfarer,5462,6,113,colorado unitedstatesofamerica crestone nature sand greatsanddunes sanddunes longlens greatoutdoors dunesdune wild usa southwest landscape outdoors nationalpark desert aweinspiring protected naturephotography pristine americansouthwest landscapephotography dramaticnature photographingamerica travel abstract beautiful beauty shadows natural scenic roadtrip windswept natgeo singleexposure sonyalpha sonynordic a7riii sonyamericas blackandwhite rockies windy continentaldivide blackandwhitephotography coloradorockies travelphotographer alexberger,7f8c873c51,jpg,37.760388,-105.514678,16,0,,5428393.0,1,0,0,0,,True
114,114,49071653397,32368927@N02,7c1983c0d7,65535,66,Colorado - The Dunes,1,0,0,1573864246,virtualwayfarer,5462,6,121,crestone colorado unitedstatesofamerica longlens sanddunes greatsanddunes dunesdune sand nature greatoutdoors outdoors landscape landscapephotography naturephotography wild nationalpark desert pristine protected dramaticnature aweinspiring southwest americansouthwest photographingamerica usa roadtrip sonyalpha sonynordic sonyamericas a7riii singleexposure abstract natgeo natural beautiful beauty travel scenic shadows windswept windy coloradorockies rockies continentaldivide alexberger travelphotographer,dc877e763d,jpg,37.760388,-105.514678,16,0,,5428393.0,1,0,0,0,,True
115,115,49071447411,32368927@N02,2f1c3fac66,65535,66,Colorado - The Dunes,1,0,0,1573864247,virtualwayfarer,5462,6,118,crestone colorado unitedstatesofamerica longlens sanddunes greatsanddunes dunesdune sand nature greatoutdoors outdoors landscape landscapephotography naturephotography wild nationalpark desert pristine protected dramaticnature aweinspiring southwest americansouthwest photographingamerica usa roadtrip sonyalpha sonynordic sonyamericas a7riii singleexposure abstract natgeo natural beautiful beauty travel scenic shadows windswept windy coloradorockies rockies continentaldivide alexberger travelphotographer,4bafeb9a70,jpg,37.779385999999995,-105.514678,16,0,,5428393.0,1,0,0,0,,True
116,116,49071447356,32368927@N02,13c35393b6,65535,66,The Dunes - Colorado,1,0,0,1573864223,virtualwayfarer,5462,6,108,crestone colorado unitedstatesofamerica longlens sanddunes greatsanddunes dunesdune sand nature greatoutdoors outdoors landscape landscapephotography naturephotography wild nationalpark desert pristine protected dramaticnature aweinspiring southwest americansouthwest photographingamerica usa roadtrip sonyalpha sonynordic sonyamericas a7riii singleexposure abstract natgeo natural beautiful beauty travel scenic shadows windswept windy coloradorockies rockies continentaldivide alexberger travelphotographer blackandwhite blackandwhitephotography,25e7107070,jpg,37.779385999999995,-105.514678,16,0,,5428393.0,1,0,0,0,,True
117,117,49071447281,32368927@N02,006253e89b,65535,66,Colorado - The Dunes,1,0,0,1573864248,virtualwayfarer,5462,6,118,crestone colorado unitedstatesofamerica longlens sanddunes greatsanddunes dunesdune sand nature greatoutdoors outdoors landscape landscapephotography naturephotography wild nationalpark desert pristine protected dramaticnature aweinspiring southwest americansouthwest photographingamerica usa roadtrip sonyalpha sonynordic sonyamericas a7riii singleexposure abstract natgeo natural beautiful beauty travel scenic shadows windswept windy coloradorockies rockies continentaldivide alexberger travelphotographer,561879f4c3,jpg,37.779385999999995,-105.514678,16,0,,5428393.0,1,0,0,0,,True
118,118,49071447141,32368927@N02,d57c591707,65535,66,Details on the Dunes,1,0,0,1573864250,virtualwayfarer,5462,6,127,colorado unitedstatesofamerica crestone sand greatsanddunes sanddunes longlens dunesdune wild southwest nature landscape outdoors nationalpark desert aweinspiring protected naturephotography pristine greatoutdoors landscapephotography dramaticnature usa abstract beautiful beauty natural roadtrip natgeo americansouthwest singleexposure sonyalpha photographingamerica sonynordic a7riii sonyamericas travel rockies shadows scenic windy windswept continentaldivide coloradorockies travelphotographer alexberger,08084a725e,jpg,37.765816,-105.558623,16,0,,5428393.0,1,0,0,0,,True
119,119,49070918848,32368927@N02,4c809d0f16,65535,66,Details on the Dunes,1,0,0,1573864251,virtualwayfarer,5462,6,143,crestone colorado unitedstatesofamerica longlens sanddunes greatsanddunes dunesdune sand nature greatoutdoors outdoors landscape landscapephotography naturephotography wild nationalpark desert pristine protected dramaticnature aweinspiring southwest americansouthwest photographingamerica usa roadtrip sonyalpha sonynordic sonyamericas a7riii singleexposure abstract natgeo natural beautiful beauty travel scenic shadows windswept windy coloradorockies rockies continentaldivide alexberger travelphotographer,5b47545e25,jpg,37.765816,-105.558623,16,0,,5428393.0,1,0,0,0,,True
120,120,49071652522,32368927@N02,ef7c4c531f,65535,66,Details on the Dunes,1,0,0,1573864253,virtualwayfarer,5462,6,166,crestone colorado unitedstatesofamerica longlens sanddunes greatsanddunes dunesdune sand nature greatoutdoors outdoors landscape landscapephotography naturephotography wild nationalpark desert pristine protected dramaticnature aweinspiring southwest americansouthwest photographingamerica usa roadtrip sonyalpha sonynordic sonyamericas a7riii singleexposure abstract natgeo natural beautiful beauty travel scenic shadows windswept windy coloradorockies rockies continentaldivide alexberger travelphotographer,a8ab81d00f,jpg,37.760388,-105.514678,16,0,,5428393.0,1,0,0,0,,True
121,121,49070918348,32368927@N02,b4540fa03b,65535,66,Sandswept,1,0,0,1573864224,virtualwayfarer,5462,6,112,crestone colorado unitedstatesofamerica longlens sanddunes greatsanddunes dunesdune sand nature greatoutdoors outdoors landscape landscapephotography naturephotography wild nationalpark desert pristine protected dramaticnature aweinspiring southwest americansouthwest photographingamerica usa roadtrip sonyalpha sonynordic sonyamericas a7riii singleexposure abstract natgeo natural beautiful beauty travel scenic shadows windswept windy coloradorockies rockies continentaldivide alexberger travelphotographer blackandwhite blackandwhitephotography,656d1ba2dc,jpg,37.760388,-105.514678,16,0,,5428393.0,1,0,0,0,,True
122,122,49061281418,32368927@N02,5f3286ed9b,65535,66,Day's End - Sand Dunes at Sunset,1,0,0,1573685176,virtualwayfarer,5462,6,163,crestone colorado unitedstatesofamerica sanddunes greatsanddunes dunesdune sand nature greatoutdoors outdoors landscape landscapephotography naturephotography wild nationalpark desert pristine protected dramaticnature aweinspiring southwest americansouthwest photographingamerica usa roadtrip sonyalpha sonynordic sonyamericas a7riii singleexposure abstract longlens natgeo natural beautiful beauty travel scenic shadows windswept windy coloradorockies rockies continentaldivide alexberger travelphotographer sunset latelight dusk endofday,fcdeb260cc,jpg,37.76093,-105.535278,16,0,,5428393.0,1,0,0,0,,True
123,123,49062014597,32368927@N02,1be8464cd3,65535,66,Great Sand Dunes National Park - USA,1,0,0,1573685168,virtualwayfarer,5462,6,151,colorado unitedstatesofamerica crestone nature sand greatsanddunes sanddunes greatoutdoors dunesdune wild landscape outdoors nationalpark desert protected naturephotography pristine landscapephotography dramaticnature usa southwest roadtrip aweinspiring americansouthwest singleexposure sonyalpha photographingamerica sonynordic a7riii sonyamericas travel abstract beautiful beauty shadows natural scenic windy windswept natgeo longlens sunset rockies dusk continentaldivide latelight endofday coloradorockies travelphotographer alexberger,be4c5f37aa,jpg,37.76093,-105.535278,16,0,,5428393.0,1,0,0,0,,True
124,124,49061281218,32368927@N02,3342a49bfd,65535,66,Great Sand Dunes National Park - USA,1,0,0,1573685169,virtualwayfarer,5462,6,142,colorado unitedstatesofamerica crestone sand greatsanddunes sanddunes dunesdune wild nature landscape outdoors nationalpark desert protected naturephotography pristine greatoutdoors landscapephotography usa southwest roadtrip aweinspiring americansouthwest singleexposure sonyalpha dramaticnature photographingamerica sonynordic a7riii sonyamericas travel abstract beautiful beauty shadows natural scenic windswept natgeo longlens sunset rockies dusk windy continentaldivide latelight endofday coloradorockies travelphotographer alexberger,1d33bf12bf,jpg,37.76093,-105.535278,16,0,,5428393.0,1,0,0,0,,True
125,125,49061281073,32368927@N02,0f4369e481,65535,66,The Vista - Great Sand Dunes,1,0,0,1573685177,virtualwayfarer,5462,6,166,crestone colorado unitedstatesofamerica sanddunes greatsanddunes dunesdune sand nature greatoutdoors outdoors landscape landscapephotography naturephotography wild nationalpark desert pristine protected dramaticnature aweinspiring southwest americansouthwest photographingamerica usa roadtrip sonyalpha sonynordic sonyamericas a7riii singleexposure abstract longlens natgeo natural beautiful beauty travel scenic shadows windswept windy coloradorockies rockies continentaldivide alexberger travelphotographer sunset latelight dusk endofday,9afe8c1cb3,jpg,37.76093,-105.535278,16,0,,5428393.0,1,0,0,0,,True
126,126,49062014277,32368927@N02,e29febb980,65535,66,The Vista - Great Sand Dunes,1,0,0,1573685177,virtualwayfarer,5462,6,138,crestone colorado unitedstatesofamerica sanddunes greatsanddunes dunesdune sand nature greatoutdoors outdoors landscape landscapephotography naturephotography wild nationalpark desert pristine protected dramaticnature aweinspiring southwest americansouthwest photographingamerica usa roadtrip sonyalpha sonynordic sonyamericas a7riii singleexposure abstract longlens natgeo natural beautiful beauty travel scenic shadows windswept windy coloradorockies rockies continentaldivide alexberger travelphotographer sunset latelight dusk endofday,0cf987dde0,jpg,37.76093,-105.535278,16,0,,5428393.0,1,0,0,0,,True
127,127,49061280903,32368927@N02,8e703e5ae0,65535,66,Day's End - Sand Dunes at Sunset,1,0,0,1573685179,virtualwayfarer,5462,6,138,crestone colorado unitedstatesofamerica sanddunes greatsanddunes dunesdune sand nature greatoutdoors outdoors landscape landscapephotography naturephotography wild nationalpark desert pristine protected dramaticnature aweinspiring southwest americansouthwest photographingamerica usa roadtrip sonyalpha sonynordic sonyamericas a7riii singleexposure abstract longlens natgeo natural beautiful beauty travel scenic shadows windswept windy coloradorockies rockies continentaldivide alexberger travelphotographer sunset latelight dusk endofday,1d41b254ed,jpg,37.76093,-105.535278,16,0,,5428393.0,1,0,0,0,,True
128,128,49061280878,32368927@N02,54518d94fe,65535,66,Great Sand Dunes National Park - USA,1,0,0,1573685170,virtualwayfarer,5462,6,117,crestone colorado unitedstatesofamerica sanddunes greatsanddunes dunesdune sand nature greatoutdoors outdoors landscape landscapephotography naturephotography wild nationalpark desert pristine protected dramaticnature aweinspiring southwest americansouthwest photographingamerica usa roadtrip sonyalpha sonynordic sonyamericas a7riii singleexposure abstract longlens natgeo natural beautiful beauty travel scenic shadows windswept windy coloradorockies rockies continentaldivide alexberger travelphotographer sunset latelight dusk endofday,587cf7442a,jpg,37.76093,-105.535278,16,0,,5428393.0,1,0,0,0,,True
129,129,49062014012,32368927@N02,98350bccd0,65535,66,Day's End - Sand Dunes at Sunset,1,0,0,1573685179,virtualwayfarer,5462,6,136,crestone colorado unitedstatesofamerica sanddunes greatsanddunes dunesdune sand nature greatoutdoors outdoors landscape landscapephotography naturephotography wild nationalpark desert pristine protected dramaticnature aweinspiring southwest americansouthwest photographingamerica usa roadtrip sonyalpha sonynordic sonyamericas a7riii singleexposure abstract longlens natgeo natural beautiful beauty travel scenic shadows windswept windy coloradorockies rockies continentaldivide alexberger travelphotographer sunset latelight dusk endofday,c07b151337,jpg,37.76093,-105.535278,16,0,,5428393.0,1,0,0,0,,True
130,130,49062013952,32368927@N02,45c7410da2,65535,66,The Dunes,1,0,0,1573685180,virtualwayfarer,5462,6,157,crestone colorado unitedstatesofamerica sanddunes greatsanddunes dunesdune sand nature greatoutdoors outdoors landscape landscapephotography naturephotography wild nationalpark desert pristine protected dramaticnature aweinspiring southwest americansouthwest photographingamerica usa roadtrip sonyalpha sonynordic sonyamericas a7riii singleexposure abstract longlens natgeo natural beautiful beauty travel scenic shadows windswept windy coloradorockies rockies continentaldivide alexberger travelphotographer sunset latelight dusk endofday,44ebbc924b,jpg,37.76093,-105.535278,16,0,,5428393.0,1,0,0,0,,True
131,131,49061280593,32368927@N02,de9b306063,65535,66,Great Sand Dunes National Park - USA,1,0,0,1573685171,virtualwayfarer,5462,6,129,crestone colorado unitedstatesofamerica sanddunes greatsanddunes dunesdune sand nature greatoutdoors outdoors landscape landscapephotography naturephotography wild nationalpark desert pristine protected dramaticnature aweinspiring southwest americansouthwest photographingamerica usa roadtrip sonyalpha sonynordic sonyamericas a7riii singleexposure abstract longlens natgeo natural beautiful beauty travel scenic shadows windswept windy coloradorockies rockies continentaldivide alexberger travelphotographer sunset latelight dusk endofday,a984d1953e,jpg,37.76093,-105.535278,16,0,,5428393.0,1,0,0,0,,True
132,132,49061280513,32368927@N02,0980ff65cd,65535,66,Day's End - Sand Dunes at Sunset,1,0,0,1573685181,virtualwayfarer,5462,6,157,crestone colorado unitedstatesofamerica sanddunes greatsanddunes dunesdune sand nature greatoutdoors outdoors landscape landscapephotography naturephotography wild nationalpark desert pristine protected dramaticnature aweinspiring southwest americansouthwest photographingamerica usa roadtrip sonyalpha sonynordic sonyamericas a7riii singleexposure abstract longlens natgeo natural beautiful beauty travel scenic shadows windswept windy coloradorockies rockies continentaldivide alexberger travelphotographer sunset latelight dusk endofday,c35a07af0f,jpg,37.76093,-105.535278,16,0,,5428393.0,1,0,0,0,,True
133,133,49062013787,32368927@N02,5f547517f8,65535,66,Day's End - Sand Dunes at Sunset,1,0,0,1573685178,virtualwayfarer,5462,6,133,crestone colorado unitedstatesofamerica sanddunes greatsanddunes dunesdune sand nature greatoutdoors outdoors landscape landscapephotography naturephotography wild nationalpark desert pristine protected dramaticnature aweinspiring southwest americansouthwest photographingamerica usa roadtrip sonyalpha sonynordic sonyamericas a7riii singleexposure abstract longlens natgeo natural beautiful beauty travel scenic shadows windswept windy coloradorockies rockies continentaldivide alexberger travelphotographer sunset latelight dusk endofday,6847bb2ecc,jpg,37.76093,-105.535278,16,0,,5428393.0,1,0,0,0,,True
134,134,49061280373,32368927@N02,8ce82ea571,65535,66,Great Sand Dunes National Park - USA,1,0,0,1573685172,virtualwayfarer,5462,6,113,crestone colorado unitedstatesofamerica sanddunes greatsanddunes dunesdune sand nature greatoutdoors outdoors landscape landscapephotography naturephotography wild nationalpark desert pristine protected dramaticnature aweinspiring southwest americansouthwest photographingamerica usa roadtrip sonyalpha sonynordic sonyamericas a7riii singleexposure abstract longlens natgeo natural beautiful beauty travel scenic shadows windswept windy coloradorockies rockies continentaldivide alexberger travelphotographer sunset latelight dusk endofday,420b9f7cb7,jpg,37.76093,-105.535278,16,0,,5428393.0,1,0,0,0,,True
135,135,49061790661,32368927@N02,a5d8d54589,65535,66,Great Sand Dunes National Park - USA,1,0,0,1573685171,virtualwayfarer,5462,6,107,crestone colorado unitedstatesofamerica sanddunes greatsanddunes dunesdune sand nature greatoutdoors outdoors landscape landscapephotography naturephotography wild nationalpark desert pristine protected dramaticnature aweinspiring southwest americansouthwest photographingamerica usa roadtrip sonyalpha sonynordic sonyamericas a7riii singleexposure abstract longlens natgeo natural beautiful beauty travel scenic shadows windswept windy coloradorockies rockies continentaldivide alexberger travelphotographer sunset latelight dusk endofday,d9d41f90b8,jpg,37.76093,-105.535278,16,0,,5428393.0,1,0,0,0,,True
136,136,49062013442,32368927@N02,a65e6cfe4e,65535,66,Day's End - Sand Dunes at Sunset,1,0,0,1573685181,virtualwayfarer,5462,6,131,crestone colorado unitedstatesofamerica sanddunes greatsanddunes dunesdune sand nature greatoutdoors outdoors landscape landscapephotography naturephotography wild nationalpark desert pristine protected dramaticnature aweinspiring southwest americansouthwest photographingamerica usa roadtrip sonyalpha sonynordic sonyamericas a7riii singleexposure abstract longlens natgeo natural beautiful beauty travel scenic shadows windswept windy coloradorockies rockies continentaldivide alexberger travelphotographer sunset latelight dusk endofday,282fc9bb03,jpg,37.76093,-105.535278,16,0,,5428393.0,1,0,0,0,,True
137,137,49061790356,32368927@N02,da3443f92b,65535,66,Great Sand Dunes National Park - USA,1,0,0,1573685172,virtualwayfarer,5462,6,119,crestone colorado unitedstatesofamerica sanddunes greatsanddunes dunesdune sand nature greatoutdoors outdoors landscape landscapephotography naturephotography wild nationalpark desert pristine protected dramaticnature aweinspiring southwest americansouthwest photographingamerica usa roadtrip sonyalpha sonynordic sonyamericas a7riii singleexposure abstract longlens natgeo natural beautiful beauty travel scenic shadows windswept windy coloradorockies rockies continentaldivide alexberger travelphotographer sunset latelight dusk endofday,8968baf1fb,jpg,37.76093,-105.535278,16,0,,5428393.0,1,0,0,0,,True
138,138,49061790251,32368927@N02,16bd7ff0ce,65535,66,Great Sand Dunes National Park - USA,1,0,0,1573685173,virtualwayfarer,5462,6,114,colorado unitedstatesofamerica crestone nature sand greatsanddunes sanddunes dunesdune wild landscape outdoors nationalpark desert protected naturephotography pristine greatoutdoors landscapephotography dramaticnature usa southwest roadtrip aweinspiring americansouthwest singleexposure sonyalpha photographingamerica sonynordic a7riii sonyamericas travel abstract beautiful beauty shadows natural scenic windswept natgeo longlens sunset rockies dusk windy continentaldivide latelight endofday coloradorockies travelphotographer alexberger,be5a61f515,jpg,37.76093,-105.535278,16,0,,5428393.0,1,0,0,0,,True
139,139,49062013082,32368927@N02,033e2ae7d7,65535,66,Day's End - Sand Dunes at Sunset,1,0,0,1573685183,virtualwayfarer,5462,6,146,crestone colorado unitedstatesofamerica sanddunes greatsanddunes dunesdune sand nature greatoutdoors outdoors landscape landscapephotography naturephotography wild nationalpark desert pristine protected dramaticnature aweinspiring southwest americansouthwest photographingamerica usa roadtrip sonyalpha sonynordic sonyamericas a7riii singleexposure abstract longlens natgeo natural beautiful beauty travel scenic shadows windswept windy coloradorockies rockies continentaldivide alexberger travelphotographer sunset latelight dusk endofday,96ef6d86c5,jpg,37.76093,-105.535278,16,0,,5428393.0,1,0,0,0,,True
140,140,49061279918,32368927@N02,ce881b76dd,65535,66,Great Sand Dunes National Park - USA,1,0,0,1573685174,virtualwayfarer,5462,6,120,crestone colorado unitedstatesofamerica sanddunes greatsanddunes dunesdune sand nature greatoutdoors outdoors landscape landscapephotography naturephotography wild nationalpark desert pristine protected dramaticnature aweinspiring southwest americansouthwest photographingamerica usa roadtrip sonyalpha sonynordic sonyamericas a7riii singleexposure abstract longlens natgeo natural beautiful beauty travel scenic shadows windswept windy coloradorockies rockies continentaldivide alexberger travelphotographer sunset latelight dusk endofday,2517044702,jpg,37.76093,-105.535278,16,0,,5428393.0,1,0,0,0,,True
141,141,49061789861,32368927@N02,49abc4aaf4,65535,66,Day's End - Sand Dunes at Sunset,1,0,0,1573685184,virtualwayfarer,5462,6,129,crestone colorado unitedstatesofamerica sanddunes greatsanddunes dunesdune sand nature greatoutdoors outdoors landscape landscapephotography naturephotography wild nationalpark desert pristine protected dramaticnature aweinspiring southwest americansouthwest photographingamerica usa roadtrip sonyalpha sonynordic sonyamericas a7riii singleexposure abstract longlens natgeo natural beautiful beauty travel scenic shadows windswept windy coloradorockies rockies continentaldivide alexberger travelphotographer sunset latelight dusk endofday,d21bd4bdc2,jpg,37.76093,-105.535278,16,0,,5428393.0,1,0,0,0,,True
142,142,49061789721,32368927@N02,8d42176b46,65535,66,Great Sand Dunes National Park - USA,1,0,0,1573685174,virtualwayfarer,5462,6,114,crestone colorado unitedstatesofamerica sanddunes greatsanddunes dunesdune sand nature greatoutdoors outdoors landscape landscapephotography naturephotography wild nationalpark desert pristine protected dramaticnature aweinspiring southwest americansouthwest photographingamerica usa roadtrip sonyalpha sonynordic sonyamericas a7riii singleexposure abstract longlens natgeo natural beautiful beauty travel scenic shadows windswept windy coloradorockies rockies continentaldivide alexberger travelphotographer sunset latelight dusk endofday,521eb8d541,jpg,37.76093,-105.535278,16,0,,5428393.0,1,0,0,0,,True
143,143,49062012772,32368927@N02,eba779e85e,65535,66,Contrasts - Dunes - Colorado,1,0,0,1573685184,virtualwayfarer,5462,6,134,crestone colorado unitedstatesofamerica sanddunes greatsanddunes dunesdune sand nature greatoutdoors outdoors landscape landscapephotography naturephotography wild nationalpark desert pristine protected dramaticnature aweinspiring southwest americansouthwest photographingamerica usa roadtrip sonyalpha sonynordic sonyamericas a7riii singleexposure abstract longlens natgeo natural beautiful beauty travel scenic shadows windswept windy coloradorockies rockies continentaldivide alexberger travelphotographer sunset latelight dusk endofday,c72536913e,jpg,37.76093,-105.535278,16,0,,5428393.0,1,0,0,0,,True
144,144,49061279563,32368927@N02,f7051031c5,65535,66,Day's End - Sand Dunes at Sunset,1,0,0,1573685185,virtualwayfarer,5462,6,138,crestone colorado unitedstatesofamerica sanddunes greatsanddunes dunesdune sand nature greatoutdoors outdoors landscape landscapephotography naturephotography wild nationalpark desert pristine protected dramaticnature aweinspiring southwest americansouthwest photographingamerica usa roadtrip sonyalpha sonynordic sonyamericas a7riii singleexposure abstract longlens natgeo natural beautiful beauty travel scenic shadows windswept windy coloradorockies rockies continentaldivide alexberger travelphotographer sunset latelight dusk endofday,dbd0eedf90,jpg,37.76093,-105.535278,16,0,,5428393.0,1,0,0,0,,True
145,145,49061279508,32368927@N02,6feb40a61d,65535,66,Contrasts - Dunes - Colorado,1,0,0,1573685186,virtualwayfarer,5462,6,218,crestone colorado unitedstatesofamerica sanddunes greatsanddunes dunesdune sand nature greatoutdoors outdoors landscape landscapephotography naturephotography wild nationalpark desert pristine protected dramaticnature aweinspiring southwest americansouthwest photographingamerica usa roadtrip sonyalpha sonynordic sonyamericas a7riii singleexposure abstract longlens natgeo natural beautiful beauty travel scenic shadows windswept windy coloradorockies rockies continentaldivide alexberger travelphotographer sunset latelight dusk endofday,2d4fd3eedf,jpg,37.76093,-105.535278,16,0,,5428393.0,1,0,0,0,,True
146,146,49061279398,32368927@N02,4aa84fe937,65535,66,Humble Humans,1,0,0,1573685187,virtualwayfarer,5462,6,203,crestone colorado unitedstatesofamerica sanddunes greatsanddunes dunesdune sand nature greatoutdoors outdoors landscape landscapephotography naturephotography wild nationalpark desert pristine protected dramaticnature aweinspiring southwest americansouthwest photographingamerica usa roadtrip sonyalpha sonynordic sonyamericas a7riii singleexposure abstract longlens natgeo natural beautiful beauty travel scenic shadows windswept windy coloradorockies rockies continentaldivide alexberger travelphotographer sunset latelight dusk endofday,4743a4a586,jpg,37.76093,-105.535278,16,0,,5428393.0,1,0,0,0,,True
147,147,49061789326,32368927@N02,5cd9c67b06,65535,66,Great Sand Dunes National Park - USA,1,0,0,1573685175,virtualwayfarer,5462,6,106,crestone colorado unitedstatesofamerica sanddunes greatsanddunes dunesdune sand nature greatoutdoors outdoors landscape landscapephotography naturephotography wild nationalpark desert pristine protected dramaticnature aweinspiring southwest americansouthwest photographingamerica usa roadtrip sonyalpha sonynordic sonyamericas a7riii singleexposure abstract longlens natgeo natural beautiful beauty travel scenic shadows windswept windy coloradorockies rockies continentaldivide alexberger travelphotographer sunset latelight dusk endofday,49cbce4e3e,jpg,37.76093,-105.535278,16,0,,5428393.0,1,0,0,0,,True
148,148,49062012252,32368927@N02,ba0a85f658,65535,66,Day's End - Sand Dunes at Sunset,1,0,0,1573685181,virtualwayfarer,5462,6,141,crestone colorado unitedstatesofamerica sanddunes greatsanddunes dunesdune sand nature greatoutdoors outdoors landscape landscapephotography naturephotography wild nationalpark desert pristine protected dramaticnature aweinspiring southwest americansouthwest photographingamerica usa roadtrip sonyalpha sonynordic sonyamericas a7riii singleexposure abstract longlens natgeo natural beautiful beauty travel scenic shadows windswept windy coloradorockies rockies continentaldivide alexberger travelphotographer sunset latelight dusk endofday,cac3277a1e,jpg,37.76093,-105.535278,16,0,,5428393.0,1,0,0,0,,True
149,149,49061279018,32368927@N02,f07c07f51a,65535,66,Day's End - Sand Dunes at Sunset,1,0,0,1573685188,virtualwayfarer,5462,6,184,crestone colorado unitedstatesofamerica sanddunes greatsanddunes dunesdune sand nature greatoutdoors outdoors landscape landscapephotography naturephotography wild nationalpark desert pristine protected dramaticnature aweinspiring southwest americansouthwest photographingamerica usa roadtrip sonyalpha sonynordic sonyamericas a7riii singleexposure abstract longlens natgeo natural beautiful beauty travel scenic shadows windswept windy coloradorockies rockies continentaldivide alexberger travelphotographer sunset latelight dusk endofday,1acc177b1c,jpg,37.76093,-105.535278,16,0,,5428393.0,1,0,0,0,,True
150,150,49051169436,32368927@N02,27aa2783fc,65535,66,Sensual Dunes - Great Sand Dunes,1,0,0,1573507651,virtualwayfarer,5462,6,151,crestone colorado unitedstatesofamerica sanddunes greatsanddunes dunes dune sand nature greatoutdoors outdoors landscape landscapephotography naturephotography wild nationalpark desert pristine protected dramaticnature aweinspiring southwest americansouthwest photographingamerica usa roadtrip sonyalpha sonynordic sonyamericas a7riii singleexposure abstract longlens natgeo natural beautiful beauty travel scenic shadows windswept windy coloradorockies rockies continentaldivide alexberger travelphotographer sunset latelight dusk endofday,31aa26cd80,jpg,37.760388,-105.514678,16,0,,5428393.0,1,0,0,0,,True
151,151,49051169116,32368927@N02,94aa306be6,65535,66,The Great Sand Sea,1,0,0,1573507659,virtualwayfarer,5462,6,144,crestone colorado unitedstatesofamerica sanddunes greatsanddunes dunes dune sand nature greatoutdoors outdoors landscape landscapephotography naturephotography wild nationalpark desert pristine protected dramaticnature aweinspiring southwest americansouthwest photographingamerica usa roadtrip sonyalpha sonynordic sonyamericas a7riii singleexposure abstract longlens natgeo natural beautiful beauty travel scenic shadows windswept windy coloradorockies rockies continentaldivide alexberger travelphotographer sunset latelight dusk endofday,4d7fc3c965,jpg,37.760388,-105.514678,16,0,,5428393.0,1,0,0,0,,True
152,152,49051382152,32368927@N02,6a6ccfaa66,65535,66,Sensual Dunes - Great Sand Dunes,1,0,0,1573507642,virtualwayfarer,5462,6,143,crestone colorado unitedstatesofamerica sanddunes greatsanddunes dunes dune sand nature greatoutdoors outdoors landscape landscapephotography naturephotography wild nationalpark desert pristine protected dramaticnature aweinspiring southwest americansouthwest photographingamerica usa roadtrip sonyalpha sonynordic sonyamericas a7riii singleexposure abstract longlens natgeo natural beautiful beauty travel scenic shadows windswept windy coloradorockies rockies continentaldivide alexberger travelphotographer sunset latelight dusk endofday blackandwhite blackandwhitephotography,bc47d74449,jpg,37.760388,-105.514678,16,0,,5428393.0,1,0,0,0,,True
153,153,49051382022,32368927@N02,d1f3375352,65535,66,The Great Dunes at Sunset,1,0,0,1573507646,virtualwayfarer,5462,6,150,crestone colorado unitedstatesofamerica sanddunes greatsanddunes dunes dune sand nature greatoutdoors outdoors landscape landscapephotography naturephotography wild nationalpark desert pristine protected dramaticnature aweinspiring southwest americansouthwest photographingamerica usa roadtrip sonyalpha sonynordic sonyamericas a7riii singleexposure abstract longlens natgeo natural beautiful beauty travel scenic shadows windswept windy coloradorockies rockies continentaldivide alexberger travelphotographer sunset latelight dusk endofday,4136e05e38,jpg,37.760388,-105.514678,16,0,,5428393.0,1,0,0,0,,True
154,154,49050662218,32368927@N02,6e2afa43f2,65535,66,Golden Lines,1,0,0,1573507648,virtualwayfarer,5462,6,162,crestone colorado unitedstatesofamerica sanddunes greatsanddunes dunes dune sand nature greatoutdoors outdoors landscape landscapephotography naturephotography wild nationalpark desert pristine protected dramaticnature aweinspiring southwest americansouthwest photographingamerica usa roadtrip sonyalpha sonynordic sonyamericas a7riii singleexposure abstract longlens natgeo natural beautiful beauty travel scenic shadows windswept windy coloradorockies rockies continentaldivide alexberger travelphotographer sunset latelight dusk endofday,246d36f9a7,jpg,37.760388,-105.514678,16,0,,5428393.0,1,0,0,0,,True
155,155,49051168381,32368927@N02,3c4eb54c30,65535,66,The Perfect Sunset View,1,0,0,1573507649,virtualwayfarer,5462,6,165,crestone colorado unitedstatesofamerica sanddunes greatsanddunes dunes dune sand nature greatoutdoors outdoors landscape landscapephotography naturephotography wild nationalpark desert pristine protected dramaticnature aweinspiring southwest americansouthwest photographingamerica usa roadtrip sonyalpha sonynordic sonyamericas a7riii singleexposure abstract longlens natgeo natural beautiful beauty travel scenic shadows windswept windy coloradorockies rockies continentaldivide alexberger travelphotographer sunset latelight dusk endofday,7f57b50a8c,jpg,37.760388,-105.514678,16,0,,5428393.0,1,0,0,0,,True
156,156,49051168206,32368927@N02,3ceab5975f,65535,66,The Great Dunes at Sunset,1,0,0,1573507650,virtualwayfarer,5462,6,134,crestone colorado unitedstatesofamerica sanddunes greatsanddunes dunes dune sand nature greatoutdoors outdoors landscape landscapephotography naturephotography wild nationalpark desert pristine protected dramaticnature aweinspiring southwest americansouthwest photographingamerica usa roadtrip sonyalpha sonynordic sonyamericas a7riii singleexposure abstract longlens natgeo natural beautiful beauty travel scenic shadows windswept windy coloradorockies rockies continentaldivide alexberger travelphotographer sunset latelight dusk endofday,fcff708acc,jpg,37.760388,-105.514678,16,0,,5428393.0,1,0,0,0,,True
157,157,49051381182,32368927@N02,657ddd432b,65535,66,Sensual Dunes - Great Sand Dunes,1,0,0,1573507643,virtualwayfarer,5462,6,136,crestone colorado unitedstatesofamerica sanddunes greatsanddunes dunes dune sand nature greatoutdoors outdoors landscape landscapephotography naturephotography wild nationalpark desert pristine protected dramaticnature aweinspiring southwest americansouthwest photographingamerica usa roadtrip sonyalpha sonynordic sonyamericas a7riii singleexposure abstract longlens natgeo natural beautiful beauty travel scenic shadows windswept windy coloradorockies rockies continentaldivide alexberger travelphotographer sunset latelight dusk endofday blackandwhite blackandwhitephotography,e9f4f5a58c,jpg,37.760388,-105.514678,16,0,,5428393.0,1,0,0,0,,True
158,158,49051381067,32368927@N02,404f14314c,65535,66,The Great Dunes at Sunset,1,0,0,1573507650,virtualwayfarer,5462,6,133,crestone colorado unitedstatesofamerica sanddunes greatsanddunes dunes dune sand nature greatoutdoors outdoors landscape landscapephotography naturephotography wild nationalpark desert pristine protected dramaticnature aweinspiring southwest americansouthwest photographingamerica usa roadtrip sonyalpha sonynordic sonyamericas a7riii singleexposure abstract longlens natgeo natural beautiful beauty travel scenic shadows windswept windy coloradorockies rockies continentaldivide alexberger travelphotographer sunset latelight dusk endofday,e25a3e0e2e,jpg,37.760388,-105.514678,16,0,,5428393.0,1,0,0,0,,True
159,159,49050661408,32368927@N02,a5b84280db,65535,66,The Great Dunes at Sunset,1,0,0,1573507644,virtualwayfarer,5462,6,120,crestone colorado unitedstatesofamerica sanddunes greatsanddunes dunes dune sand nature greatoutdoors outdoors landscape landscapephotography naturephotography wild nationalpark desert pristine protected dramaticnature aweinspiring southwest americansouthwest photographingamerica usa roadtrip sonyalpha sonynordic sonyamericas a7riii singleexposure abstract longlens natgeo natural beautiful beauty travel scenic shadows windswept windy coloradorockies rockies continentaldivide alexberger travelphotographer sunset latelight dusk endofday blackandwhite blackandwhitephotography,5977f41514,jpg,37.760388,-105.514678,16,0,,5428393.0,1,0,0,0,,True
160,160,49051167626,32368927@N02,e2b33fc978,65535,66,The Great Sand Sea,1,0,0,1573507662,virtualwayfarer,5462,6,151,crestone colorado unitedstatesofamerica sanddunes greatsanddunes dunes dune sand nature greatoutdoors outdoors landscape landscapephotography naturephotography wild nationalpark desert pristine protected dramaticnature aweinspiring southwest americansouthwest photographingamerica usa roadtrip sonyalpha sonynordic sonyamericas a7riii singleexposure abstract longlens natgeo natural beautiful beauty travel scenic shadows windswept windy coloradorockies rockies continentaldivide alexberger travelphotographer sunset latelight dusk endofday,55f568556b,jpg,37.760388,-105.514678,16,0,,5428393.0,1,0,0,0,,True
161,161,49051167541,32368927@N02,7b5b1b2923,65535,66,The Great Dunes at Sunset,1,0,0,1573507663,virtualwayfarer,5462,6,175,colorado unitedstatesofamerica crestone wild nature landscape outdoors nationalpark sand desert dunes dune greatsanddunes sanddunes naturephotography greatoutdoors landscapephotography usa southwest roadtrip aweinspiring protected pristine americansouthwest sonyalpha dramaticnature photographingamerica sonynordic a7riii sonyamericas travel abstract beautiful beauty shadows natural scenic windy windswept natgeo coloradorockies longlens singleexposure sunset rockies dusk continentaldivide latelight endofday travelphotographer alexberger,07275363f5,jpg,37.760388,-105.514678,16,0,,5428393.0,1,0,0,0,,True
162,162,49050660938,32368927@N02,925a2d2b2f,65535,66,The Great Dunes at Sunset,1,0,0,1573507653,virtualwayfarer,5462,6,126,crestone colorado unitedstatesofamerica sanddunes greatsanddunes dunes dune sand nature greatoutdoors outdoors landscape landscapephotography naturephotography wild nationalpark desert pristine protected dramaticnature aweinspiring southwest americansouthwest photographingamerica usa roadtrip sonyalpha sonynordic sonyamericas a7riii singleexposure abstract longlens natgeo natural beautiful beauty travel scenic shadows windswept windy coloradorockies rockies continentaldivide alexberger travelphotographer sunset latelight dusk endofday,89b09a9a14,jpg,37.760388,-105.514678,16,0,,5428393.0,1,0,0,0,,True
163,163,49050660903,32368927@N02,5e688bd8f7,65535,66,The Great Sand Sea,1,0,0,1573507654,virtualwayfarer,5462,6,134,crestone colorado unitedstatesofamerica sanddunes greatsanddunes dunes dune sand nature greatoutdoors outdoors landscape landscapephotography naturephotography wild nationalpark desert pristine protected dramaticnature aweinspiring southwest americansouthwest photographingamerica usa roadtrip sonyalpha sonynordic sonyamericas a7riii singleexposure abstract longlens natgeo natural beautiful beauty travel scenic shadows windswept windy coloradorockies rockies continentaldivide alexberger travelphotographer sunset latelight dusk endofday,f07e7fdae3,jpg,37.760388,-105.514678,16,0,,5428393.0,1,0,0,0,,True
164,164,49051167041,32368927@N02,83fb056926,65535,66,The Great Dunes at Sunset,1,0,0,1573507645,virtualwayfarer,5462,6,125,crestone colorado unitedstatesofamerica sanddunes greatsanddunes dunes dune sand nature greatoutdoors outdoors landscape landscapephotography naturephotography wild nationalpark desert pristine protected dramaticnature aweinspiring southwest americansouthwest photographingamerica usa roadtrip sonyalpha sonynordic sonyamericas a7riii singleexposure abstract longlens natgeo natural beautiful beauty travel scenic shadows windswept windy coloradorockies rockies continentaldivide alexberger travelphotographer sunset latelight dusk endofday blackandwhite blackandwhitephotography,06bac9985a,jpg,37.760388,-105.514678,16,0,,5428393.0,1,0,0,0,,True
165,165,49050660438,32368927@N02,84b484b515,65535,66,The Great Dunes at Sunset,1,0,0,1573507657,virtualwayfarer,5462,6,128,crestone colorado unitedstatesofamerica sanddunes greatsanddunes dunes dune sand nature greatoutdoors outdoors landscape landscapephotography naturephotography wild nationalpark desert pristine protected dramaticnature aweinspiring southwest americansouthwest photographingamerica usa roadtrip sonyalpha sonynordic sonyamericas a7riii singleexposure abstract longlens natgeo natural beautiful beauty travel scenic shadows windswept windy coloradorockies rockies continentaldivide alexberger travelphotographer sunset latelight dusk endofday,a69a7afd6f,jpg,37.760388,-105.514678,16,0,,5428393.0,1,0,0,0,,True
166,166,49051166676,32368927@N02,92410df127,65535,66,Contrasts - Great Sand Dunes National Park,1,0,0,1573507656,virtualwayfarer,5462,6,138,crestone colorado unitedstatesofamerica sanddunes greatsanddunes dunes dune sand nature greatoutdoors outdoors landscape landscapephotography naturephotography wild nationalpark desert pristine protected dramaticnature aweinspiring southwest americansouthwest photographingamerica usa roadtrip sonyalpha sonynordic sonyamericas a7riii singleexposure abstract longlens natgeo natural beautiful beauty travel scenic shadows windswept windy coloradorockies rockies continentaldivide alexberger travelphotographer sunset latelight dusk endofday,2fceb13ab5,jpg,37.760388,-105.514678,16,0,,5428393.0,1,0,0,0,,True
167,167,49050659908,32368927@N02,618d36394e,65535,66,The Great Sand Sea,1,0,0,1573507646,virtualwayfarer,5462,6,123,colorado unitedstatesofamerica crestone wild nature landscape outdoors nationalpark sand desert dunes dune greatsanddunes sanddunes naturephotography greatoutdoors landscapephotography usa southwest roadtrip aweinspiring protected pristine americansouthwest sonyalpha dramaticnature photographingamerica sonynordic a7riii sonyamericas travel abstract beautiful beauty shadows natural scenic windy windswept natgeo coloradorockies longlens singleexposure sunset blackandwhite rockies dusk continentaldivide blackandwhitephotography latelight endofday travelphotographer alexberger,b082b961ef,jpg,37.760388,-105.514678,16,0,,5428393.0,1,0,0,0,,True
168,168,49051379072,32368927@N02,1b535fb0a7,65535,66,The Great Dunes at Sunset,1,0,0,1573507660,virtualwayfarer,5462,6,130,crestone colorado unitedstatesofamerica sanddunes greatsanddunes dunes dune sand nature greatoutdoors outdoors landscape landscapephotography naturephotography wild nationalpark desert pristine protected dramaticnature aweinspiring southwest americansouthwest photographingamerica usa roadtrip sonyalpha sonynordic sonyamericas a7riii singleexposure abstract longlens natgeo natural beautiful beauty travel scenic shadows windswept windy coloradorockies rockies continentaldivide alexberger travelphotographer sunset latelight dusk endofday lastlight,5b3ecf5a31,jpg,37.760388,-105.514678,16,0,,5428393.0,1,0,0,0,,True
169,169,49051378987,32368927@N02,d72fdd4d2a,65535,66,The Great Dunes at Sunset,1,0,0,1573507661,virtualwayfarer,5462,6,127,crestone colorado unitedstatesofamerica sanddunes greatsanddunes dunes dune sand nature greatoutdoors outdoors landscape landscapephotography naturephotography wild nationalpark desert pristine protected dramaticnature aweinspiring southwest americansouthwest photographingamerica usa roadtrip sonyalpha sonynordic sonyamericas a7riii singleexposure abstract longlens natgeo natural beautiful beauty travel scenic shadows windswept windy coloradorockies rockies continentaldivide alexberger travelphotographer sunset latelight dusk endofday lastlight,b15e6017b2,jpg,37.760388,-105.514678,16,0,,5428393.0,1,0,0,0,,True
170,170,49050659438,32368927@N02,37c2ea0b2d,65535,66,Sensual Dunes - Great Sand Dunes,1,0,0,1573507664,virtualwayfarer,5462,6,238,crestone colorado unitedstatesofamerica sanddunes greatsanddunes dunes dune sand nature greatoutdoors outdoors landscape landscapephotography naturephotography wild nationalpark desert pristine protected dramaticnature aweinspiring southwest americansouthwest photographingamerica usa roadtrip sonyalpha sonynordic sonyamericas a7riii singleexposure abstract longlens natgeo natural beautiful beauty travel scenic shadows windswept windy coloradorockies rockies continentaldivide alexberger travelphotographer sunset latelight dusk endofday lastlight bluehour,d42c6e9cbf,jpg,37.760388,-105.514678,16,0,,5428393.0,1,0,0,0,,True
171,171,49051378687,32368927@N02,35b9163254,65535,66,The Great Sand Sea,1,0,0,1573507664,virtualwayfarer,5462,6,229,crestone colorado unitedstatesofamerica sanddunes greatsanddunes dunes dune sand nature greatoutdoors outdoors landscape landscapephotography naturephotography wild nationalpark desert pristine protected dramaticnature aweinspiring southwest americansouthwest photographingamerica usa roadtrip sonyalpha sonynordic sonyamericas a7riii singleexposure abstract longlens natgeo natural beautiful beauty travel scenic shadows windswept windy coloradorockies rockies continentaldivide alexberger travelphotographer sunset latelight dusk endofday lastlight bluehour,8db0c2806d,jpg,37.760388,-105.514678,16,0,,5428393.0,1,0,0,0,,True
172,172,49051378432,32368927@N02,f7280305be,65535,66,The Great Dunes at Sunset,1,0,0,1573507658,virtualwayfarer,5462,6,127,colorado unitedstatesofamerica crestone wild nature landscape outdoors nationalpark sand desert dunes dune greatsanddunes sanddunes naturephotography greatoutdoors landscapephotography usa southwest roadtrip aweinspiring protected pristine americansouthwest sonyalpha dramaticnature photographingamerica sonynordic a7riii sonyamericas travel abstract beautiful beauty shadows natural scenic windy windswept natgeo longlens singleexposure sunset rockies dusk continentaldivide lastlight latelight endofday coloradorockies travelphotographer alexberger,682c3d5c69,jpg,37.760388,-105.514678,16,0,,5428393.0,1,0,0,0,,True
173,173,49051165536,32368927@N02,37cedc259b,65535,66,The Great Dunes at Sunset,1,0,0,1573507659,virtualwayfarer,5462,6,129,colorado unitedstatesofamerica crestone wild nature landscape outdoors nationalpark sand desert dunes dune greatsanddunes sanddunes naturephotography greatoutdoors landscapephotography usa southwest roadtrip aweinspiring protected pristine americansouthwest sonyalpha dramaticnature photographingamerica sonynordic a7riii sonyamericas travel abstract beautiful beauty shadows natural scenic windy windswept natgeo coloradorockies longlens singleexposure sunset rockies dusk continentaldivide lastlight latelight endofday travelphotographer alexberger,067f32c589,jpg,37.760388,-105.514678,16,0,,5428393.0,1,0,0,0,,True
174,174,49051165416,32368927@N02,8dbd8b43e7,65535,66,Golden Lines,1,0,0,1573507647,virtualwayfarer,5462,6,135,crestone colorado unitedstatesofamerica sanddunes greatsanddunes dunes dune sand nature greatoutdoors outdoors landscape landscapephotography naturephotography wild nationalpark desert pristine protected dramaticnature aweinspiring southwest americansouthwest photographingamerica usa roadtrip sonyalpha sonynordic sonyamericas a7riii singleexposure abstract longlens natgeo natural beautiful beauty travel scenic shadows windswept windy coloradorockies rockies continentaldivide alexberger travelphotographer sunset latelight dusk endofday,bd8880dd8e,jpg,37.760388,-105.514678,16,0,,5428393.0,1,0,0,0,,True
175,175,49050658808,32368927@N02,b4713197e9,65535,66,Sensual Dunes - Great Sand Dunes,1,0,0,1573507645,virtualwayfarer,5462,6,121,crestone colorado unitedstatesofamerica sanddunes greatsanddunes dunes dune sand nature greatoutdoors outdoors landscape landscapephotography naturephotography wild nationalpark desert pristine protected dramaticnature aweinspiring southwest americansouthwest photographingamerica usa roadtrip sonyalpha sonynordic sonyamericas a7riii singleexposure abstract longlens natgeo natural beautiful beauty travel scenic shadows windswept windy coloradorockies rockies continentaldivide alexberger travelphotographer sunset latelight dusk endofday blackandwhite blackandwhitephotography,774a165076,jpg,37.760388,-105.514678,16,0,,5428393.0,1,0,0,0,,True
176,176,49051378032,32368927@N02,240246424a,65535,66,The Great Sand Sea,1,0,0,1573507659,virtualwayfarer,5462,6,156,crestone colorado unitedstatesofamerica sanddunes greatsanddunes dunes dune sand nature greatoutdoors outdoors landscape landscapephotography naturephotography wild nationalpark desert pristine protected dramaticnature aweinspiring southwest americansouthwest photographingamerica usa roadtrip sonyalpha sonynordic sonyamericas a7riii singleexposure abstract longlens natgeo natural beautiful beauty travel scenic shadows windswept windy coloradorockies rockies continentaldivide alexberger travelphotographer sunset latelight dusk endofday lastlight,bb5e95e5ed,jpg,37.760388,-105.514678,16,0,,5428393.0,1,0,0,0,,True
177,177,49050211087,66784023@N04,6531f549e8,65535,66,2019 Sand Dunes - 19,1,0,0,1573494108,VKesse,5706,6,7,greatsanddunesnationalpark colorado,,,37.742222,-105.51888899999999,16,0,,5428393.0,1,0,0,0,,True
178,178,49050149357,66784023@N04,60f0e812e4,65535,66,2019 Sand Dunes - 02,1,0,0,1573494114,VKesse,5706,6,2,greatsanddunesnationalpark colorado landscape panorama,,,37.732777,-105.5125,16,0,,5428393.0,1,0,0,0,,True
179,179,49049935801,66784023@N04,3d5aff3dcf,65535,66,2019 Sand Dunes - 05,1,0,0,1573494113,VKesse,5706,6,2,greatsanddunesnationalpark colorado landscape panorama,,,37.740277,-105.51694499999999,16,0,,5428393.0,1,0,0,0,,True
180,180,49049431278,66784023@N04,4e74cfe0cd,65535,66,2019 Sand Dunes - 14,1,0,0,1573494111,VKesse,5706,6,2,greatsanddunesnationalpark colorado landscape panorama,,,37.750833,-105.504723,16,0,,5428393.0,1,0,0,0,,True
181,181,49049430013,66784023@N04,bd2ceca20e,65535,66,2019 Sand Dunes - 16,1,0,0,1573494110,VKesse,5706,6,2,greatsanddunesnationalpark colorado landscape panorama,,,37.750277000000004,-105.504723,16,0,,5428393.0,1,0,0,0,,True
182,182,49050142252,66784023@N04,f64437b2c9,65535,66,2019 Sand Dunes - 01,1,0,0,1573494115,VKesse,5706,6,2,greatsanddunesnationalpark colorado landscape,,,37.732777,-105.5125,16,0,,5428393.0,1,0,0,0,,True
183,183,49049929956,66784023@N04,02e8352623,65535,66,2019 Sand Dunes - 03,1,0,0,1573494114,VKesse,5706,6,3,greatsanddunesnationalpark colorado medanocreek landscape,,,37.740277,-105.51694499999999,16,0,,5428393.0,1,0,0,0,,True
184,184,49050140647,66784023@N04,57afc12d28,65535,66,2019 Sand Dunes - 04,1,0,0,1573494113,VKesse,5706,6,3,greatsanddunesnationalpark colorado landscape,,,37.742222,-105.51888899999999,16,0,,5428393.0,1,0,0,0,,True
185,185,49049425478,66784023@N04,07bc895cd5,65535,66,2019 Sand Dunes - 06,1,0,0,1573494113,VKesse,5706,6,2,greatsanddunesnationalpark colorado landscape,,,37.742222,-105.51888899999999,16,0,,5428393.0,1,0,0,0,,True
186,186,49049424978,66784023@N04,3b19a12acb,65535,66,2019 Sand Dunes - 07,1,0,0,1573494113,VKesse,5706,6,3,greatsanddunesnationalpark colorado medanocreek landscape,,,37.740277,-105.51694499999999,16,0,,5428393.0,1,0,0,0,,True
187,187,49049927276,66784023@N04,35e47a057a,65535,66,2019 Sand Dunes - 08,1,0,0,1573494112,VKesse,5706,6,5,greatsanddunesnationalpark colorado landscape,,,37.742222,-105.51888899999999,16,0,,5428393.0,1,0,0,0,,True
188,188,49049423663,66784023@N04,7409f8354d,65535,66,2019 Sand Dunes - 09,1,0,0,1573494112,VKesse,5706,6,2,greatsanddunesnationalpark colorado landscape,,,37.742222,-105.51888899999999,16,0,,5428393.0,1,0,0,0,,True
189,189,49049926086,66784023@N04,0c9e7ed537,65535,66,2019 Sand Dunes - 10,1,0,0,1573494111,VKesse,5706,6,2,greatsanddunesnationalpark colorado landscape,,,37.750833,-105.504723,16,0,,5428393.0,1,0,0,0,,True
190,190,49049925611,66784023@N04,357eb26f37,65535,66,2019 Sand Dunes - 11,1,0,0,1573494111,VKesse,5706,6,2,greatsanddunesnationalpark colorado landscape,,,37.750833,-105.504723,16,0,,5428393.0,1,0,0,0,,True
191,191,49049924631,66784023@N04,60edcca5ee,65535,66,2019 Sand Dunes - 12,1,0,0,1573494111,VKesse,5706,6,3,greatsanddunesnationalpark colorado,,,37.750833,-105.504723,16,0,,5428393.0,1,0,0,0,,True
192,192,49049923886,66784023@N04,66352881e5,65535,66,2019 Sand Dunes - 13,1,0,0,1573494111,VKesse,5706,6,2,greatsanddunesnationalpark colorado landscape,,,37.750833,-105.504723,16,0,,5428393.0,1,0,0,0,,True
193,193,49050134112,66784023@N04,3fd2031efd,65535,66,2019 Sand Dunes - 15,1,0,0,1573494110,VKesse,5706,6,28,greatsanddunesnationalpark colorado landscape,,,37.750833,-105.504723,16,0,,5428393.0,1,0,0,0,,True
194,194,49049922176,66784023@N04,3f984b56a6,65535,66,2019 Sand Dunes - 18,1,0,0,1573494109,VKesse,5706,6,2,greatsanddunesnationalpark colorado landscape,,,37.750833,-105.504723,16,0,,5428393.0,1,0,0,0,,True
195,195,49034682951,99491151@N00,7003ce0b4e,65535,66,"Great Sand Dunes National Park and Preserve (Alamosa County, Colorado)",1,0,0,1573246748,courthouselover,7353,8,100,colorado co landscapes alamosacounty greatsanddunesnationalpark greatsanddunesnationalparkandpreserve nationalparks nationalparksystem sanluisvalley northamerica unitedstates us,,,37.741183,-105.51780900000001,16,0,,5428393.0,1,0,0,0,,True
196,196,49034682831,99491151@N00,79f6a4e7cd,65535,66,"Great Sand Dunes National Park and Preserve (Alamosa County, Colorado)",1,0,0,1573246749,courthouselover,7353,8,99,colorado co landscapes alamosacounty greatsanddunesnationalpark greatsanddunesnationalparkandpreserve nationalparks nationalparksystem sanluisvalley northamerica unitedstates us,,,37.741183,-105.51780900000001,16,0,,5428393.0,1,0,0,0,,True
197,197,48930964757,90463382@N04,f46df3d901,65535,66,IMG_2277,1,0,0,1571593358,Timberline Adventures,4499,5,21,,f8a7f27fe1,jpg,37.733313,-105.505395,16,0,,5428393.0,1,0,0,0,,True
198,198,48930779031,90463382@N04,f0aa3aa21a,65535,66,IMG_2278,1,0,0,1571593359,Timberline Adventures,4499,5,21,,bbc3bd1902,jpg,37.732413,-105.50145900000001,16,0,,5428393.0,1,0,0,0,,True
199,199,48930963937,90463382@N04,dd90817356,65535,66,IMG_2279,1,0,0,1571593359,Timberline Adventures,4499,5,22,,8b950d7c9d,jpg,37.732372,-105.499848,16,0,,5428393.0,1,0,0,0,,True
200,200,48930778426,90463382@N04,3f04fd9431,65535,66,IMG_2280,1,0,0,1571593360,Timberline Adventures,4499,5,21,,7eefc00563,jpg,37.732215999999994,-105.49845900000001,16,0,,5428393.0,1,0,0,0,,True
201,201,48930963217,90463382@N04,6221027217,65535,66,IMG_2281,1,0,0,1571593360,Timberline Adventures,4499,5,21,,5a573028e9,jpg,37.73243,-105.497445,16,0,,5428393.0,1,0,0,0,,True
202,202,48930237308,90463382@N04,cdfb34378e,65535,66,IMG_2282,1,0,0,1571593361,Timberline Adventures,4499,5,21,,54e98f898b,jpg,37.732402,-105.496445,16,0,,5428393.0,1,0,0,0,,True
203,203,48930777406,90463382@N04,62b6a487c7,65535,66,IMG_2283,1,0,0,1571593361,Timberline Adventures,4499,5,21,,6430c2764c,jpg,37.732413,-105.49640600000001,16,0,,5428393.0,1,0,0,0,,True
204,204,48930236558,90463382@N04,774324fba8,65535,66,IMG_2284,1,0,0,1571593362,Timberline Adventures,4499,5,35,,f9a7f7a8ae,jpg,37.731583,-105.491317,16,0,,5416657.0,1,0,0,0,,True
205,205,48930776766,90463382@N04,5c62895b0c,65535,66,IMG_2285,1,0,0,1571593362,Timberline Adventures,4499,5,21,,0c1a930f30,jpg,37.73148,-105.491395,16,0,,5416657.0,1,0,0,0,,True
206,206,48930235798,90463382@N04,bb70493341,65535,66,IMG_2286,1,0,0,1571593363,Timberline Adventures,4499,5,21,,b581106072,jpg,37.731341,-105.482253,16,0,,5416657.0,1,0,0,0,,True
207,207,48930960897,90463382@N04,2fda69b823,65535,66,IMG_2287,1,0,0,1571593363,Timberline Adventures,4499,5,21,,03183e6e8d,jpg,37.730655,-105.468873,16,0,,5416657.0,1,0,0,0,,True
208,208,48930960462,90463382@N04,79f2591c7b,65535,66,IMG_2288,1,0,0,1571593364,Timberline Adventures,4499,5,23,,c9698cba19,jpg,37.730655,-105.468873,16,0,,5416657.0,1,0,0,0,,True
209,209,48930960102,90463382@N04,4c022650ef,65535,66,IMG_2289,1,0,0,1571593365,Timberline Adventures,4499,5,24,,e558e13487,jpg,37.732963,-105.45465,16,0,,5416657.0,1,0,0,0,,True
210,210,48930959852,90463382@N04,0153ccc94a,65535,66,IMG_2290,1,0,0,1571593366,Timberline Adventures,4499,5,23,,270dcc032b,jpg,37.729069,-105.45913700000001,16,0,,5416657.0,1,0,0,0,,True
211,211,48930233978,90463382@N04,05ac5dbf74,65535,66,IMG_2291,1,0,0,1571593367,Timberline Adventures,4499,5,24,,d59bfaa49b,jpg,37.7291,-105.459223,16,0,,5416657.0,1,0,0,0,,True
212,212,48930958867,90463382@N04,bebbdb37d1,65535,66,IMG_2292,1,0,0,1571593367,Timberline Adventures,4499,5,24,,b51bddacdf,jpg,37.729141,-105.45919199999999,16,0,,5416657.0,1,0,0,0,,True
213,213,48930233163,90463382@N04,ee79c6be97,65535,66,IMG_2293,1,0,0,1571593368,Timberline Adventures,4499,5,23,,a33b6077c5,jpg,37.729175,-105.45913700000001,16,0,,5416657.0,1,0,0,0,,True
214,214,48930232598,90463382@N04,ec6721c14e,65535,66,IMG_2294,1,0,0,1571593369,Timberline Adventures,4499,5,24,,59b4e1ac18,jpg,37.730769,-105.49028100000001,16,0,,5416657.0,1,0,0,0,,True
215,215,48930772766,90463382@N04,abb7c7bc41,65535,66,IMG_2295,1,0,0,1571593369,Timberline Adventures,4499,5,23,,8c42f0e4a5,jpg,37.732375,-105.496453,16,0,,5428393.0,1,0,0,0,,True
216,216,48930231928,90463382@N04,49007d47f9,65535,66,IMG_2296,1,0,0,1571593370,Timberline Adventures,4499,5,23,,2a2e87289c,jpg,37.73238,-105.496453,16,0,,5428393.0,1,0,0,0,,True
217,217,48930957032,90463382@N04,59a8e6201a,65535,66,IMG_2297,1,0,0,1571593370,Timberline Adventures,4499,5,24,,dca4de6d95,jpg,37.733988000000004,-105.507423,16,0,,5428393.0,1,0,0,0,,True
221,221,48930230718,90463382@N04,aaf097cfc8,65535,66,IMG_2303,1,0,0,1571593374,Timberline Adventures,4499,5,25,,996698d64c,jpg,37.742827,-105.52093700000002,16,0,,5428393.0,1,0,0,0,,True
222,222,48930230523,90463382@N04,ecace00901,65535,66,IMG_2305,1,0,0,1571593375,Timberline Adventures,4499,5,24,,e0f601de26,jpg,37.742863,-105.520889,16,0,,5428393.0,1,0,0,0,,True
223,223,48930770751,90463382@N04,87ae6d991b,65535,66,IMG_2306,1,0,0,1571593375,Timberline Adventures,4499,5,38,,81322ba749,jpg,37.742869,-105.520889,16,0,,5428393.0,1,0,0,0,,True
224,224,48930770551,90463382@N04,21c32ed37e,65535,66,IMG_2308,1,0,0,1571593376,Timberline Adventures,4499,5,26,,ec0b61675e,jpg,37.744827,-105.522628,16,0,,5428393.0,1,0,0,0,,True
225,225,48930230063,90463382@N04,66629c8776,65535,66,IMG_2309,1,0,0,1571593377,Timberline Adventures,4499,5,25,,8bd1323651,jpg,37.748877,-105.530984,16,0,,5428393.0,1,0,0,0,,True
226,226,48930770216,90463382@N04,3833acaf70,65535,66,IMG_2312,1,0,0,1571593377,Timberline Adventures,4499,5,24,,44441e16a5,jpg,37.749527,-105.532867,16,0,,5428393.0,1,0,0,0,,True
227,227,48930770051,90463382@N04,2827d26fa8,65535,66,IMG_2316,1,0,0,1571593378,Timberline Adventures,4499,5,24,,12c7785b5d,jpg,37.7481,-105.53031200000001,16,0,,5428393.0,1,0,0,0,,True
228,228,48930954842,90463382@N04,848291913b,65535,66,IMG_2317,1,0,0,1571593378,Timberline Adventures,4499,5,36,,19c65b4599,jpg,37.748108,-105.530303,16,0,,5428393.0,1,0,0,0,,True
229,229,48930763731,90463382@N04,5ba9914239,65535,66,IMG_4698,1,0,0,1571593401,Timberline Adventures,4499,5,35,,e0cb3ed907,jpg,37.72918,-105.459253,16,0,,5416657.0,1,0,0,0,,True
232,232,48930948082,90463382@N04,b07b9f2d25,65535,66,IMG_4711,1,0,0,1571593404,Timberline Adventures,4499,5,24,,ed20329449,jpg,37.743088,-105.52133899999998,16,0,,5428393.0,1,0,0,0,,True
233,233,48930222913,90463382@N04,d7a5c94035,65535,66,IMG_4712,1,0,0,1571593405,Timberline Adventures,4499,5,37,,4d6721c932,jpg,37.744102000000005,-105.522178,16,0,,5428393.0,1,0,0,0,,True
234,234,48930947812,90463382@N04,7fd06d359b,65535,66,IMG_4715,1,0,0,1571593405,Timberline Adventures,4499,5,24,,61774a829f,jpg,37.747938,-105.52642800000001,16,0,,5428393.0,1,0,0,0,,True
235,235,48930762641,90463382@N04,e461853450,65535,66,IMG_4717,1,0,0,1571593406,Timberline Adventures,4499,5,25,,030f857271,jpg,37.740844,-105.51986699999999,16,0,,5428393.0,1,0,0,0,,True
236,236,48917792247,68497070@N00,d452396aec,65535,66,Long road ahead,1,0,0,1571382831,Michael Dales,65535,66,1800,colorado distance greatsanddunes highway perspective road sky mosca unitedstates,80cfe4100d,jpg,37.662760999999996,-105.702459,16,0,,5550375.0,1,0,0,0,,True
237,237,48914398262,22403667@N05,4d81f3a7d8,65535,66,_DSC4540 (2) Great Sand Dunes N.P.,1,0,0,1571326923,Allen Woosley,3735,4,211,great sand dunes national park south western colorado,,,37.694596999999995,-105.546848,16,0,,5428393.0,1,0,0,0,,True
238,238,48913663988,22403667@N05,9013997b56,65535,66,_DSC4522 (2),1,0,0,1571326920,Allen Woosley,3735,4,139,great sand dunes national park south western colorado,,,37.732527000000005,-105.51247,16,0,,5428393.0,1,0,0,0,,True
239,239,48913662648,22403667@N05,72d35e9931,65535,66,_DSC4472 (2),1,0,0,1571326922,Allen Woosley,3735,4,155,great sand dunes national park south western colorado,,,37.739819,-105.51766200000002,16,0,,5428393.0,1,0,0,0,,True
240,240,48914394252,22403667@N05,52761eca66,65535,66,_DSC4466 (3),1,0,0,1571326922,Allen Woosley,3735,4,189,great sand dunes national park south western colorado,,,37.739827000000005,-105.517664,16,0,,5428393.0,1,0,0,0,,True
241,241,48914392237,22403667@N05,95f9b4df80,65535,66,_DSC4447 (2),1,0,0,1571326920,Allen Woosley,3735,4,136,great sand dunes national park south western colorado,,,37.745571999999996,-105.50686999999999,16,0,,5428393.0,1,0,0,0,,True
242,242,48914390422,22403667@N05,4cd1319068,65535,66,_DSC4428 (3),1,0,0,1571326921,Allen Woosley,3735,4,133,great sand dunes national park south western colorado,,,37.746625,-105.508498,16,0,,5428393.0,1,0,0,0,,True
243,243,48914389547,22403667@N05,5390ae8dfb,65535,66,_DSC4412 (3),1,0,0,1571326920,Allen Woosley,3735,4,129,great sand dunes national park south western colorado,,,37.74645,-105.50848899999998,16,0,,5428393.0,1,0,0,0,,True
244,244,48901621048,68497070@N00,72e68e034a,65535,66,Dunes at Dawn,1,0,0,1571124223,Michael Dales,65535,66,1283,colorado dawn dunes greatsanddunes light sand shadow sky mosca unitedstates greatsanddunesnationalpark,739bf15cb4,jpg,37.716858,-105.525775,16,0,,5428393.0,1,0,0,0,,True
247,247,48853738582,27426943@N02,a1f135ff94,65535,66,Great Sand Dunes National Park,1,0,0,1570378383,Terry L. Olsen,65535,66,414,greatsanddunesnationalpark colorado nationalpark blackandwhite landscape exposurex5 sanddunes morning,5825f46320,jpg,37.721306,-105.62440900000001,15,0,,5428393.0,1,0,0,0,,True
248,248,48819049012,67195269@N05,f31a2f6ee8,65535,66,30. A final farewell along Medano Pass Primitive Road near Sand Pit,1,0,0,1569818420,Andreas Schmalz,6050,7,23,,75e2341313,jpg,37.763496999999994,-105.506212,16,0,,5428393.0,1,0,0,0,,True
249,249,48819047217,67195269@N05,11cab866cb,65535,66,29. Medano Creek flowing near Castle Creek Picnic Area,1,0,0,1569818395,Andreas Schmalz,6050,7,23,,1bbf6515ca,jpg,37.771477000000004,-105.507217,16,0,,5428393.0,1,0,0,0,,True
250,250,48747046778,155152466@N03,3dcee95654,65535,66,Great Sand Dunes,1,0,0,1568694287,wximagery,7828,8,3482,crestone colorado unitedstates greatsanddunes blackandwhite monochrome photoshop adobelightroom sanddunes mountain snow landscape,,,37.753933,-105.52556200000001,16,0,,5428393.0,1,0,0,0,,True
251,251,48737450556,20952256@N05,fe79daf305,65535,66,Music Pass,1,0,0,1568559782,Bendometrium,2873,3,10,upper lower sand creek lake lakes music pass trail trails hike hikes hiking grape westcliffe colorado mountains mountain view views nature outdoors outside,04e8702f01,jpg,37.929017,-105.505839,16,0,,5428393.0,1,0,0,0,,True
252,252,48636127226,77759596@N00,314e801a1f,65535,66,Sandbox,1,0,0,1566998000,Frank Kehren,7287,8,568,24105 canon canoneos1dx dunes ef24105mmf4lisusm f11 greatsanddunesnationalpark hiking sand,68a7b13f99,jpg,37.747263000000004,-105.52560600000001,16,0,,5428393.0,1,0,0,0,,True
253,253,48581784061,127114259@N08,59cc872852,65535,66,Gathering Shadows,1,0,0,1566277508,courtney_meier,65535,66,3236,colorado coloradorockies fall greatsanddunesnationalpark landscape medanopeak nationalpark rockymountains sanluisvalley sangredecristos southernrockies usnationalpark afternoon afternoonlight autumn autumnsnow dunes peak ripples sand sanddunes shadows snow mosca unitedstates,d9f47800ba,jpg,37.746091,-105.50967299999999,16,0,,5428393.0,1,0,0,0,,True
254,254,48458208731,77759596@N00,4d36c7d1a8,65535,66,Dune - The Desert Planet,1,0,0,1564962542,Frank Kehren,7287,8,567,24105 canon canoneos1dx dunes ef24105mmf4lisusm f8 greatsanddunesnationalpark hiking sand,7fd612e9a9,jpg,37.748872,-105.53192299999999,16,0,,5428393.0,1,0,0,0,,True
255,255,48425506617,32368927@N02,71f1d22b76,65535,66,Sensual Natural Lines,1,0,0,1564604161,virtualwayfarer,5462,6,552,crestone colorado unitedstatesofamerica sanddunes greatsanddunes dunes dune sand nature landscape landscapephotography naturephotography wild nationalpark desert pristine protected dramaticnature aweinspiring southwest americansouthwest photographingamerica usa roadtrip sonyalphya sonynordic sonyamericas a7riii singleexposure abstract longlens natgeo outdoors natural beautiful beauty travel scenic shadows windswept windy black white blackandwhitephotography blackwhite coloradorockies rockies continentaldivide sensual 300mm alexberger travelphotographer highcontrast color dramaticlight naturallight,6af3bfb80b,jpg,37.760388,-105.514678,16,0,,5428393.0,1,0,0,0,,True
256,256,48425506282,32368927@N02,6f5877b0e4,65535,66,Desert Transitions,1,0,0,1564604186,virtualwayfarer,5462,6,569,crestone colorado unitedstatesofamerica sanddunes greatsanddunes dunes dune sand nature landscape landscapephotography naturephotography wild nationalpark desert pristine protected dramaticnature aweinspiring southwest americansouthwest photographingamerica usa roadtrip sonyalphya sonynordic sonyamericas a7riii singleexposure abstract longlens natgeo outdoors natural beautiful beauty travel scenic shadows windswept windy coloradorockies rockies continentaldivide sensual 300mm alexberger travelphotographer,8c83caf4f3,jpg,37.760388,-105.514678,16,0,,5428393.0,1,0,0,0,,True
257,257,48425358211,32368927@N02,45c78842f4,65535,66,The Great Dunes of the Southwest,1,0,0,1564604232,virtualwayfarer,5462,6,1595,crestone colorado unitedstatesofamerica sanddunes greatsanddunes dunes dune sand nature landscape landscapephotography naturephotography wild nationalpark desert pristine protected dramaticnature aweinspiring southwest americansouthwest photographingamerica usa roadtrip sonyalphya sonynordic sonyamericas a7riii singleexposure abstract longlens natgeo outdoors natural beautiful beauty travel scenic shadows sunset dusk goldenlight goldenhour afternoon lateafternoon windswept windy coloradorockies rockies continentaldivide sensual 300mm alexberger travelphotographer,3ca2714449,jpg,37.760388,-105.514678,16,0,,5428393.0,1,0,0,0,,True
258,258,48425355191,32368927@N02,029118dd05,65535,66,The Great Dunes of the Southwest,1,0,0,1564604246,virtualwayfarer,5462,6,378,crestone colorado unitedstatesofamerica sanddunes greatsanddunes dunes dune sand nature landscape landscapephotography naturephotography wild nationalpark desert pristine protected dramaticnature aweinspiring southwest americansouthwest photographingamerica usa roadtrip sonyalphya sonynordic sonyamericas a7riii singleexposure abstract longlens natgeo outdoors natural beautiful beauty travel scenic shadows sunset dusk goldenlight goldenhour afternoon lateafternoon windswept windy coloradorockies rockies continentaldivide sensual 300mm alexberger travelphotographer,83be423bb7,jpg,37.760388,-105.514678,16,0,,5428393.0,1,0,0,0,,True
