,Unnamed: 0,id,owner,secret,server,farm,title,ispublic,isfriend,isfamily,dateupload,ownername,iconserver,iconfarm,views,tags,latitude,longitude,accuracy,context,place_id,woeid,geo_is_public,geo_is_contact,geo_is_friend,geo_is_family,originalsecret,originalformat,machine_tags,in_park
1,1,50034195427,8432336@N08,0fa12c54e7,65535,66,Submerged,1,0,0,1592841214,Clint Midwestwood,7753,8,23,,41.615987,-87.273888,16,0,,4919787.0,1,0,0,0,,,,True
2,2,50034194267,8432336@N08,9ff529e6a0,65535,66,Phlox divaricata Lithospermum caroliniense Hirundines,1,0,0,1592841218,Clint Midwestwood,7753,8,68,,41.608607,-87.276602,16,0,,4919787.0,1,0,0,0,,,,True
3,3,50033935366,8432336@N08,c6f34255bd,65535,66,Pond,1,0,0,1592841216,Clint Midwestwood,7753,8,11,,41.610757,-87.277354,16,0,,4919787.0,1,0,0,0,,,,True
4,4,50033934661,8432336@N08,d9acaa667d,65535,66,Soggy,1,0,0,1592841214,Clint Midwestwood,7753,8,34,,41.614551,-87.27627,16,0,,4919787.0,1,0,0,0,,,,True
5,5,50033392893,8432336@N08,261e98e5ba,65535,66,Tradescantia ohiensis,1,0,0,1592841218,Clint Midwestwood,7753,8,23,,41.609867,-87.276935,16,0,,4919787.0,1,0,0,0,,,,True
6,6,50033932751,8432336@N08,342087edaf,65535,66,Lupinus perennis,1,0,0,1592841217,Clint Midwestwood,7753,8,18,,41.606618,-87.273877,16,0,,4919787.0,1,0,0,0,,,,True
7,7,50033392398,8432336@N08,230362cded,65535,66,Aquilegia canadensis,1,0,0,1592841217,Clint Midwestwood,7753,8,19,,41.605992,-87.269865,16,0,,4919787.0,1,0,0,0,,,,True
8,8,50029378753,8432336@N08,31be7194f3,65535,66,Sea Mull,1,0,0,1592755254,Clint Midwestwood,7753,8,15,,41.620387,-87.27670400000001,16,0,,4919787.0,1,0,0,0,,,,True
9,9,50029369628,8432336@N08,380df0cc6b,65535,66,Dunes,1,0,0,1592755249,Clint Midwestwood,7753,8,27,,41.619096,-87.275545,16,0,,4919787.0,1,0,0,0,,,,True
10,10,50029901806,8432336@N08,ea6c4cb683,65535,66,Miller Beach-goers are In Tents!,1,0,0,1592755250,Clint Midwestwood,7753,8,38,,41.620154,-87.275481,16,0,,4919787.0,1,0,0,0,,,,True
11,11,50029358638,8432336@N08,9f6d673284,65535,66,Looking East,1,0,0,1592755252,Clint Midwestwood,7753,8,44,,41.620275,-87.275223,16,0,,4919787.0,1,0,0,0,,,,True
12,12,50029354978,8432336@N08,91eab9dcd5,65535,66,Moment,1,0,0,1592755256,Clint Midwestwood,7753,8,47,,41.620354999999996,-87.275963,16,0,,4919787.0,1,0,0,0,,,,True
13,13,50030154127,8432336@N08,8d5303a1e3,65535,66,Erosion,1,0,0,1592755255,Clint Midwestwood,7753,8,35,,41.620395,-87.27636,16,0,,4919787.0,1,0,0,0,,,,True
14,14,50026200191,8432336@N08,bc7b45e899,65535,66,Art,1,0,0,1592668147,Clint Midwestwood,7753,8,27,,41.606899,-87.267354,16,0,,4919787.0,1,0,0,0,,,,True
15,15,50026460597,8432336@N08,7f5e254f18,65535,66,Trail Closed,1,0,0,1592668147,Clint Midwestwood,7753,8,22,,41.60649,-87.269285,16,0,,4919787.0,1,0,0,0,,,,True
16,16,50026458837,8432336@N08,6986654ee2,65535,66,Into the Woods,1,0,0,1592668149,Clint Midwestwood,7753,8,46,,41.606609999999996,-87.27521800000001,16,0,,4919787.0,1,0,0,0,,,,True
17,17,50025652683,8432336@N08,7b19dfb163,65535,66,Boardwalk,1,0,0,1592668148,Clint Midwestwood,7753,8,32,,41.605824,-87.270487,16,0,,4919787.0,1,0,0,0,,,,True
41,41,49957415328,82276788@N03,698eaba47a,65535,66,Chicago skyline from Porter beach,1,0,0,1590971236,George Baritakis,2886,3,241,chicago sunset indiana illinois usa travel travelling travelblog beach color michigan,41.660312,-87.07145600000001,16,0,,4919784.0,1,0,0,0,98f4db29b7,jpg,,True
49,49,49939815152,134776049@N07,9d637409a8,65535,66,Coiled,1,0,0,1590527791,agsieg,690,1,17,,41.617134,-87.18970999999999,16,0,,4924412.0,1,0,0,0,4279e09e80,jpg,,True
50,50,49939811527,134776049@N07,ff98761059,65535,66,First Through,1,0,0,1590527791,agsieg,690,1,18,,41.617134,-87.18970999999999,16,0,,4924412.0,1,0,0,0,2b110bac33,jpg,,True
51,51,49935206978,138309242@N03,d5aba0fa23,65535,66,Lupines,1,0,0,1590439102,michellewendling907,65535,66,483,,41.607366,-87.27627,15,0,,4919787.0,1,0,0,0,c315b5002f,jpg,,True
57,57,49921575431,134776049@N07,ea21561358,65535,66,All Alone,1,0,0,1590116421,agsieg,690,1,28,,41.617134,-87.18970999999999,16,0,,4924412.0,1,0,0,0,c2654ce19d,jpg,,True
58,58,49921051298,134776049@N07,e56b2ca7ed,65535,66,Welcome to the Black Parade,1,0,0,1590116421,agsieg,690,1,32,,41.617134,-87.18970999999999,16,0,,4924412.0,1,0,0,0,773d7ef29c,jpg,,True
59,59,49921561656,134776049@N07,bfc0f5244d,65535,66,Eastbound Afternoon,1,0,0,1590116420,agsieg,690,1,29,,41.617134,-87.18970999999999,16,0,,4924412.0,1,0,0,0,4b3f3ae699,jpg,,True
60,60,49920351626,19538291@N00,51209276fb,65535,66,Socially Distant Horizons,1,0,0,1590087270,The New No. 2,5338,6,488,johncrouch copyright2019johncrouch johncrouchphotography chesterton indiana unitedstatesofamerica afterglow atmosphere calm city cityscape cloud coast dusk evening heat horizon landscape orange sky skylinechicago sun sunlight sunset water chicago skyline downtown skyscraper reflection usa america twilight nopeople highrise metropolitan glow warm illinois 2020 spring alignment,41.662455,-87.064437,16,0,,4919784.0,1,0,0,0,,,,True
62,62,49904214273,14533065@N00,e2a7d8d3a0,65535,66,,1,0,0,1589717476,slywy,7350,8,5,,41.662166,-87.064167,16,0,,4927301.0,1,0,0,0,10542937bc,jpg,,True
65,65,49902667258,17653441@N02,76cbd6e68a,65535,66,IDNP,1,0,0,1589674950,LakiLuk 13,1585,2,103,,41.623540999999996,-87.20401700000001,16,0,,4924412.0,1,0,0,0,b9b22cbe96,jpg,,True
66,66,49903488937,17653441@N02,1e5e53e580,65535,66,IDNP,1,0,0,1589674899,LakiLuk 13,1585,2,101,,41.624805,-87.204759,16,0,,7164792.0,1,0,0,0,4344bf6d25,jpg,,True
72,72,49870786106,8432336@N08,edcae1b565,65535,66,A Romp Through the Ramps,1,0,0,1588954088,Clint Midwestwood,7753,8,116,,41.62335,-86.978695,15,0,,4918541.0,1,0,0,0,,,,True
73,73,49870251158,8432336@N08,822320326f,65535,66,Mud,1,0,0,1588954088,Clint Midwestwood,7753,8,130,,41.6242,-86.978309,15,0,,4918541.0,1,0,0,0,,,,True
74,74,49866978772,8432336@N08,219f158525,65535,66,Trillium cuneatum,1,0,0,1588860487,Clint Midwestwood,7753,8,64,,41.625259,-86.972193,15,0,,4918541.0,1,0,0,0,,,,True
76,76,49862727348,8432336@N08,4549cd8b4e,65535,66,Your National Park,1,0,0,1588777549,Clint Midwestwood,7753,8,68,,41.622508,-86.980497,16,0,,4918541.0,1,0,0,0,,,,True
77,77,49863238931,8432336@N08,c611f76295,65535,66,Bridge Over Still Waters,1,0,0,1588777549,Clint Midwestwood,7753,8,74,,41.62262,-86.97952099999999,16,0,,4918541.0,1,0,0,0,,,,True
78,78,49863230961,8432336@N08,d4c4873665,65535,66,Trillium grandiflorum,1,0,0,1588777550,Clint Midwestwood,7753,8,48,,41.623374,-86.978588,16,0,,4918541.0,1,0,0,0,,,,True
79,79,49863227171,8432336@N08,328c96824a,65535,66,Trillium grandiflorum multis,1,0,0,1588777551,Clint Midwestwood,7753,8,52,,41.623711,-86.97840500000001,16,0,,4918541.0,1,0,0,0,,,,True
83,83,49857452497,134776049@N07,0529047d30,65535,66,Stacked Traffic,1,0,0,1588640037,agsieg,690,1,9,,41.617134,-87.18970999999999,16,0,,4924412.0,1,0,0,0,59b5bcd8f7,jpg,,True
84,84,49857128521,134776049@N07,136dc5c50d,65535,66,"""E"" is for ""Enhanced""",1,0,0,1588640037,agsieg,690,1,43,,41.617134,-87.18970999999999,16,0,,4924412.0,1,0,0,0,bab833ff73,jpg,,True
85,85,49856566958,134776049@N07,7128252461,65535,66,Westbound Departure Under Wire,1,0,0,1588640037,agsieg,690,1,26,,41.617134,-87.18970999999999,16,0,,4924412.0,1,0,0,0,a384cae487,jpg,,True
93,93,49827304998,134776049@N07,2019b8a4d0,65535,66,Nice,1,0,0,1588034934,agsieg,690,1,34,,41.617134,-87.18970999999999,16,0,,4924412.0,1,0,0,0,257370aee6,jpg,,True
94,94,49828143797,134776049@N07,5faa28d213,65535,66,Convert,1,0,0,1588034933,agsieg,690,1,49,,41.617134,-87.18970999999999,16,0,,4924412.0,1,0,0,0,6832b44cd6,jpg,,True
95,95,49828126922,134776049@N07,b3c8db4ca5,65535,66,Back to the Harbor,1,0,0,1588034933,agsieg,690,1,22,,41.617134,-87.18970999999999,16,0,,4924412.0,1,0,0,0,2ebb3af444,jpg,,True
121,121,49803884627,10199807@N00,68597b1c84,65535,66,Following Kintzle Ditch,1,0,0,1587510688,Tom Gill.,5327,6,530,beach water lake greatlakes lakemichigan indiana dunes stream creek kintzleditch indianadunesnationalpark,41.706784999999996,-86.940329,15,0,,4927276.0,1,0,0,0,2e460d07cb,jpg,,True
122,122,49803028523,10199807@N00,3a7edf1ee1,65535,66,Kintzle Ditch From Above,1,0,0,1587510688,Tom Gill.,5327,6,453,dune lake lakemichigan indiana sand beach greatlake indianadunesnationalpark kintzleditch creek stream,41.706784999999996,-86.940329,15,0,,4927276.0,1,0,0,0,b6b98c270a,jpg,,True
124,124,49796124857,10199807@N00,5e7fdea36f,65535,66,The Beach at Kintzle Ditch,1,0,0,1587351253,Tom Gill.,5327,6,448,beach dunes indiana stream lake lakemichigan kintzleditch greatlakes indianadunesnationalpark,41.706672999999995,-86.940586,15,0,,4927276.0,1,0,0,0,5bb99e694a,jpg,,True
125,125,49795819931,10199807@N00,8c5a9990aa,65535,66,Kintzle Ditch Panorama,1,0,0,1587351254,Tom Gill.,5327,6,466,dune stream beach sand kintzleditch indiana lake lakemichigan greatlakes mtbaldy indianadunesnationalpark,41.706672999999995,-86.940586,15,0,,4927276.0,1,0,0,0,aa49bccdce,jpg,,True
126,126,49788916072,7337396@N05,20f51b0eb5,65535,66,DSC07657,1,0,0,1587218049,Eric Franqui,250,1,8,chesterton indiana unitedstatesofamerica dunes national park dunesnationalpark coast water ice nature,41.661024,-87.069192,16,0,,4919784.0,1,0,0,0,1e78524708,jpg,,True
127,127,49788602391,7337396@N05,f54d7eaa35,65535,66,DSC07658,1,0,0,1587218050,Eric Franqui,250,1,13,chesterton indiana unitedstatesofamerica dunes national park dunesnationalpark coast water ice nature,41.661024,-87.069192,16,0,,4919784.0,1,0,0,0,0c6156ccc0,jpg,,True
140,140,49751920362,17653441@N02,79b55c0959,65535,66,I.D.N.P,1,0,0,1586396414,LakiLuk 13,1585,2,456,,41.643477000000004,-87.093589,16,0,,7164656.0,1,0,0,0,fda0f0b66d,jpg,,True
141,141,49740992292,14533065@N00,21f362bf25,65535,66,,1,0,0,1586133815,slywy,7350,8,3,,41.624221999999996,-87.09015600000001,16,0,,7164826.0,1,0,0,0,a873c1d70f,jpg,,True
147,147,49722807152,24084206@N08,f38f6fa374,65535,66,The Spirit in Indiana,1,0,0,1585710382,Robby Gragg,7819,8,2463,up sd70ah 1943 spirit ogden dunes,41.617992,-87.184259,16,0,,4924412.0,1,0,0,0,cb922e096c,jpg,,True
155,155,49688289881,134776049@N07,b240cd5997,65535,66,Unchained,1,0,0,1584913126,agsieg,690,1,36,,41.617134,-87.18970999999999,16,0,,4924412.0,1,0,0,0,38f920224e,jpg,,True
156,156,49688581922,134776049@N07,7b3af6dbcb,65535,66,A stack train creeps east behind Norfolk Southern SD70ACes,1,0,0,1584913125,agsieg,690,1,38,,41.617134,-87.18970999999999,16,0,,4924412.0,1,0,0,0,cc205284fa,jpg,,True
157,157,49688262046,134776049@N07,3d012fc3c5,65535,66,Creeping Sand,1,0,0,1584913125,agsieg,690,1,65,,41.617134,-87.18970999999999,16,0,,4924412.0,1,0,0,0,0967ebcf44,jpg,,True
158,158,49687823367,24842953@N04,eaa46471dd,65535,66,steps on the dunes in Indiana Dunes national park,1,0,0,1584899823,Prairie Star,2412,3,190,nationallakeshore indiana nationalparkservice sky clouds bluesky outdoor indianadunesnationalpark sand trees bushes spring hiking sanddunes lake sea lakemichigan usa unitedstates midwest nationalpark stairs sunny sunshine nationalparks landscape freshwater greatlakes,41.625291,-87.20479399999999,15,0,,7164792.0,1,0,0,0,,,,True
159,159,49686310796,52209513@N03,01a9d93cb7,65535,66,Local Steel Train,1,0,0,1584878822,trainphotoz,0,0,331,ogdendnes burnsharbor conrail norfolksouthern ns cr caboose,41.618249,-87.18533199999999,15,0,,4924412.0,1,0,0,0,880ebff154,jpg,,True
180,180,49921052572,14533065@N00,a9221c5099,65535,66,,1,0,0,1590094260,slywy,7350,8,7,,41.662665999999994,-87.063225,16,0,,4927301.0,1,0,0,0,0d899397c0,jpg,,True
181,181,49870786711,8432336@N08,a5e3eec3f1,65535,66,The Path,1,0,0,1588954087,Clint Midwestwood,7753,8,50,,41.624842,-86.975047,15,0,,4918541.0,1,0,0,0,,,,True
182,182,49870785581,8432336@N08,f841f01f02,65535,66,1300 N,1,0,0,1588954089,Clint Midwestwood,7753,8,84,,41.622508,-86.980497,16,0,,4918541.0,1,0,0,0,,,,True
183,183,49870250138,8432336@N08,590402bcfe,65535,66,Angry Orchard,1,0,0,1588954086,Clint Midwestwood,7753,8,49,,41.625034,-86.973567,15,0,,4918541.0,1,0,0,0,,,,True
184,184,49866977497,8432336@N08,21563a7ffb,65535,66,Yellow-rumped Wabrler,1,0,0,1588860488,Clint Midwestwood,7753,8,61,,41.62574,-86.96979,15,0,,4918541.0,1,0,0,0,,,,True
185,185,49866127648,8432336@N08,82245c2f2f,65535,66,Another Yellow-rumped Warbler,1,0,0,1588860489,Clint Midwestwood,7753,8,40,,41.62574,-86.96979,15,0,,4918541.0,1,0,0,0,,,,True
186,186,49866976772,8432336@N08,2e4999b8eb,65535,66,Not Olympic,1,0,0,1588860489,Clint Midwestwood,7753,8,80,,41.625836,-86.968352,15,0,,4918541.0,1,0,0,0,,,,True
187,187,49866126013,8432336@N08,f40a2326ee,65535,66,"Allium tricoccum ... or Shikaakwa, if You Prefer",1,0,0,1588860487,Clint Midwestwood,7753,8,89,,41.625163,-86.976528,15,0,,4918541.0,1,0,0,0,,,,True
188,188,49863507982,8432336@N08,940f195f30,65535,66,Little Calumet,1,0,0,1588777553,Clint Midwestwood,7753,8,62,,41.624409,-86.977965,16,0,,4918541.0,1,0,0,0,,,,True
227,227,49751927727,17653441@N02,f585d4f1f3,65535,66,IDNP,1,0,0,1586396590,LakiLuk 13,1585,2,242,,41.647560999999996,-87.110114,16,0,,7164656.0,1,0,0,0,d3685fee90,jpg,,True
229,229,49743859218,14533065@N00,b4839ec55b,65535,66,,1,0,0,1586220147,slywy,7350,8,9,,41.659665999999994,-87.049334,16,0,,4927301.0,1,0,0,0,2a38418161,jpg,,True
238,238,49709575433,19908866@N03,1915434d6e,65535,66,South Shore #2005,1,0,0,1585441070,Jim Strain,1573,2,909,jmstrain train railroad railway locomotive diesel southshore,41.636758,-87.086534,16,0,,4919785.0,1,0,0,0,,,,True
261,261,49651495181,8432336@N08,9a7758e721,65535,66,Low Ice Year,1,0,0,1584016160,Clint Midwestwood,7753,8,65,,41.626327,-87.208197,16,0,,7164792.0,1,0,0,0,,,,True
262,262,49650957313,8432336@N08,07e542cbb2,65535,66,Sine Wave,1,0,0,1584016162,Clint Midwestwood,7753,8,68,,41.626327,-87.208197,16,0,,7164792.0,1,0,0,0,,,,True
263,263,49650956803,8432336@N08,018e8eedfd,65535,66,Looking East from West Beach,1,0,0,1584016163,Clint Midwestwood,7753,8,87,,41.626327,-87.208197,16,0,,7164792.0,1,0,0,0,,,,True
264,264,49651766452,8432336@N08,60c8838881,65535,66,A Man Looks Into the Abyss,1,0,0,1584016163,Clint Midwestwood,7753,8,79,,41.626399,-87.207832,16,0,,7164792.0,1,0,0,0,,,,True
265,265,49651492341,8432336@N08,3f538a134d,65535,66,A Hazy Shade of Winter,1,0,0,1584016164,Clint Midwestwood,7753,8,83,,41.623512,-87.207489,16,0,,4924412.0,1,0,0,0,,,,True
272,272,49633040172,14533065@N00,0925e5174e,65535,66,,1,0,0,1583633126,slywy,7350,8,1,,41.62645,-87.089548,16,0,,7164826.0,1,0,0,0,f8a303275b,jpg,,True
273,273,49633040197,14533065@N00,2aa69ed30b,65535,66,,1,0,0,1583633126,slywy,7350,8,1,,41.624144,-87.08972299999999,16,0,,7164826.0,1,0,0,0,1a9b0edcf1,jpg,,True
274,274,49633039872,14533065@N00,346e36bf15,65535,66,,1,0,0,1583633118,slywy,7350,8,1,,41.626433,-87.088937,16,0,,7164826.0,1,0,0,0,5c1108e510,jpg,,True
275,275,49633039867,14533065@N00,4535998e35,65535,66,,1,0,0,1583633118,slywy,7350,8,1,,41.62533,-87.089614,16,0,,7164826.0,1,0,0,0,214963e4fa,jpg,,True
276,276,49633039807,14533065@N00,57c9f8eb0b,65535,66,,1,0,0,1583633117,slywy,7350,8,2,,41.626872,-87.08922,16,0,,7164826.0,1,0,0,0,e2e9f71c1d,jpg,,True
277,277,49632247353,14533065@N00,1bd265ab04,65535,66,,1,0,0,1583633113,slywy,7350,8,1,,41.626475,-87.089439,16,0,,7164826.0,1,0,0,0,e35638d256,jpg,,True
278,278,49633039497,14533065@N00,7fc075d7f3,65535,66,"Are ewe giving me the eye? (okay, may not be a ewe)",1,0,0,1583633109,slywy,7350,8,4,,41.626866,-87.089203,16,0,,7164826.0,1,0,0,0,3f7a802661,jpg,,True
279,279,49633038892,14533065@N00,1c3d061921,65535,66,Spiles,1,0,0,1583633093,slywy,7350,8,1,,41.625355,-87.08964499999999,16,0,,7164826.0,1,0,0,0,0663649cfd,jpg,,True
280,280,49632246153,14533065@N00,14ce9143bd,65535,66,Boiling over fire,1,0,0,1583633086,slywy,7350,8,1,,41.625040999999996,-87.089753,16,0,,7164826.0,1,0,0,0,d3ed4ed654,jpg,,True
281,281,49632246183,14533065@N00,3f2f166375,65535,66,,1,0,0,1583633086,slywy,7350,8,1,,41.626113000000004,-87.090125,16,0,,7164826.0,1,0,0,0,5e3bbd7298,jpg,,True
282,282,49632767511,14533065@N00,36319c2236,65535,66,Steaming sugar shack,1,0,0,1583633081,slywy,7350,8,3,,41.620852,-87.091759,16,0,,7164826.0,1,0,0,0,8acd21be00,jpg,,True
283,283,49633037872,14533065@N00,8b65b1ece8,65535,66,,1,0,0,1583633067,slywy,7350,8,1,,41.626113000000004,-87.090125,16,0,,7164826.0,1,0,0,0,5e81a9fd01,jpg,,True
284,284,49633037672,14533065@N00,662c0e74a5,65535,66,Three months old,1,0,0,1583633063,slywy,7350,8,1,,41.627083,-87.089089,16,0,,7164826.0,1,0,0,0,036d9dfbe3,jpg,,True
288,288,49617413053,134776049@N07,8b1bfd9e9a,65535,66,Power Forward,1,0,0,1583334207,agsieg,690,1,38,,41.617134,-87.18970999999999,16,0,,4924412.0,1,0,0,0,849a7c30fc,jpg,,True
289,289,49617921281,134776049@N07,a63eeb4c62,65535,66,Yellows,1,0,0,1583334206,agsieg,690,1,54,,41.617134,-87.18970999999999,16,0,,4924412.0,1,0,0,0,927566169e,jpg,,True
290,290,49617388823,134776049@N07,054a045678,65535,66,A Four Pack,1,0,0,1583334206,agsieg,690,1,27,,41.617134,-87.18970999999999,16,0,,4924412.0,1,0,0,0,3951c672f3,jpg,,True
309,309,49586310107,134776049@N07,aeacf9eeef,65535,66,Heading to the Mill,1,0,0,1582684846,agsieg,690,1,42,,41.617134,-87.18970999999999,16,0,,4924412.0,1,0,0,0,e6fe38aef6,jpg,,True
310,310,49585564618,134776049@N07,861a179a50,65535,66,Through the Dunes,1,0,0,1582684846,agsieg,690,1,57,,41.617134,-87.18970999999999,16,0,,4924412.0,1,0,0,0,948254c8d3,jpg,,True
311,311,49585550538,134776049@N07,f61bcd40c4,65535,66,Powered Up,1,0,0,1582684846,agsieg,690,1,70,,41.617134,-87.18970999999999,16,0,,4924412.0,1,0,0,0,8286525eba,jpg,,True
329,329,49514677002,8432336@N08,4bfd2e1d79,65535,66,In the Distance,1,0,0,1581310020,Clint Midwestwood,7753,8,78,,41.630215,-87.178187,16,0,,7164792.0,1,0,0,0,,,,True
330,330,49514672972,8432336@N08,cae5c8c577,65535,66,Walking the Dogs,1,0,0,1581310021,Clint Midwestwood,7753,8,113,,41.625836,-87.207916,16,0,,7164792.0,1,0,0,0,,,,True
331,331,49514669627,8432336@N08,f531cc0d8e,65535,66,Interdunal ... At Least for Now,1,0,0,1581310020,Clint Midwestwood,7753,8,75,,41.630215,-87.178187,16,0,,7164792.0,1,0,0,0,,,,True
333,333,49509435201,8432336@N08,6068f3dc1b,65535,66,Unprotected,1,0,0,1581234363,Clint Midwestwood,7753,8,146,,41.630207,-87.183626,16,0,,7164792.0,1,0,0,0,,,,True
338,338,49501769287,8432336@N08,60a70feafb,65535,66,Battered,1,0,0,1581087222,Clint Midwestwood,7753,8,78,,41.631386,-87.17850899999999,16,0,,7164792.0,1,0,0,0,,,,True
339,339,49501537391,8432336@N08,92ea3b5a3b,65535,66,Area Closed,1,0,0,1581087223,Clint Midwestwood,7753,8,147,,41.631049,-87.179163,16,0,,7164792.0,1,0,0,0,,,,True
340,340,49501029098,8432336@N08,db7e1c0d05,65535,66,Hazardous Conditions,1,0,0,1581087224,Clint Midwestwood,7753,8,96,,41.631049,-87.179163,16,0,,7164792.0,1,0,0,0,,,,True
341,341,49501749272,8432336@N08,6472b4ef9c,65535,66,Do Not Walk,1,0,0,1581087224,Clint Midwestwood,7753,8,125,,41.631049,-87.179163,16,0,,7164792.0,1,0,0,0,,,,True
342,342,49501501741,8432336@N08,f777a9b4c6,65535,66,Erosion,1,0,0,1581087221,Clint Midwestwood,7753,8,112,,41.63084,-87.179303,16,0,,7164792.0,1,0,0,0,,,,True
343,343,49499345528,134776049@N07,0d2c8e527a,65535,66,The Limited,1,0,0,1581050738,agsieg,690,1,44,,41.617134,-87.18970999999999,16,0,,4924412.0,1,0,0,0,d251352827,jpg,,True
344,344,49500063602,134776049@N07,fe544cc1de,65535,66,Hippity Hoppers,1,0,0,1581050737,agsieg,690,1,45,,41.617134,-87.18970999999999,16,0,,4924412.0,1,0,0,0,c89dc4bd68,jpg,,True
345,345,49499336118,134776049@N07,41fd9f4d93,65535,66,Little Big Train,1,0,0,1581050737,agsieg,690,1,25,,41.617134,-87.18970999999999,16,0,,4924412.0,1,0,0,0,50efb857a5,jpg,,True
351,351,49480286427,80637541@N08,7e973c4c2e,65535,66,at the Dunes,1,0,0,1580684064,Adrian Radic,3733,4,30,,41.619883,-87.18988900000001,16,0,,4924412.0,1,0,0,0,623f6e5908,jpg,,True
352,352,49480059466,80637541@N08,0dc6dbb778,65535,66,at the Dunes,1,0,0,1580684065,Adrian Radic,3733,4,30,,41.618061,-87.197687,16,0,,4924412.0,1,0,0,0,ec64d28a8d,jpg,,True
353,353,49479580368,80637541@N08,f16378956a,65535,66,at the Dunes,1,0,0,1580684066,Adrian Radic,3733,4,29,,41.62685,-87.203209,16,0,,7164792.0,1,0,0,0,3341c8eabc,jpg,,True
354,354,49480279102,80637541@N08,03e902d69e,65535,66,at the Dunes,1,0,0,1580684066,Adrian Radic,3733,4,31,,41.627,-87.202775,16,0,,7164792.0,1,0,0,0,31362144b9,jpg,,True
355,355,49480279032,80637541@N08,b057bb82bd,65535,66,at the Dunes,1,0,0,1580684067,Adrian Radic,3733,4,28,,41.626697,-87.199745,16,0,,7164792.0,1,0,0,0,8a2d23ac72,jpg,,True
356,356,49480278967,80637541@N08,b4bf3d50d6,65535,66,at the Dunes,1,0,0,1580684068,Adrian Radic,3733,4,29,,41.626655,-87.19977,16,0,,7164792.0,1,0,0,0,5a590f3599,jpg,,True
357,357,49480059056,80637541@N08,9edf625b66,65535,66,at the Dunes,1,0,0,1580684069,Adrian Radic,3733,4,29,,41.626663,-87.199798,16,0,,7164792.0,1,0,0,0,9057043c7b,jpg,,True
358,358,49479579888,80637541@N08,df8c5796d3,65535,66,at the Dunes,1,0,0,1580684070,Adrian Radic,3733,4,27,,41.660713,-87.062662,16,0,,4927301.0,1,0,0,0,fddfaa24c2,jpg,,True
359,359,49479579808,80637541@N08,e3a58e0c8a,65535,66,at the Dunes,1,0,0,1580684071,Adrian Radic,3733,4,26,,41.662546999999996,-87.062606,16,0,,4927301.0,1,0,0,0,3a731667da,jpg,,True
360,360,49479579758,80637541@N08,b2daea4ec0,65535,66,at the Dunes,1,0,0,1580684072,Adrian Radic,3733,4,26,,41.663205,-87.062637,16,0,,4927301.0,1,0,0,0,7e55451e71,jpg,,True
361,361,49480058731,80637541@N08,3e95024438,65535,66,at the Dunes,1,0,0,1580684072,Adrian Radic,3733,4,26,,41.662902,-87.060914,16,0,,4927301.0,1,0,0,0,9ab98c7142,jpg,,True
362,362,49480278467,80637541@N08,133b116fd0,65535,66,at the Dunes,1,0,0,1580684072,Adrian Radic,3733,4,26,,41.662902,-87.060906,16,0,,4927301.0,1,0,0,0,502d6457e7,jpg,,True
363,363,49480278382,80637541@N08,518705055b,65535,66,at the Dunes,1,0,0,1580684073,Adrian Radic,3733,4,27,,41.66288,-87.06085300000001,16,0,,4927301.0,1,0,0,0,6f4f65b990,jpg,,True
364,364,49480058376,80637541@N08,04c5a13450,65535,66,at the Dunes,1,0,0,1580684074,Adrian Radic,3733,4,26,,41.66288,-87.06085300000001,16,0,,4927301.0,1,0,0,0,e8e1a108bb,jpg,,True
365,365,49480278117,80637541@N08,62b67e6e8a,65535,66,at the Dunes,1,0,0,1580684074,Adrian Radic,3733,4,27,,41.662963,-87.060259,16,0,,4927301.0,1,0,0,0,ed462c57da,jpg,,True
367,367,49466323583,134776049@N07,1cd7a16459,65535,66,Off to the Races,1,0,0,1580441611,agsieg,690,1,21,,41.617134,-87.18970999999999,16,0,,4924412.0,1,0,0,0,671f626fe9,jpg,,True
368,368,49467036402,134776049@N07,2fd1cc2776,65535,66,Mix and Match,1,0,0,1580441610,agsieg,690,1,42,,41.617134,-87.18970999999999,16,0,,4924412.0,1,0,0,0,38d266beef,jpg,,True
369,369,49466310088,134776049@N07,4e118674d4,65535,66,Alone on the High Top,1,0,0,1580441610,agsieg,690,1,27,,41.617134,-87.18970999999999,16,0,,4924412.0,1,0,0,0,fa5bba7d32,jpg,,True
399,399,49407192917,24084206@N08,84b7e0ce5a,65535,66,Saluting the Navy,1,0,0,1579410151,Robby Gragg,7819,8,2306,cp navy sd70acu 7022 ogden dunes,41.617383000000004,-87.18956999999999,16,0,,4924412.0,1,0,0,0,98a54eb5f3,jpg,,True
403,403,49382796646,134776049@N07,ed22a110c0,65535,66,Rights,1,0,0,1578976130,agsieg,690,1,35,,41.617134,-87.18970999999999,16,0,,4924412.0,1,0,0,0,ffa0129bb8,jpg,,True
404,404,49382982182,134776049@N07,70accd2c83,65535,66,South Shore Freight,1,0,0,1578976129,agsieg,690,1,38,,41.617134,-87.18970999999999,16,0,,4924412.0,1,0,0,0,1fb4c3fdf7,jpg,,True
405,405,49382781956,134776049@N07,0d69a31c93,65535,66,Stop Here,1,0,0,1578976129,agsieg,690,1,18,,41.617134,-87.18970999999999,16,0,,4924412.0,1,0,0,0,8b21bf7ab0,jpg,,True
410,410,49660163698,7337396@N05,c96a773e55,65535,66,DSC07543,1,0,0,1584245177,Eric Franqui,250,1,9,chesterton indiana unitedstatesofamerica,41.661024,-87.069192,16,0,,4919784.0,1,0,0,0,3657e9b6dd,jpg,,True
411,411,49660703706,7337396@N05,169862ac4b,65535,66,DSC07544,1,0,0,1584245177,Eric Franqui,250,1,9,chesterton indiana unitedstatesofamerica,41.661024,-87.069192,16,0,,4919784.0,1,0,0,0,612977d76d,jpg,,True
412,412,49660984622,7337396@N05,3b9b874304,65535,66,DSC07542,1,0,0,1584245177,Eric Franqui,250,1,9,chesterton indiana unitedstatesofamerica,41.661024,-87.069192,16,0,,4919784.0,1,0,0,0,d67ebac0f1,jpg,,True
413,413,49660163123,7337396@N05,5e31396e7c,65535,66,DSC07541,1,0,0,1584245178,Eric Franqui,250,1,9,chesterton indiana unitedstatesofamerica,41.661024,-87.069192,16,0,,4919784.0,1,0,0,0,7a618fdd4a,jpg,,True
414,414,49660702956,7337396@N05,73f44529ba,65535,66,DSC07539,1,0,0,1584245179,Eric Franqui,250,1,9,chesterton indiana unitedstatesofamerica,41.661024,-87.069192,16,0,,4919784.0,1,0,0,0,9e3264691e,jpg,,True
415,415,49660702816,7337396@N05,e3b7ab40ca,65535,66,DSC07540,1,0,0,1584245180,Eric Franqui,250,1,9,chesterton indiana unitedstatesofamerica,41.661024,-87.069192,16,0,,4919784.0,1,0,0,0,0bc5357a80,jpg,,True
416,416,49660162308,7337396@N05,09ed358155,65535,66,DSC07553,1,0,0,1584245181,Eric Franqui,250,1,9,chesterton indiana unitedstatesofamerica,41.661024,-87.069192,16,0,,,1,0,0,0,98d50a0da8,jpg,,True
417,417,49660702401,7337396@N05,6fe8554d57,65535,66,DSC07551,1,0,0,1584245181,Eric Franqui,250,1,9,chesterton indiana unitedstatesofamerica,41.661024,-87.069192,16,0,,4919784.0,1,0,0,0,570223ce53,jpg,,True
418,418,49660161913,7337396@N05,d9940558a5,65535,66,DSC07550,1,0,0,1584245182,Eric Franqui,250,1,9,chesterton indiana unitedstatesofamerica,41.661024,-87.069192,16,0,,4919784.0,1,0,0,0,2f0d1b5c70,jpg,,True
419,419,49660983067,7337396@N05,da6e72d895,65535,66,DSC07549,1,0,0,1584245182,Eric Franqui,250,1,9,chesterton indiana unitedstatesofamerica,41.661024,-87.069192,16,0,,4919784.0,1,0,0,0,5754b19bf2,jpg,,True
420,420,49660161398,7337396@N05,c18b77e0b5,65535,66,DSC07548,1,0,0,1584245183,Eric Franqui,250,1,9,chesterton indiana unitedstatesofamerica,41.661024,-87.069192,16,0,,4919784.0,1,0,0,0,bea924d3ba,jpg,,True
421,421,49660701331,7337396@N05,85a0d6f608,65535,66,DSC07546,1,0,0,1584245183,Eric Franqui,250,1,9,chesterton indiana unitedstatesofamerica,41.661024,-87.069192,16,0,,4919784.0,1,0,0,0,3b9dbb5ba3,jpg,,True
422,422,49660701166,7337396@N05,3a7755b6ab,65535,66,DSC07547,1,0,0,1584245184,Eric Franqui,250,1,9,chesterton indiana unitedstatesofamerica,41.661024,-87.069192,16,0,,4919784.0,1,0,0,0,a60aa614b0,jpg,,True
423,423,49659378811,116244791@N02,634f86aaf4,65535,66,,1,0,0,1584215025,KX's photography,3759,4,27,,41.661186,-87.065187,16,0,,4919784.0,1,0,0,0,,,,True
433,433,49633039237,14533065@N00,228fb566c3,65535,66,,1,0,0,1583633101,slywy,7350,8,1,,41.626061,-87.090125,16,0,,7164826.0,1,0,0,0,8ef439b776,jpg,,True
434,434,49632768366,14533065@N00,51d910474a,65535,66,,1,0,0,1583633101,slywy,7350,8,1,,41.626838,-87.089225,16,0,,7164826.0,1,0,0,0,2912de1e20,jpg,,True
435,435,49632768376,14533065@N00,9069a1b1c6,65535,66,,1,0,0,1583633101,slywy,7350,8,1,,41.620852,-87.091759,16,0,,7164826.0,1,0,0,0,33521ca36d,jpg,,True
436,436,49633038702,14533065@N00,0155b9fd29,65535,66,,1,0,0,1583633089,slywy,7350,8,1,,41.62688,-87.089242,16,0,,7164826.0,1,0,0,0,eae5ff8b5d,jpg,,True
437,437,49632246203,14533065@N00,33946e7e7b,65535,66,,1,0,0,1583633087,slywy,7350,8,0,,41.62645,-87.089548,16,0,,7164826.0,1,0,0,0,3dfafddffa,jpg,,True
438,438,49632245528,14533065@N00,83c04f4fac,65535,66,,1,0,0,1583633072,slywy,7350,8,1,,41.626827,-87.089225,16,0,,7164826.0,1,0,0,0,3f6046869c,jpg,,True
439,439,49632767086,14533065@N00,994f0ff315,65535,66,,1,0,0,1583633071,slywy,7350,8,1,,41.626866,-87.089203,16,0,,7164826.0,1,0,0,0,ca6eb63870,jpg,,True
440,440,49632766861,14533065@N00,96b78979aa,65535,66,,1,0,0,1583633065,slywy,7350,8,1,,41.620852,-87.091759,16,0,,7164826.0,1,0,0,0,2e2e3eb384,jpg,,True
441,441,49633037702,14533065@N00,7d1527b409,65535,66,,1,0,0,1583633063,slywy,7350,8,1,,41.620852,-87.091759,16,0,,7164826.0,1,0,0,0,7f1f33d5f0,jpg,,True
442,442,49617994401,19531332@N03,90c3a43f3b,65535,66,Train Time at Beverly Shores,1,0,0,1583335589,Metra 614,8140,9,572,,41.672971999999994,-86.985888,15,0,,7164557.0,1,0,0,0,,,,True
446,446,49525415816,8432336@N08,b59d56a409,65535,66,Windward,1,0,0,1581514604,Clint Midwestwood,7753,8,168,,41.708859999999994,-86.933237,16,0,,4923531.0,1,0,0,0,,,,True
447,447,49524902853,8432336@N08,f9bee80a29,65535,66,Mount Baldy Update,1,0,0,1581514604,Clint Midwestwood,7753,8,122,,41.707218,-86.928688,16,0,,4923531.0,1,0,0,0,,,,True
448,448,49508926268,8432336@N08,b583bd84d8,65535,66,Mile Marker,1,0,0,1581234364,Clint Midwestwood,7753,8,107,,41.631073,-87.178616,16,0,,7164792.0,1,0,0,0,,,,True
450,450,49499613456,98879514@N00,1ee6246f16,65535,66,,1,0,0,1581046176,wonder_al,0,0,28,indianadunesnationalpark indianadunes lakemichigan indiana dunes,41.703094,-86.95088100000001,16,0,,4927276.0,1,0,0,0,541e0401ce,jpg,,True
451,451,49499613376,98879514@N00,a82b4155e0,65535,66,,1,0,0,1581046176,wonder_al,0,0,28,indianadunesnationalpark indianadunes lakemichigan indiana dunes,41.703105,-86.950878,16,0,,4927276.0,1,0,0,0,4f25b0d6e7,jpg,,True
462,462,49376450046,35266951@N05,7719ef20ea,65535,66,Brown Headed Cowbird by SpeedyJR,1,0,0,1578878848,SpeedyJR,7375,8,45,©2019janicerodriguez beverlyshoresin brownheadedcowbird cowbirds birds wildlife nature beverlyshoresindiana indiana speedyjr,41.69916,-86.944448,15,0,,4927276.0,1,0,0,0,,,,True
463,463,49376449781,35266951@N05,78c42de91a,65535,66,Canada Goose by SpeedyJR,1,0,0,1578878849,SpeedyJR,7375,8,48,©2019janicerodriguez beverlyshoresin canadagoose goose geese birds wildlife nature beverlyshoresindiana indiana speedyjr,41.69916,-86.944448,15,0,,4927276.0,1,0,0,0,,,,True
464,464,49376449571,35266951@N05,a1a26d489f,65535,66,Canada Goose by SpeedyJR,1,0,0,1578878850,SpeedyJR,7375,8,42,©2019janicerodriguez beverlyshoresin canadagoose goose geese birds wildlife nature beverlyshoresindiana indiana speedyjr,41.69916,-86.944448,15,0,,4927276.0,1,0,0,0,,,,True
465,465,49376652552,35266951@N05,b1cb089c02,65535,66,Eastern Bluebird by SpeedyJR,1,0,0,1578878850,SpeedyJR,7375,8,42,©2019janicerodriguez beverlyshoresin easternbluebird bluebirds birds wildlife nature beverlyshoresindiana indiana speedyjr,41.69916,-86.944448,15,0,,4927276.0,1,0,0,0,,,,True
466,466,49376449156,35266951@N05,7052709c7a,65535,66,Great Egret by SpeedyJR,1,0,0,1578878851,SpeedyJR,7375,8,39,©2019janicerodriguez beverlyshoresin greategret egrets birds wildlife nature beverlyshoresindiana indiana speedyjr,41.69916,-86.944448,15,0,,4927276.0,1,0,0,0,,,,True
467,467,49376448876,35266951@N05,d45cbd8991,65535,66,Mourning Dove by SpeedyJR,1,0,0,1578878852,SpeedyJR,7375,8,44,©2019janicerodriguez beverlyshoresin mourningdove doves birds wildlife nature beverlyshoresindiana indiana speedyjr,41.69916,-86.944448,15,0,,4927276.0,1,0,0,0,,,,True
468,468,49376448621,35266951@N05,c3531a3bcb,65535,66,Northern Flicker by SpeedyJR,1,0,0,1578878853,SpeedyJR,7375,8,38,©2019janicerodriguez beverlyshoresin northernflicker flickers birds wildlife nature beverlyshoresindiana indiana speedyjr,41.69916,-86.944448,15,0,,4927276.0,1,0,0,0,,,,True
469,469,49375994333,35266951@N05,1eb8b04644,65535,66,Red-winged Blackbird by SpeedyJR,1,0,0,1578878854,SpeedyJR,7375,8,40,©2019janicerodriguez beverlyshoresin redwingedblackbird blackbirds birds wildlife nature beverlyshoresindiana indiana speedyjr,41.69916,-86.944448,15,0,,4927276.0,1,0,0,0,,,,True
470,470,49376651802,35266951@N05,31806d3115,65535,66,Song Sparrow by SpeedyJR,1,0,0,1578878854,SpeedyJR,7375,8,64,©2019janicerodriguez beverlyshoresin songsparrow sparrows birds wildlife nature beverlyshoresindiana indiana speedyjr,41.69916,-86.944448,15,0,,4927276.0,1,0,0,0,,,,True
471,471,49376448286,35266951@N05,e25fc1e4b6,65535,66,Tree Swallow by SpeedyJR,1,0,0,1578878855,SpeedyJR,7375,8,54,©2019janicerodriguez beverlyshoresin treeswallow swallows birds wildlife nature beverlyshoresindiana indiana speedyjr,41.69916,-86.944448,15,0,,4927276.0,1,0,0,0,,,,True
472,472,49376448171,35266951@N05,a9c2e26eed,65535,66,Yellow Warbler by SpeedyJR,1,0,0,1578878856,SpeedyJR,7375,8,83,©2019janicerodriguez beverlyshoresin yellowwarbler warblers birds wildlife nature beverlyshoresindiana indiana speedyjr,41.69916,-86.944448,15,0,,4927276.0,1,0,0,0,,,,True
473,473,49376448056,35266951@N05,6d90c988c1,65535,66,Yellow Warbler by SpeedyJR,1,0,0,1578878857,SpeedyJR,7375,8,94,©2019janicerodriguez beverlyshoresin yellowwarbler warblers birds wildlife nature beverlyshoresindiana indiana speedyjr,41.69916,-86.944448,15,0,,4927276.0,1,0,0,0,,,,True
525,525,49368084992,60009911@N04,4a6e7e0bc8,65535,66,CSS 2007 Passing Union Station,1,0,0,1578759890,SouthShoreTrain,2807,3,67,,41.605004,-87.33409,16,0,,7316980.0,1,0,0,0,,,,True
532,532,49353713941,95007796@N06,a451fbf700,65535,66,Dunes Park,1,0,0,1578530212,BravoDelta1999,4897,5,464,chicagosouthshoreandsouthbend csssb railroad css southshore freight railway dunespark indiana dunes national park emd gp382 2003 manifest train,41.644978,-87.0612,15,0,,4927301.0,1,0,0,0,0e99b8d4de,jpg,,True
542,542,49316958172,8432336@N08,805ae08a92,65535,66,The Decade Begins,1,0,0,1577982992,Clint Midwestwood,7753,8,248,,41.625884,-87.21221899999999,15,0,,7164792.0,1,0,0,0,,,,True
549,549,49283268643,15937237@N00,4db064a233,65535,66,1933 Chicago World's Fair Century of Progress Homes,1,0,0,1577485764,Stu_Jo,7422,8,49,1933 chicago worlds fair century progress homes 1933chicagoworldsfaircenturyofprogresshomes 1933chicagoworldsfair centuryofprogresshomes chicagoworldsfaircenturyofprogresshomes indiana dunes national park indianadunesnationalpark indianadunes nationalpark lakemichigan nationalregisterofhistoricplaces houseoftomorrow,41.684002,-87.000946,16,0,,7164557.0,1,0,0,0,,,,True
550,550,49283745936,15937237@N00,c6e807c303,65535,66,1933 Chicago World's Fair Century of Progress Homes,1,0,0,1577485760,Stu_Jo,7422,8,37,1933 chicago worlds fair century progress homes 1933chicagoworldsfaircenturyofprogresshomes 1933chicagoworldsfair centuryofprogresshomes chicagoworldsfaircenturyofprogresshomes indiana dunes national park indianadunesnationalpark indianadunes nationalpark lakemichigan nationalregisterofhistoricplaces houseoftomorrow,41.684002,-87.000946,16,0,,7164557.0,1,0,0,0,,,,True
551,551,49283950737,15937237@N00,ddc03ea1ff,65535,66,1933 Chicago World's Fair Century of Progress Homes,1,0,0,1577485764,Stu_Jo,7422,8,82,1933 chicago worlds fair century progress homes 1933chicagoworldsfaircenturyofprogresshomes 1933chicagoworldsfair centuryofprogresshomes chicagoworldsfaircenturyofprogresshomes indiana dunes national park indianadunesnationalpark indianadunes nationalpark lakemichigan nationalregisterofhistoricplaces houseoftomorrow,41.684002,-87.000946,16,0,,7164557.0,1,0,0,0,,,,True
552,552,49283950667,15937237@N00,ba9e5c64a5,65535,66,1933 Chicago World's Fair Century of Progress Homes,1,0,0,1577485760,Stu_Jo,7422,8,37,1933 chicago worlds fair century progress homes 1933chicagoworldsfaircenturyofprogresshomes 1933chicagoworldsfair centuryofprogresshomes chicagoworldsfaircenturyofprogresshomes indiana dunes national park indianadunesnationalpark indianadunes nationalpark lakemichigan nationalregisterofhistoricplaces houseoftomorrow,41.684002,-87.000946,16,0,,7164557.0,1,0,0,0,,,,True
553,553,49283745581,15937237@N00,f7756c4bf4,65535,66,1933 Chicago World's Fair Century of Progress Homes,1,0,0,1577485761,Stu_Jo,7422,8,35,1933 chicago worlds fair century progress homes 1933chicagoworldsfaircenturyofprogresshomes 1933chicagoworldsfair centuryofprogresshomes chicagoworldsfaircenturyofprogresshomes indiana dunes national park indianadunesnationalpark indianadunes nationalpark lakemichigan nationalregisterofhistoricplaces houseoftomorrow,41.684002,-87.000946,16,0,,7164557.0,1,0,0,0,,,,True
554,554,49283268108,15937237@N00,c1d1dba407,65535,66,1933 Chicago World's Fair Century of Progress Homes,1,0,0,1577485762,Stu_Jo,7422,8,38,1933 chicago worlds fair century progress homes 1933chicagoworldsfaircenturyofprogresshomes 1933chicagoworldsfair centuryofprogresshomes chicagoworldsfaircenturyofprogresshomes indiana dunes national park indianadunesnationalpark indianadunes nationalpark lakemichigan nationalregisterofhistoricplaces houseoftomorrow,41.684002,-87.000946,16,0,,7164557.0,1,0,0,0,,,,True
555,555,49283267923,15937237@N00,6e977fd69e,65535,66,1933 Chicago World's Fair Century of Progress Homes,1,0,0,1577485763,Stu_Jo,7422,8,42,1933 chicago worlds fair century progress homes 1933chicagoworldsfaircenturyofprogresshomes 1933chicagoworldsfair centuryofprogresshomes chicagoworldsfaircenturyofprogresshomes indiana dunes national park indianadunesnationalpark indianadunes nationalpark lakemichigan nationalregisterofhistoricplaces houseoftomorrow,41.684002,-87.000946,16,0,,7164557.0,1,0,0,0,,,,True
556,556,49283267763,15937237@N00,294350a13f,65535,66,1933 Chicago World's Fair Century of Progress Homes,1,0,0,1577485760,Stu_Jo,7422,8,34,1933 chicago worlds fair century progress homes 1933chicagoworldsfaircenturyofprogresshomes 1933chicagoworldsfair centuryofprogresshomes chicagoworldsfaircenturyofprogresshomes indiana dunes national park indianadunesnationalpark indianadunes nationalpark lakemichigan nationalregisterofhistoricplaces houseoftomorrow,41.684002,-87.000946,16,0,,7164557.0,1,0,0,0,,,,True
557,557,49283745056,15937237@N00,afea578486,65535,66,1933 Chicago World's Fair Century of Progress Homes,1,0,0,1577485765,Stu_Jo,7422,8,79,1933 chicago worlds fair century progress homes 1933chicagoworldsfaircenturyofprogresshomes 1933chicagoworldsfair centuryofprogresshomes chicagoworldsfaircenturyofprogresshomes indiana dunes national park indianadunesnationalpark indianadunes nationalpark lakemichigan nationalregisterofhistoricplaces houseoftomorrow,41.684002,-87.000946,16,0,,7164557.0,1,0,0,0,,,,True
558,558,49283267533,15937237@N00,d0268c6f7f,65535,66,1933 Chicago World's Fair Century of Progress Homes,1,0,0,1577485763,Stu_Jo,7422,8,38,1933 chicago worlds fair century progress homes 1933chicagoworldsfaircenturyofprogresshomes 1933chicagoworldsfair centuryofprogresshomes chicagoworldsfaircenturyofprogresshomes indiana dunes national park indianadunesnationalpark indianadunes nationalpark lakemichigan nationalregisterofhistoricplaces houseoftomorrow,41.684002,-87.000946,16,0,,7164557.0,1,0,0,0,,,,True
559,559,49283744826,15937237@N00,cde3c50926,65535,66,1933 Chicago World's Fair Century of Progress Homes,1,0,0,1577485766,Stu_Jo,7422,8,80,1933 chicago worlds fair century progress homes 1933chicagoworldsfaircenturyofprogresshomes 1933chicagoworldsfair centuryofprogresshomes chicagoworldsfaircenturyofprogresshomes indiana dunes national park indianadunesnationalpark indianadunes nationalpark lakemichigan nationalregisterofhistoricplaces houseoftomorrow,41.684002,-87.000946,16,0,,7164557.0,1,0,0,0,,,,True
560,560,49283949737,15937237@N00,1794557fc8,65535,66,1933 Chicago World's Fair Century of Progress Homes,1,0,0,1577485763,Stu_Jo,7422,8,42,1933 chicago worlds fair century progress homes 1933chicagoworldsfaircenturyofprogresshomes 1933chicagoworldsfair centuryofprogresshomes chicagoworldsfaircenturyofprogresshomes indiana dunes national park indianadunesnationalpark indianadunes nationalpark lakemichigan nationalregisterofhistoricplaces houseoftomorrow,41.684002,-87.000946,16,0,,7164557.0,1,0,0,0,,,,True
568,568,49260981858,60009911@N04,741dcc4336,65535,66,IHB 115 East at Ogden Dunes,1,0,0,1577060451,SouthShoreTrain,2807,3,4101,,41.617951,-87.185216,16,0,,4924412.0,1,0,0,0,,,,True
653,653,49045657903,60009911@N04,59058b62ff,65535,66,Canadians at Ogden Dunes,1,0,0,1573432711,SouthShoreTrain,2807,3,98,,41.618063,-87.184605,16,0,,4924412.0,1,0,0,0,,,,True
696,696,49283745421,15937237@N00,fe7d1e3de0,65535,66,1933 Chicago World's Fair Century of Progress Homes,1,0,0,1577485759,Stu_Jo,7422,8,33,1933 chicago worlds fair century progress homes 1933chicagoworldsfaircenturyofprogresshomes 1933chicagoworldsfair centuryofprogresshomes chicagoworldsfaircenturyofprogresshomes indiana dunes national park indianadunesnationalpark indianadunes nationalpark lakemichigan nationalregisterofhistoricplaces houseoftomorrow,41.68417,-87.00033499999999,16,0,,7164557.0,1,0,0,0,,,,True
697,697,49283950177,15937237@N00,81b1c55b8b,65535,66,1933 Chicago World's Fair Century of Progress Homes,1,0,0,1577485759,Stu_Jo,7422,8,31,1933 chicago worlds fair century progress homes 1933chicagoworldsfaircenturyofprogresshomes 1933chicagoworldsfair centuryofprogresshomes chicagoworldsfaircenturyofprogresshomes indiana dunes national park indianadunesnationalpark indianadunes nationalpark lakemichigan nationalregisterofhistoricplaces houseoftomorrow,41.683986,-87.001698,16,0,,4918099.0,1,0,0,0,,,,True
707,707,49179500672,12848619@N02,6bd86eed76,65535,66,"Chicago/Green Bay - June 14-16, 2019",1,0,0,1575659920,philsites,1668,2,2,,41.660938,-87.06902,16,0,,4919784.0,1,0,0,0,,,,True
708,708,49179290781,12848619@N02,91def12155,65535,66,"Chicago/Green Bay - June 14-16, 2019",1,0,0,1575659920,philsites,1668,2,2,,41.646177,-87.061334,16,0,,4927301.0,1,0,0,0,,,,True
709,709,49178798503,12848619@N02,228345dd09,65535,66,"Chicago/Green Bay - June 14-16, 2019",1,0,0,1575659920,philsites,1668,2,2,,41.646177,-87.061334,16,0,,4927301.0,1,0,0,0,,,,True
710,710,49179500437,12848619@N02,872dcd657a,65535,66,"Chicago/Green Bay - June 14-16, 2019",1,0,0,1575659918,philsites,1668,2,2,,41.646177,-87.061334,16,0,,4927301.0,1,0,0,0,,,,True
711,711,49179500367,12848619@N02,b289a401d4,65535,66,"Chicago/Green Bay - June 14-16, 2019",1,0,0,1575659919,philsites,1668,2,2,,41.646177,-87.061334,16,0,,4927301.0,1,0,0,0,,,,True
712,712,49179290481,12848619@N02,297f2329c7,65535,66,"Chicago/Green Bay - June 14-16, 2019",1,0,0,1575659918,philsites,1668,2,2,,41.646177,-87.061334,16,0,,4927301.0,1,0,0,0,,,,True
713,713,49178798198,12848619@N02,cf148120ee,65535,66,"Chicago/Green Bay - June 14-16, 2019",1,0,0,1575659918,philsites,1668,2,2,,41.646177,-87.061334,16,0,,4927301.0,1,0,0,0,,,,True
714,714,49178798093,12848619@N02,2d1803383e,65535,66,"Chicago/Green Bay - June 14-16, 2019",1,0,0,1575659918,philsites,1668,2,2,,41.646177,-87.061334,16,0,,4927301.0,1,0,0,0,,,,True
715,715,49179290291,12848619@N02,09dc0e3a20,65535,66,"Chicago/Green Bay - June 14-16, 2019",1,0,0,1575659917,philsites,1668,2,2,,41.661058000000004,-87.068878,16,0,,4919784.0,1,0,0,0,,,,True
716,716,49178797873,12848619@N02,e78f8fa6a2,65535,66,"Chicago/Green Bay - June 14-16, 2019",1,0,0,1575659917,philsites,1668,2,2,,41.661058000000004,-87.068878,16,0,,4919784.0,1,0,0,0,,,,True
717,717,49178797748,12848619@N02,c3e9f804dd,65535,66,"Chicago/Green Bay - June 14-16, 2019",1,0,0,1575659917,philsites,1668,2,2,,41.661058000000004,-87.068878,16,0,,4919784.0,1,0,0,0,,,,True
718,718,49179290131,12848619@N02,6199ecf255,65535,66,"Chicago/Green Bay - June 14-16, 2019",1,0,0,1575659916,philsites,1668,2,2,,41.661058000000004,-87.068878,16,0,,4919784.0,1,0,0,0,,,,True
719,719,49179290061,12848619@N02,f96d6cfafb,65535,66,"Chicago/Green Bay - June 14-16, 2019",1,0,0,1575659916,philsites,1668,2,2,,41.661258000000004,-87.068839,16,0,,4919784.0,1,0,0,0,,,,True
720,720,49179289966,12848619@N02,35d1b94dd1,65535,66,"Chicago/Green Bay - June 14-16, 2019",1,0,0,1575659916,philsites,1668,2,2,,41.661258000000004,-87.068839,16,0,,4919784.0,1,0,0,0,,,,True
721,721,49178797393,12848619@N02,690da8bcf5,65535,66,"Chicago/Green Bay - June 14-16, 2019",1,0,0,1575659916,philsites,1668,2,2,,41.661246999999996,-87.068256,16,0,,4919784.0,1,0,0,0,,,,True
722,722,49179289741,12848619@N02,a937ba52db,65535,66,"Chicago/Green Bay - June 14-16, 2019",1,0,0,1575659915,philsites,1668,2,2,,41.660788000000004,-87.06715600000001,16,0,,4919784.0,1,0,0,0,,,,True
723,723,49179499457,12848619@N02,52b09d49eb,65535,66,"Chicago/Green Bay - June 14-16, 2019",1,0,0,1575659914,philsites,1668,2,2,,41.646177,-87.061334,16,0,,4927301.0,1,0,0,0,,,,True
724,724,49179289606,12848619@N02,2b0f3ab69b,65535,66,"Chicago/Green Bay - June 14-16, 2019",1,0,0,1575659914,philsites,1668,2,2,,41.660691,-87.067275,16,0,,4919784.0,1,0,0,0,,,,True
725,725,49179499297,12848619@N02,79b55fa110,65535,66,"Chicago/Green Bay - June 14-16, 2019",1,0,0,1575659913,philsites,1668,2,2,,41.660740999999994,-87.067009,16,0,,4919784.0,1,0,0,0,,,,True
726,726,49179289466,12848619@N02,c5e02e52e6,65535,66,"Chicago/Green Bay - June 14-16, 2019",1,0,0,1575659913,philsites,1668,2,2,,41.660513,-87.067128,16,0,,4919784.0,1,0,0,0,,,,True
727,727,49179289381,12848619@N02,604e4d7ba4,65535,66,"Chicago/Green Bay - June 14-16, 2019",1,0,0,1575659912,philsites,1668,2,2,,41.660513,-87.067128,16,0,,4919784.0,1,0,0,0,,,,True
728,728,49179289331,12848619@N02,805da2be7c,65535,66,"Chicago/Green Bay - June 14-16, 2019",1,0,0,1575659913,philsites,1668,2,2,,41.660513,-87.067128,16,0,,4919784.0,1,0,0,0,,,,True
729,729,49179499012,12848619@N02,c475dbdd0c,65535,66,"Chicago/Green Bay - June 14-16, 2019",1,0,0,1575659911,philsites,1668,2,2,,41.660575,-87.067756,16,0,,4919784.0,1,0,0,0,,,,True
730,730,49179498957,12848619@N02,f8c92d05ea,65535,66,"Chicago/Green Bay - June 14-16, 2019",1,0,0,1575659911,philsites,1668,2,2,,41.660227,-87.06940300000001,16,0,,4919784.0,1,0,0,0,,,,True
731,731,49178790378,12848619@N02,eded893181,65535,66,"Chicago/Green Bay - June 14-16, 2019",1,0,0,1575659916,philsites,1668,2,2,,41.661111,-87.068056,16,0,,4919784.0,1,0,0,0,,,,True
732,732,49179282446,12848619@N02,89affb0fc2,65535,66,"Chicago/Green Bay - June 14-16, 2019",1,0,0,1575659915,philsites,1668,2,2,,41.660555,-87.06694499999999,16,0,,4919784.0,1,0,0,0,,,,True
744,744,48999119177,88729248@N02,38edfdd20f,65535,66,Indiana Dunes National Lakeshore,1,0,0,1572662527,matthewwebb2727,7319,8,7,,41.686658,-86.99627,16,0,,4918099.0,1,0,0,0,6de3ca6c33,jpg,,True
753,753,48933196031,58887120@N00,3c02d034f2,65535,66,,1,0,0,1571621989,chowmeyow,963,1,11,,41.686613,-86.99627,16,0,,4918099.0,1,0,0,0,c5ec178e6e,jpg,,True
754,754,48933382302,58887120@N00,7123e39188,65535,66,,1,0,0,1571621981,chowmeyow,963,1,10,,41.686588,-86.99627,16,0,,4918099.0,1,0,0,0,eb604f9d27,jpg,,True
755,755,48932645738,58887120@N00,5effaf5c5c,65535,66,,1,0,0,1571621880,chowmeyow,963,1,5,,41.669522,-86.98309499999999,16,0,,4924827.0,1,0,0,0,502d7cc0dc,jpg,,True
756,756,48932645713,58887120@N00,28ca9fc821,65535,66,,1,0,0,1571621880,chowmeyow,963,1,5,,41.678933,-86.9832,16,0,,7164557.0,1,0,0,0,60cbafec62,jpg,,True
757,757,48932645698,58887120@N00,6f45f65654,65535,66,,1,0,0,1571621879,chowmeyow,963,1,5,,41.678944,-86.9832,16,0,,7164557.0,1,0,0,0,5e481238b1,jpg,,True
761,761,48933183221,58887120@N00,af10e4b0e2,65535,66,,1,0,0,1571621816,chowmeyow,963,1,6,,41.627033000000004,-87.20291999999999,16,0,,7164792.0,1,0,0,0,6f63ca9df1,jpg,,True
762,762,48933369812,58887120@N00,365692c02b,65535,66,,1,0,0,1571621813,chowmeyow,963,1,5,,41.627058,-87.202934,16,0,,7164792.0,1,0,0,0,b2af589925,jpg,,True
763,763,48933369662,58887120@N00,8d167f53b4,65535,66,,1,0,0,1571621810,chowmeyow,963,1,5,,41.626969,-87.203475,16,0,,7164792.0,1,0,0,0,d257ba2cf5,jpg,,True
764,764,48932636363,58887120@N00,315c3b2d44,65535,66,,1,0,0,1571621752,chowmeyow,963,1,5,,41.623336,-87.20382,16,0,,4924412.0,1,0,0,0,399cb7ce1b,jpg,,True
765,765,48932636383,58887120@N00,d6fb771a06,65535,66,,1,0,0,1571621752,chowmeyow,963,1,5,,41.622440999999995,-87.20630600000001,16,0,,4924412.0,1,0,0,0,d285e7521c,jpg,,True
768,768,48921553441,80637541@N08,bf43224cf7,65535,66,dune,1,0,0,1571447268,Adrian Radic,3733,4,28,,41.62455,-87.200973,16,0,,4924412.0,1,0,0,0,0d277c1305,jpg,,True
771,771,48895833576,80637541@N08,19e33f947d,65535,66,mmm (from the other day - remained in the spontaneous upload pipe),1,0,0,1571035148,Adrian Radic,3733,4,61,,41.62685,-87.203209,16,0,,7164792.0,1,0,0,0,186c7862f4,jpg,,True
772,772,48885818583,80637541@N08,2c84cc8f4b,65535,66,around,1,0,0,1570901722,Adrian Radic,3733,4,67,,41.618102,-87.198142,16,0,,4924412.0,1,0,0,0,23f39d0d42,jpg,,True
776,776,48809085758,8820084@N02,86a60a7cf3,65535,66,IndianaDunesFloridaHouseMorning_film-626,1,0,0,1569692091,wanderingYew2 (thanks for 5M+ views!),7348,8,1318,120 1933chicagoworldsfaircenturyofprogresshomes 19331934chicagoworldfair 6x9 acenturyofprogressinternationalexposition floridatropicalhouse floridatropicalhome fuji6x9 fujigw690 indiana indianadunesnationalpark nationalpark film filmscan,41.684329999999996,-87.001011,16,0,,4918099.0,1,0,0,0,,,,True
777,777,48806088683,24842953@N04,622d720b42,65535,66,Indiana Dunes national park,1,0,0,1569637704,Prairie Star,2412,3,477,nationalparkservice sky bluesky unitedstates indiana midwest trees sunny outdoor sand sanddunes outside indianadunesnationalpark nationalpark hike sunshine spring,41.709953000000006,-86.926242,16,0,,4923531.0,1,0,0,0,,,,True
778,778,48801295056,8820084@N02,a64b38ea3a,65535,66,IndianaDunesEvening-1625,1,0,0,1569543446,wanderingYew2 (thanks for 5M+ views!),7348,8,421,19331934chicagoworldfair acenturyofprogressinternationalexposition indiana indianadunesnationalpark lakemichigan nationalpark,41.684186,-87.001687,16,0,,4918099.0,1,0,0,0,,,,True
779,779,48800574552,8820084@N02,4f5f1c9080,65535,66,IndianaDunesEvening_film-627,1,0,0,1569529231,wanderingYew2 (thanks for 5M+ views!),7348,8,1432,120 1933chicagoworldsfaircenturyofprogresshomes 19331934chicagoworldfair 6x9 fuji6x9 fujigw690 indiana indianadunesnationalpark lakemichigan wieboldtrostonehouse film filmscan mediumformat,41.684194,-87.001665,16,0,,4918099.0,1,0,0,0,,,,True
780,780,48800429731,8820084@N02,7992555b5f,65535,66,IndianaDunesEvening_film-625,1,0,0,1569529231,wanderingYew2 (thanks for 5M+ views!),7348,8,1676,120 1933chicagoworldsfaircenturyofprogresshomes 19331934chicagoworldfair 6x9 acenturyofprogressinternationalexposition floridatropicalhouse floridatropicalhome fuji6x9 fujigw690 indiana indianadunesnationalpark nationalpark film filmscan mediumformat,41.684186,-87.001558,16,0,,4918099.0,1,0,0,0,,,,True
850,850,48907266318,124397656@N08,9c5914b1ea,65535,66,USA,1,0,0,1571217503,paul.haywood26,4168,5,323,,41.700984000000005,-86.930717,16,0,,4923531.0,1,0,0,0,459f4191f5,jpg,,True
855,855,48815274723,8820084@N02,668179ee7b,65535,66,IndianaDunesWildflowers-1656,1,0,0,1569778626,wanderingYew2 (thanks for 5M+ views!),7348,8,310,indiana indianadunesnationalpark nationalpark flower wildflower,41.684098,-87.001837,16,0,,4918099.0,1,0,0,0,,,,True
861,861,48815555731,8820084@N02,24592a6120,65535,66,IndianaDunesWildflowers-1670,1,0,0,1569778327,wanderingYew2 (thanks for 5M+ views!),7348,8,106,centralbeach indiana indianadunesnationalpark nationalpark flower wildflower,41.701547,-86.95040300000001,16,0,,4927276.0,1,0,0,0,,,,True
862,862,48815200528,8820084@N02,809cb45084,65535,66,IndianaDunesWildflowers-1669,1,0,0,1569778327,wanderingYew2 (thanks for 5M+ views!),7348,8,73,centralbeach indiana indianadunesnationalpark nationalpark flower wildflower,41.701547,-86.95040300000001,16,0,,4927276.0,1,0,0,0,,,,True
863,863,48815200358,8820084@N02,d919c252b4,65535,66,IndianaDunesWildflowers-1665,1,0,0,1569778327,wanderingYew2 (thanks for 5M+ views!),7348,8,90,centralbeach indiana indianadunesnationalpark nationalpark flower wildflower,41.701547,-86.95040300000001,16,0,,4927276.0,1,0,0,0,,,,True
864,864,48815704807,8820084@N02,1ac9561d2e,65535,66,IndianaDunesWildflowers-1661,1,0,0,1569778326,wanderingYew2 (thanks for 5M+ views!),7348,8,81,centralbeach indiana indianadunesnationalpark nationalpark flower wildflower,41.701634999999996,-86.950489,16,0,,4927276.0,1,0,0,0,,,,True
865,865,48815200098,8820084@N02,759a674646,65535,66,IndianaDunesWildflowers-1660,1,0,0,1569778326,wanderingYew2 (thanks for 5M+ views!),7348,8,106,centralbeach indiana indianadunesnationalpark nationalpark flower wildflower,41.701634999999996,-86.950489,16,0,,4927276.0,1,0,0,0,,,,True
866,866,48815199978,8820084@N02,427025fd1a,65535,66,IndianaDunesWildflowers-1659,1,0,0,1569778326,wanderingYew2 (thanks for 5M+ views!),7348,8,76,centralbeach indiana indianadunesnationalpark nationalpark flower wildflower,41.701634999999996,-86.950489,16,0,,4927276.0,1,0,0,0,,,,True
867,867,48815704482,8820084@N02,9cdab05066,65535,66,IndianaDunesNPFoundations-1658,1,0,0,1569778325,wanderingYew2 (thanks for 5M+ views!),7348,8,65,19331934chicagoworldfair acenturyofprogressinternationalexposition indiana indianadunesnationalpark nationalpark,41.683473,-87.002899,16,0,,7164557.0,1,0,0,0,,,,True
868,868,48815554711,8820084@N02,ec08bf86b6,65535,66,IndianaDunesNPFoundations-1657,1,0,0,1569778325,wanderingYew2 (thanks for 5M+ views!),7348,8,64,19331934chicagoworldfair acenturyofprogressinternationalexposition indiana indianadunesnationalpark nationalpark,41.683473,-87.002899,16,0,,7164557.0,1,0,0,0,,,,True
869,869,48814072823,8820084@N02,c0ddc7db4c,65535,66,IndianaDunesCeniuryProgressHomes-1654,1,0,0,1569767070,wanderingYew2 (thanks for 5M+ views!),7348,8,192,1933chicagoworldsfaircenturyofprogresshomes 19331934chicagoworldfair acenturyofprogressinternationalexposition armcoferrohouse indiana indianadunesnationalpark nationalpark,41.684026,-87.001397,16,0,,4918099.0,1,0,0,0,,,,True
870,870,48814072708,8820084@N02,cc099e3e51,65535,66,IndianaDunesCenturyProgressHomes-1653,1,0,0,1569767070,wanderingYew2 (thanks for 5M+ views!),7348,8,98,1933chicagoworldsfaircenturyofprogresshomes 19331934chicagoworldfair acenturyofprogressinternationalexposition floridatropicalhouse floridatropicalhome indiana indianadunesnationalpark nationalpark,41.684354,-87.000796,16,0,,4918099.0,1,0,0,0,,,,True
871,871,48814429051,8820084@N02,9acd34b289,65535,66,IndianaDunesCenturyProgressHomes-1652,1,0,0,1569767069,wanderingYew2 (thanks for 5M+ views!),7348,8,91,1933chicagoworldsfaircenturyofprogresshomes 19331934chicagoworldfair acenturyofprogressinternationalexposition floridatropicalhouse floridatropicalhome indiana indianadunesnationalpark nationalpark,41.684354,-87.000796,16,0,,4918099.0,1,0,0,0,,,,True
872,872,48814072453,8820084@N02,0479483228,65535,66,IndianaDunesCenturyProgressHomes-1651,1,0,0,1569767069,wanderingYew2 (thanks for 5M+ views!),7348,8,78,1933chicagoworldsfaircenturyofprogresshomes 19331934chicagoworldfair acenturyofprogressinternationalexposition floridatropicalhouse floridatropicalhome indiana indianadunesnationalpark nationalpark,41.684354,-87.000796,16,0,,4918099.0,1,0,0,0,,,,True
873,873,48814428766,8820084@N02,e2989a9777,65535,66,"Coming Soon -- ""The House of Tomorrow""",1,0,0,1569767068,wanderingYew2 (thanks for 5M+ views!),7348,8,70,19331934chicagoworldfair acenturyofprogressinternationalexposition indiana indianadunesnationalpark nationalpark houseoftomorrow,41.684178,-87.001086,16,0,,4918099.0,1,0,0,0,,,,True
874,874,48814428496,8820084@N02,29348dc958,65535,66,IndianaDunesCenturyProgressHomes-1649,1,0,0,1569767068,wanderingYew2 (thanks for 5M+ views!),7348,8,72,1933chicagoworldsfaircenturyofprogresshomes 19331934chicagoworldfair acenturyofprogressinternationalexposition floridatropicalhouse floridatropicalhome indiana indianadunesnationalpark nationalpark,41.684129999999996,-87.00123599999999,16,0,,4918099.0,1,0,0,0,,,,True
875,875,48814428391,8820084@N02,552ba2af35,65535,66,IndianaDunesCenturyProgressHomes-065016,1,0,0,1569767068,wanderingYew2 (thanks for 5M+ views!),7348,8,50,armcoferrohouse indiana indianadunesnationalpark nationalpark,41.683752,-87.002003,16,0,,7164557.0,1,0,0,0,,,,True
876,876,48814579037,8820084@N02,552fb36e53,65535,66,IndianaDunesCenturyProgressHomes-064903,1,0,0,1569767067,wanderingYew2 (thanks for 5M+ views!),7348,8,66,19331934chicagoworldfair acenturyofprogressinternationalexposition indiana indianadunesnationalpark nationalpark wieboldtrostonehouse,41.683752,-87.002003,16,0,,7164557.0,1,0,0,0,,,,True
877,877,48809582467,8820084@N02,b39dec3435,65535,66,IndianaDunesLakeviewBeachSunset-1640,1,0,0,1569692090,wanderingYew2 (thanks for 5M+ views!),7348,8,379,chicagoskyline indiana indianadunesnationalpark lakemichigan lakeviewbeach nationalpark beach sunset,41.68699,-86.995614,16,0,,4918099.0,1,0,0,0,,,,True
878,878,48809582367,8820084@N02,f5a37843d4,65535,66,IndianaDunesLakeviewBeachSunset-1638,1,0,0,1569692090,wanderingYew2 (thanks for 5M+ views!),7348,8,298,chicagoskyline indiana indianadunesnationalpark lakemichigan lakeviewbeach nationalpark beach sunset,41.68699,-86.995614,16,0,,4918099.0,1,0,0,0,,,,True
879,879,48809582172,8820084@N02,f0ec66e3c5,65535,66,IndianaDunesLakeviewBeachSunset-1637,1,0,0,1569692090,wanderingYew2 (thanks for 5M+ views!),7348,8,233,chicagoskyline indiana indianadunesnationalpark lakemichigan lakeviewbeach nationalpark beach sunset,41.68699,-86.995614,16,0,,4918099.0,1,0,0,0,,,,True
880,880,48809435531,8820084@N02,011a7db7e8,65535,66,IndianaDunesLakeviewBeachSunset-1636,1,0,0,1569692090,wanderingYew2 (thanks for 5M+ views!),7348,8,188,chicagoskyline indiana indianadunesnationalpark lakemichigan lakeviewbeach nationalpark beach sunset,41.68699,-86.995614,16,0,,4918099.0,1,0,0,0,,,,True
882,882,48805335377,8820084@N02,b971a280d4,65535,66,IndianaDunesLakeviewBeachSunset-1633,1,0,0,1569615098,wanderingYew2 (thanks for 5M+ views!),7348,8,196,chicagoskyline indiana indianadunesnationalpark lakemichigan lakeviewbeach nationalpark beach sunset,41.686846,-86.995979,16,0,,4918099.0,1,0,0,0,,,,True
883,883,48804843238,8820084@N02,7a821f682e,65535,66,IndianaDunesLakeviewBeachSunset-1631,1,0,0,1569615097,wanderingYew2 (thanks for 5M+ views!),7348,8,125,chicagoskyline indiana indianadunesnationalpark lakemichigan lakeviewbeach nationalpark beach sunset,41.686846,-86.995979,16,0,,4918099.0,1,0,0,0,,,,True
884,884,48804843008,8820084@N02,92fa4f0d84,65535,66,IndianaDunesLakeviewBeachSunset-1632,1,0,0,1569615098,wanderingYew2 (thanks for 5M+ views!),7348,8,125,chicagoskyline indiana indianadunesnationalpark lakemichigan lakeviewbeach nationalpark beach sunset,41.686846,-86.995979,16,0,,4918099.0,1,0,0,0,,,,True
885,885,48805193006,8820084@N02,29f7516b5a,65535,66,IndianaDunesLakeviewBeachSunset-1627,1,0,0,1569615096,wanderingYew2 (thanks for 5M+ views!),7348,8,184,chicagoskyline indiana indianadunesnationalpark lakemichigan lakeviewbeach nationalpark beach sunset,41.686846,-86.995979,16,0,,4918099.0,1,0,0,0,,,,True
886,886,48805334587,8820084@N02,0024416243,65535,66,IndianaDunesLakeviewBeachSunset-1630,1,0,0,1569615096,wanderingYew2 (thanks for 5M+ views!),7348,8,111,chicagoskyline indiana indianadunesnationalpark lakemichigan lakeviewbeach nationalpark beach sunset,41.686846,-86.995979,16,0,,4918099.0,1,0,0,0,,,,True
921,921,48787750538,50313109@N00,4a0ce60002,65535,66,Michigan City IN Photo:   NICTD (Northern Indiana Commuter Transportation District) South Shores EMU Train Westbound For Chicago IL,1,0,0,1569336815,drum118,3684,4,68,indianaphoto michigancityinphoto uscommuterrail nictdnorthernindianacommutertransportationdistrict nictdsouthshoresemutrainwestboundforchicagoil usphoto,41.706369,-86.92420600000001,16,0,,,1,0,0,0,,,,True
922,922,48788260172,50313109@N00,af571fb7e4,65535,66,Michigan City IN Photo:   NICTD (Northern Indiana Commuter Transportation District) South Shores EMU Train Westbound For Chicago IL,1,0,0,1569336815,drum118,3684,4,59,indianaphoto michigancityinphoto uscommuterrail nictdnorthernindianacommutertransportationdistrict nictdsouthshoresemutrainwestboundforchicagoil usphoto,41.706394,-86.924198,16,0,,4923531.0,1,0,0,0,,,,True
941,941,48762949176,24537422@N02,230004d33a,65535,66,2019_09_11_Indiana Dunes Natl Park (12),1,0,0,1568994943,AZ_Michael,2843,3,19,indianadunes nationalpark travel family indiana casitalitalife wander explore,41.669361,-86.984275,16,0,,4924827.0,1,0,0,0,d3fa77f57f,jpg,,True
942,942,48763136702,24537422@N02,a7db0f8b5b,65535,66,2019_09_11_Indiana Dunes Natl Park (15),1,0,0,1568994945,AZ_Michael,2843,3,17,indianadunes nationalpark travel family indiana casitalitalife wander explore,41.673313,-86.986412,16,0,,7164557.0,1,0,0,0,1d5f58a13f,jpg,,True
943,943,48763136597,24537422@N02,7777e1e2c1,65535,66,2019_09_11_Indiana Dunes Natl Park (16),1,0,0,1568994946,AZ_Michael,2843,3,18,indianadunes nationalpark travel family indiana casitalitalife wander explore,41.669315999999995,-86.984603,16,0,,4924827.0,1,0,0,0,224bd0ffcd,jpg,,True
944,944,48762948666,24537422@N02,d3c7a8237e,65535,66,2019_09_11_Indiana Dunes Natl Park (17),1,0,0,1568994947,AZ_Michael,2843,3,19,indianadunes nationalpark travel family indiana casitalitalife wander explore,41.686011,-86.996659,16,0,,4918099.0,1,0,0,0,98be234c64,jpg,,True
945,945,48763136232,24537422@N02,91e87c5c60,65535,66,2019_09_11_Indiana Dunes Natl Park (18),1,0,0,1568994947,AZ_Michael,2843,3,19,indianadunes nationalpark travel family indiana casitalitalife wander explore,41.686071999999996,-86.996712,16,0,,4918099.0,1,0,0,0,ac074c53d0,jpg,,True
946,946,48762948436,24537422@N02,ecb525b78a,65535,66,2019_09_11_Indiana Dunes Natl Park (19),1,0,0,1568994948,AZ_Michael,2843,3,18,indianadunes nationalpark travel family indiana casitalitalife wander explore,41.683924,-87.0017,16,0,,4918099.0,1,0,0,0,5222e335b0,jpg,,True
947,947,48762627973,24537422@N02,bf2fc62aee,65535,66,2019_09_11_Indiana Dunes Natl Park (20),1,0,0,1568994949,AZ_Michael,2843,3,17,indianadunes nationalpark travel family indiana casitalitalife wander explore,41.683863,-87.00183100000001,16,0,,4918099.0,1,0,0,0,2871ccd668,jpg,,True
948,948,48763135842,24537422@N02,93a4f42fc3,65535,66,2019_09_11_Indiana Dunes Natl Park (21),1,0,0,1568994949,AZ_Michael,2843,3,18,indianadunes nationalpark travel family indiana casitalitalife wander explore,41.684138,-87.001412,16,0,,4918099.0,1,0,0,0,13de736d14,jpg,,True
949,949,48762627383,24537422@N02,ae630b3349,65535,66,2019_09_11_Indiana Dunes Natl Park (22),1,0,0,1568994950,AZ_Michael,2843,3,19,indianadunes nationalpark travel family indiana casitalitalife wander explore,41.684094,-87.001442,16,0,,4918099.0,1,0,0,0,3b71d6e18f,jpg,,True
950,950,48762627198,24537422@N02,47f3b05c4a,65535,66,2019_09_11_Indiana Dunes Natl Park (23),1,0,0,1568994951,AZ_Michael,2843,3,19,indianadunes nationalpark travel family indiana casitalitalife wander explore,41.684146999999996,-87.001412,16,0,,4918099.0,1,0,0,0,7745713a63,jpg,,True
951,951,48762947361,24537422@N02,678cc5b0ea,65535,66,2019_09_11_Indiana Dunes Natl Park (24),1,0,0,1568994951,AZ_Michael,2843,3,19,indianadunes nationalpark travel family indiana casitalitalife wander explore,41.684077,-87.001153,16,0,,4918099.0,1,0,0,0,22273bdbcd,jpg,,True
952,952,48762626848,24537422@N02,f8b4d5a0d9,65535,66,2019_09_11_Indiana Dunes Natl Park (25),1,0,0,1568994952,AZ_Michael,2843,3,20,indianadunes nationalpark travel family indiana casitalitalife wander explore,41.684104999999995,-87.001053,16,0,,4918099.0,1,0,0,0,4a035a1573,jpg,,True
953,953,48762626698,24537422@N02,0496fb19ca,65535,66,2019_09_11_Indiana Dunes Natl Park (26),1,0,0,1568994953,AZ_Michael,2843,3,19,indianadunes nationalpark travel family indiana casitalitalife wander explore,41.684098999999996,-87.00104499999999,16,0,,7164557.0,1,0,0,0,e635926b71,jpg,,True
954,954,48762626538,24537422@N02,1a2aa6829a,65535,66,2019_09_11_Indiana Dunes Natl Park (27),1,0,0,1568994954,AZ_Michael,2843,3,27,indianadunes nationalpark travel family indiana casitalitalife wander explore,41.6844,-87.00110600000001,16,0,,4918099.0,1,0,0,0,f5fd4c70e7,jpg,,True
955,955,48762626253,24537422@N02,e9109c1f97,65535,66,2019_09_11_Indiana Dunes Natl Park (28),1,0,0,1568994955,AZ_Michael,2843,3,28,indianadunes nationalpark travel family indiana casitalitalife wander explore,41.684177000000005,-87.000817,16,0,,4918099.0,1,0,0,0,0ce824b5ec,jpg,,True
956,956,48762626043,24537422@N02,a0d7a71409,65535,66,2019_09_11_Indiana Dunes Natl Park (29),1,0,0,1568994956,AZ_Michael,2843,3,28,indianadunes nationalpark travel family indiana casitalitalife wander explore,41.68418,-87.000825,16,0,,4918099.0,1,0,0,0,efc8e22672,jpg,,True
957,957,48763133222,24537422@N02,c72608282e,65535,66,2019_09_11_Indiana Dunes Natl Park (30),1,0,0,1568994956,AZ_Michael,2843,3,28,indianadunes nationalpark travel family indiana casitalitalife wander explore,41.686541,-86.995925,16,0,,4918099.0,1,0,0,0,74eab252f8,jpg,,True
958,958,48762945541,24537422@N02,b64aa28dfc,65535,66,2019_09_11_Indiana Dunes Natl Park (31),1,0,0,1568994957,AZ_Michael,2843,3,28,indianadunes nationalpark travel family indiana casitalitalife wander explore,41.688022,-86.99221700000001,16,0,,4918099.0,1,0,0,0,de68a1a238,jpg,,True
959,959,48763132562,24537422@N02,6b3012e854,65535,66,2019_09_11_Indiana Dunes Natl Park (32),1,0,0,1568994957,AZ_Michael,2843,3,27,indianadunes nationalpark travel family indiana casitalitalife wander explore,41.686927000000004,-86.994173,16,0,,4918099.0,1,0,0,0,f72c06391d,jpg,,True
960,960,48763132392,24537422@N02,daedefbb71,65535,66,2019_09_11_Indiana Dunes Natl Park (33),1,0,0,1568994958,AZ_Michael,2843,3,26,indianadunes nationalpark travel family indiana casitalitalife wander explore,41.706596999999995,-86.929864,16,0,,4923531.0,1,0,0,0,32a38dd7cf,jpg,,True
961,961,48762944651,24537422@N02,b1ff659fa9,65535,66,2019_09_11_Indiana Dunes Natl Park (34),1,0,0,1568994959,AZ_Michael,2843,3,25,indianadunes nationalpark travel family indiana casitalitalife wander explore,41.706708,-86.932128,16,0,,4923531.0,1,0,0,0,28523d96e4,jpg,,True
962,962,48763131852,24537422@N02,f732a1b5c0,65535,66,2019_09_11_Indiana Dunes Natl Park (35),1,0,0,1568994959,AZ_Michael,2843,3,26,indianadunes nationalpark travel family indiana casitalitalife wander explore,41.706804999999996,-86.932312,16,0,,4923531.0,1,0,0,0,0ec5e38bd1,jpg,,True
963,963,48763131662,24537422@N02,cc5aa19633,65535,66,2019_09_11_Indiana Dunes Natl Park (36),1,0,0,1568994960,AZ_Michael,2843,3,25,indianadunes nationalpark travel family indiana casitalitalife wander explore,41.708315999999996,-86.933212,16,0,,4923531.0,1,0,0,0,4b43d05855,jpg,,True
964,964,48762623713,24537422@N02,271f1d735a,65535,66,2019_09_11_Indiana Dunes Natl Park (37),1,0,0,1568994961,AZ_Michael,2843,3,24,indianadunes nationalpark travel family indiana casitalitalife wander explore,41.708758,-86.93342,16,0,,4923531.0,1,0,0,0,c4ab0f3f54,jpg,,True
965,965,48762623523,24537422@N02,15618c330f,65535,66,2019_09_11_Indiana Dunes Natl Park (38),1,0,0,1568994962,AZ_Michael,2843,3,26,indianadunes nationalpark travel family indiana casitalitalife wander explore,41.708694,-86.933128,16,0,,4923531.0,1,0,0,0,fd43f683c1,jpg,,True
966,966,48762623383,24537422@N02,83cc78a63a,65535,66,2019_09_11_Indiana Dunes Natl Park (39),1,0,0,1568994963,AZ_Michael,2843,3,26,indianadunes nationalpark travel family indiana casitalitalife wander explore,41.709019,-86.93325899999999,16,0,,4923531.0,1,0,0,0,b1322b8844,jpg,,True
967,967,48763130902,24537422@N02,59afae3cb6,65535,66,2019_09_11_Indiana Dunes Natl Park (44),1,0,0,1568994965,AZ_Michael,2843,3,29,indianadunes nationalpark travel family indiana casitalitalife wander explore,41.70815,-86.935959,16,0,,4923531.0,1,0,0,0,be70084eb6,jpg,,True
968,968,48762622773,24537422@N02,aba8fe0fa8,65535,66,2019_09_11_Indiana Dunes Natl Park (47),1,0,0,1568994967,AZ_Michael,2843,3,29,indianadunes nationalpark travel family indiana casitalitalife wander explore,41.708011,-86.935898,16,0,,4923531.0,1,0,0,0,9256cbc754,jpg,,True
970,970,48762942811,24537422@N02,0f85eda9ae,65535,66,2019_09_11_Indiana Dunes Natl Park (49),1,0,0,1568994968,AZ_Michael,2843,3,27,indianadunes nationalpark travel family indiana casitalitalife wander explore,41.706955,-86.93025300000001,16,0,,4923531.0,1,0,0,0,56c15c62d5,jpg,,True
971,971,48762942521,24537422@N02,d07cd84c63,65535,66,2019_09_11_Indiana Dunes Natl Park (50),1,0,0,1568994969,AZ_Michael,2843,3,28,indianadunes nationalpark travel family indiana casitalitalife wander explore,41.707122,-86.92914499999999,16,0,,4923531.0,1,0,0,0,f8a8919075,jpg,,True
972,972,48763129747,24537422@N02,215fb2725a,65535,66,2019_09_11_Indiana Dunes Natl Park (51),1,0,0,1568994969,AZ_Michael,2843,3,28,indianadunes nationalpark travel family indiana casitalitalife wander explore,41.672488,-86.985742,16,0,,7164557.0,1,0,0,0,1ae275bbb2,jpg,,True
973,973,48763129607,24537422@N02,54c6f2b339,65535,66,2019_09_11_Indiana Dunes Natl Park (52),1,0,0,1568994970,AZ_Michael,2843,3,27,indianadunes nationalpark travel family indiana casitalitalife wander explore,41.672402000000005,-86.985742,16,0,,7164557.0,1,0,0,0,003f96c09c,jpg,,True
974,974,48762942081,24537422@N02,b968473e69,65535,66,2019_09_11_Indiana Dunes Natl Park (53),1,0,0,1568994971,AZ_Michael,2843,3,27,indianadunes nationalpark travel family indiana casitalitalife wander explore,41.669333,-86.984573,16,0,,4924827.0,1,0,0,0,05425c8090,jpg,,True
975,975,48762941846,24537422@N02,45ffdca05f,65535,66,2019_09_11_Indiana Dunes Natl Park (54),1,0,0,1568994972,AZ_Michael,2843,3,27,indianadunes nationalpark travel family indiana casitalitalife wander explore,41.669502,-86.984589,16,0,,4924827.0,1,0,0,0,bd775b655e,jpg,,True
976,976,48762941726,24537422@N02,d17864cd6e,65535,66,2019_09_11_Indiana Dunes Natl Park (55),1,0,0,1568994973,AZ_Michael,2843,3,26,indianadunes nationalpark travel family indiana casitalitalife wander explore,41.675736,-86.99494200000001,16,0,,7164557.0,1,0,0,0,7389362178,jpg,,True
977,977,48762586228,24537422@N02,b4769381da,65535,66,2019_09_11_Indiana Dunes Natl Park (13),1,0,0,1568994944,AZ_Michael,2843,3,17,indianadunes nationalpark travel family indiana casitalitalife wander explore,41.669472,-86.9842,16,0,,4924827.0,1,0,0,0,a7e128cc5b,jpg,,True
978,978,48762586098,24537422@N02,0693a73b89,65535,66,2019_09_11_Indiana Dunes Natl Park (14),1,0,0,1568994945,AZ_Michael,2843,3,17,indianadunes travel nationalpark family indiana casitalitalife wander explore,41.669691,-86.983537,16,0,,4927276.0,1,0,0,0,c423c94681,jpg,,True
981,981,48678029377,50615271@N06,e68a3c6421,65535,66,Beach day at the dunes,1,0,0,1567612383,jtpenny,7860,8,80,,41.659622999999996,-87.063946,16,0,,4927301.0,1,0,0,0,,,,True
992,992,48653386671,19531332@N03,0eaf8e7ae4,65535,66,Train 107 at Dune Park,1,0,0,1567261935,Metra 614,8140,9,430,,41.644926,-87.060997,16,0,,4927301.0,1,0,0,0,,,,True
996,996,48627096848,138579418@N07,93e71bbdc6,65535,66,milkweed tussock moth (Euchaetes egle),1,0,0,1566866168,DJ.Pilla,862,1,23,milkweed tussock moth euchaetes egle caterpillar,41.654444,-87.068612,16,0,,4919784.0,1,0,0,0,ff42a30f96,jpg,,True
997,997,48627594592,138579418@N07,764d3f8b8a,65535,66,milkweed tussock moth (Euchaetes egle),1,0,0,1566866168,DJ.Pilla,862,1,21,milkweed tussock moth euchaetes egle caterpillar,41.654444,-87.068612,16,0,,4919784.0,1,0,0,0,5af713980d,jpg,,True
998,998,48623527153,106103855@N04,0898b04f3d,65535,66,Conrail 5010 - 7/3/1996,1,0,0,1566825333,First.Light.55,2827,3,1835,,41.619906,-87.119961,16,0,,7164587.0,1,0,0,0,0b0fbcf177,jpg,,True
1011,1011,48469393127,80176199@N00,a1f0076529,65535,66,DSC09041,1,0,0,1565066347,tmedvick,7459,8,13,072019 indianadunesnp,41.631483,-87.178659,15,0,,7164792.0,1,0,0,0,cdb91bd7ac,jpg,,True
1012,1012,48469392712,80176199@N00,45ffd3e871,65535,66,DSC09013,1,0,0,1565066348,tmedvick,7459,8,14,072019 indianadunesnp,41.631483,-87.178659,15,0,,7164792.0,1,0,0,0,16003ac009,jpg,,True
1013,1013,48469392437,80176199@N00,580f4857c8,65535,66,DSC08999,1,0,0,1565066349,tmedvick,7459,8,16,072019 indianadunesnp,41.631483,-87.178659,15,0,,7164792.0,1,0,0,0,ce28cc2abf,jpg,,True
1014,1014,48460077736,80176199@N00,6575af9947,65535,66,DSC09023,1,0,0,1564983151,tmedvick,7459,8,17,2019 072019 indianadunesnp,41.631483,-87.178659,15,0,,7164792.0,1,0,0,0,72aca0642b,jpg,,True
1015,1015,48460243517,80176199@N00,a437f85e55,65535,66,DSC09044,1,0,0,1564983151,tmedvick,7459,8,16,2019 072019 indianadunesnp,41.631483,-87.178659,15,0,,7164792.0,1,0,0,0,13cdd6f2d3,jpg,,True
1016,1016,48460243032,80176199@N00,a8b9ba4d1b,65535,66,DSC09056,1,0,0,1564983152,tmedvick,7459,8,18,2019 072019 indianadunesnp,41.631483,-87.178659,15,0,,7164792.0,1,0,0,0,d4fe599831,jpg,,True
1017,1017,48460075971,80176199@N00,830bc4c5a8,65535,66,DSC09059,1,0,0,1564983153,tmedvick,7459,8,16,2019 072019 indianadunesnp,41.631483,-87.178659,15,0,,7164792.0,1,0,0,0,a134918452,jpg,,True
1018,1018,48460241462,80176199@N00,d31c0252cf,65535,66,DSC09061,1,0,0,1564983153,tmedvick,7459,8,17,2019 072019 indianadunesnp,41.631483,-87.178659,15,0,,7164792.0,1,0,0,0,01284166c8,jpg,,True
1019,1019,48460075266,80176199@N00,61dab1fe39,65535,66,DSC09072,1,0,0,1564983154,tmedvick,7459,8,24,2019 072019 indianadunesnp,41.631483,-87.178659,15,0,,7164792.0,1,0,0,0,03485e6af3,jpg,,True
1032,1032,48226728721,42695219@N07,4b91eb271c,65535,66,Weekend getaway,1,0,0,1562547392,Miles Thompson,3506,4,790,southshoreline commutertrain commuter ogdendunes nictd chicagotrains electrictrain,41.617327,-87.187596,16,0,,4925012.0,1,0,0,0,398b37f5a4,jpg,,True
1033,1033,48210335927,157145782@N02,05f7e77c67,65535,66,Indiana Dunes,1,0,0,1562394395,TylerTDeMar,65535,66,5,,41.630225,-87.177712,16,0,,7164792.0,1,0,0,0,1be7971881,jpg,,True
1035,1035,48182965272,50016386@N06,f348bdd596,65535,66,"NICD 1001 @ Miller, IN",1,0,0,1562099920,Michael Polk,8833,9,800,northern indiana commuter transportation district nictd nicd 1001 emd gp383 south shore line freight work ballast train miller gary,41.604781,-87.244158,16,0,,4918645.0,1,0,0,0,,,,True
1038,1038,48113622377,14533065@N00,f9d2590576,65535,66,,1,0,0,1561293451,slywy,7350,8,2,flickrdupfinder,41.604958,-87.279031,16,0,,4918645.0,1,0,0,0,48cf86b3f5,jpg,,True
1045,1045,48085911337,8432336@N08,852810f21f,65535,66,Chevelle,1,0,0,1560862291,Clint Midwestwood,7753,8,201,,41.630848,-87.17782199999999,16,0,,7164792.0,1,0,0,0,,,,True
1047,1047,48083297527,31385681@N02,a49e119289,65535,66,Here's To You!,1,0,0,1560820791,hoosier hobbies,4064,5,663,,41.519294,-87.431226,16,0,,7164941.0,1,0,0,0,,,,True
1048,1048,48079731972,8432336@N08,bbbab06176,65535,66,Area Closed,1,0,0,1560781950,Clint Midwestwood,7753,8,103,,41.631161,-87.17943100000001,16,0,,7164792.0,1,0,0,0,,,,True
1049,1049,48079729342,8432336@N08,b162e8de5c,65535,66,City by the Lake,1,0,0,1560781951,Clint Midwestwood,7753,8,41,,41.632364,-87.178519,16,0,,7164792.0,1,0,0,0,,,,True
1050,1050,48079624106,8432336@N08,1f9380db31,65535,66,Cason J. Callaway,1,0,0,1560781954,Clint Midwestwood,7753,8,122,,41.633559000000005,-87.177811,16,0,,7164792.0,1,0,0,0,,,,True
1051,1051,48079655093,8432336@N08,24520b2ed8,65535,66,Narie,1,0,0,1560781954,Clint Midwestwood,7753,8,166,,41.633559000000005,-87.177811,16,0,,7164792.0,1,0,0,0,,,,True
1052,1052,48079720972,8432336@N08,efe8f131cb,65535,66,Mouth of the Little Calumet,1,0,0,1560781956,Clint Midwestwood,7753,8,118,,41.633046,-87.178122,16,0,,7164792.0,1,0,0,0,,,,True
1053,1053,48079650113,8432336@N08,c2b5e476ea,65535,66,Wetlands,1,0,0,1560781957,Clint Midwestwood,7753,8,88,,41.632019,-87.17873399999999,16,0,,7164792.0,1,0,0,0,,,,True
1054,1054,48079714557,8432336@N08,eef9498e11,65535,66,Visitor Center,1,0,0,1560781950,Clint Midwestwood,7753,8,54,,41.631049,-87.179163,16,0,,7164792.0,1,0,0,0,,,,True
1068,1068,48055940193,125957122@N05,97465965b7,65535,66,"CSX Q326-31 - Gary, Indiana",1,0,0,1560439548,Tyler Pate,65535,66,1693,csxt csxtransportation garyindiana nikonphotography nikond500 csxq32631 csxt8060,41.610332,-87.222862,16,0,,4925012.0,1,0,0,0,,,,True
1087,1087,47829054272,157624260@N02,8ccfdbc510,65535,66,Another Correct Leader,1,0,0,1558276361,matt.behrmann,1731,2,527,canadianpacificogdendunesportagecp3078gp3822240,41.618025,-87.184324,15,0,MY.sIApTVrzf3khw,2464348.0,1,0,0,0,b9cd4a18bd,jpg,,True
1103,1103,47638794372,19908866@N03,d59cbfd727,65535,66,South Shore #803,1,0,0,1556152488,Jim Strain,1573,2,992,jmstrain train railroad railway locomotive electric southshore illinois indiana,41.596409,-87.297416,16,0,ZkBSSjFYU7PfUT8zkw,91982837.0,1,0,0,0,,,,True
1112,1112,48595529156,41710899@N08,249fea10bf,65535,66,Giant Swallowtail,1,0,0,1566427355,jdf_92,4027,5,219,indiana indianadunes statepark butterfly swallowtail giantswallowtail papiliocresphontes,41.670041999999995,-87.028598,16,0,,4927301.0,1,0,0,0,5333f4c7c0,jpg,,True
1113,1113,48595652712,41710899@N08,5266725457,65535,66,Eastern Tiger Swallowtail on Joe Pye Weed,1,0,0,1566427360,jdf_92,4027,5,214,indiana indianadunes statepark butterfly easterntigerswallowtail insect papilioglaucus joepyeweed,41.651238,-87.04818900000001,16,0,,4927301.0,1,0,0,0,4a67177a42,jpg,,True
1114,1114,48595649277,41710899@N08,4b98e9a908,65535,66,Scouring Rush,1,0,0,1566427362,jdf_92,4027,5,197,indiana indianadunes statepark horsetail scouringrush equisetumhyemale,41.660801,-87.061622,16,0,,4927301.0,1,0,0,0,90e68478fc,jpg,,True
1115,1115,48595417517,27863613@N07,2d59a2a5b4,65535,66,My new hood ornament,1,0,0,1566425028,osbo,1716,2,74,tree frog,41.637001,-87.087039,16,0,,4919785.0,1,0,0,0,f4160cf6d7,jpg,,True
1121,1121,48559991677,14533065@N00,8b41d561bc,65535,66,Dunes Clothiers at the Schoolhouse Shop,1,0,0,1566063716,slywy,7350,8,0,,41.651355,-87.013856,16,0,,4920557.0,1,0,0,0,f9bd7091a2,jpg,,True
1122,1122,48559851261,14533065@N00,86a8fed9df,65535,66,,1,0,0,1566063711,slywy,7350,8,0,,41.651355,-87.01387,16,0,,4920557.0,1,0,0,0,54c4b6c246,jpg,,True
1123,1123,48559851226,14533065@N00,24330fa6d1,65535,66,,1,0,0,1566063711,slywy,7350,8,0,,41.651177000000004,-87.013625,16,0,,4920557.0,1,0,0,0,0b2ebcc7a9,jpg,,True
1124,1124,48559845511,14533065@N00,027556b583,65535,66,Ailanthus webworm moth,1,0,0,1566063654,slywy,7350,8,0,,41.651344,-87.014131,16,0,,4920557.0,1,0,0,0,aeaf738ff0,jpg,,True
1131,1131,48526294637,27863613@N07,e9fbcf10a7,65535,66,Red-headed woodpeckers,1,0,0,1565680011,osbo,1716,2,23,,41.677431,-86.995799,16,0,,7164557.0,1,0,0,0,0c5daf002b,jpg,,True
1133,1133,48515621236,27863613@N07,6c9c26e7d1,65535,66,Downy woodpecker,1,0,0,1565570464,osbo,1716,2,100,,41.677431,-86.995799,16,0,,7164557.0,1,0,0,0,b1ee61d427,jpg,,True
1134,1134,48514736496,24842953@N04,fa4ca8a1ba,65535,66,End of state route 49 - Indiana,1,0,0,1565560523,Prairie Star,2412,3,280,endsign highwaysign roadsign unitedstates midwest indiana sign highwaysigns trees stateroutesign end roadsigns usa tree sunny stateroute49 49,41.642219,-87.06250899999999,15,0,,4928112.0,1,0,0,0,,,,True
1161,1161,48440542251,15937237@N00,e02656f353,65535,66,Good Fellow Youth Camp at Indiana Dunes National Park,1,0,0,1564771112,Stu_Jo,7422,8,81,good fellow youth camp indiana dunes national park goodfellowyouthcampatindianadunesnationalpark goodfellowyouthcamp indianadunesnationalpark us steel company ussteelcompany summer summercamp employees children in mainlodge nps nationalparkservice,41.626638,-87.100414,16,0,,7164826.0,1,0,0,0,,,,True
1162,1162,48440542131,15937237@N00,40c4f7da3f,65535,66,Good Fellow Youth Camp at Indiana Dunes National Park,1,0,0,1564771113,Stu_Jo,7422,8,163,good fellow youth camp indiana dunes national park goodfellowyouthcampatindianadunesnationalpark goodfellowyouthcamp indianadunesnationalpark us steel company ussteelcompany summer summercamp employees children in mainlodge nps nationalparkservice,41.626638,-87.100414,16,0,,7164826.0,1,0,0,0,,,,True
1167,1167,48292859157,50016386@N06,772b62d16f,65535,66,"NICD 1001 @ Chesterton, IN",1,0,0,1563221289,Michael Polk,8833,9,808,chicago south shore bend railroad emd gp383 nicd nictd 1001 freight train rail dune park chesterton,41.645594,-87.05942900000001,16,0,,4928112.0,1,0,0,0,,,,True
1168,1168,48292759156,50016386@N06,3829f9dc67,65535,66,"NICD 1001 @ Beverly Shores, IN",1,0,0,1563221290,Michael Polk,8833,9,915,chicago south shore bend railroad emd gp383 nicd nictd 1001 freight train rail beverly shores depot station,41.673269,-86.985261,16,0,,7164557.0,1,0,0,0,,,,True
1186,1186,48216870467,14533065@N00,6ffdfc28f6,65535,66,Schoolhouse Shop,1,0,0,1562458509,slywy,7350,8,0,,41.651066,-87.013864,16,0,,4924827.0,1,0,0,0,e95ac63361,jpg,,True
1189,1189,48215683467,14533065@N00,6ddfa5a412,65535,66,Rose-breasted grosbeak at the Schoolhouse Shop,1,0,0,1562446962,slywy,7350,8,12,,41.6511,-87.013887,16,0,,4924827.0,1,0,0,0,3412f8160f,jpg,,True
1191,1191,48215621661,14533065@N00,6e9e152ee6,65535,66,Chicago in the distance from Indiana Dunes State Park,1,0,0,1562446792,slywy,7350,8,4,,41.662,-87.064195,16,0,,4928112.0,1,0,0,0,e2dac1f1ce,jpg,,True
1194,1194,48215661442,14533065@N00,cfea8850b5,65535,66,Indiana Dunes State Park,1,0,0,1562446757,slywy,7350,8,5,,41.662277,-87.064187,16,0,,4928112.0,1,0,0,0,99ccfdca2f,jpg,,True
1197,1197,48213442526,50016386@N06,e22948d47a,65535,66,"NICD 1001 @ Baillytown, IN",1,0,0,1562429007,Michael Polk,8833,9,508,nicd 1001 css 2008 gp38 emd 1000 nictd chicago south shore bend railroad freight train line michigan city chesterton bailly baillytown indiana,41.629290000000005,-87.110338,16,0,,7164587.0,1,0,0,0,,,,True
1198,1198,48213441851,50016386@N06,3ee5bc1e05,65535,66,"NICD 1001 @ Chesterton, IN",1,0,0,1562429008,Michael Polk,8833,9,552,nicd 1001 css 2008 gp38 emd 1000 nictd chicago south shore bend railroad freight train line michigan city chesterton bailly baillytown indiana,41.646128000000004,-87.05873199999999,16,0,,4928112.0,1,0,0,0,,,,True
1199,1199,48213495132,50016386@N06,d55cea69e4,65535,66,"NICD 1001 @ Michigan City, IN",1,0,0,1562429008,Michael Polk,8833,9,537,nicd 1001 css 2008 gp38 emd 1000 nictd chicago south shore bend railroad freight train line michigan city chesterton bailly baillytown indiana,41.706229,-86.92500799999999,16,0,,4923541.0,1,0,0,0,,,,True
1214,1214,48091938868,8432336@N08,e58e15cb82,65535,66,Florida Tropical House,1,0,0,1560949228,Clint Midwestwood,7753,8,79,,41.684563,-87.002073,16,0,,4924827.0,1,0,0,0,,,,True
1215,1215,48091994027,8432336@N08,5740249ebb,65535,66,Crashing,1,0,0,1560949229,Clint Midwestwood,7753,8,102,,41.684835,-87.001204,16,0,,4924827.0,1,0,0,0,,,,True
1216,1216,48091936238,8432336@N08,995580a536,65535,66,Skip,1,0,0,1560949230,Clint Midwestwood,7753,8,90,,41.684835,-87.001204,16,0,,4924827.0,1,0,0,0,,,,True
1217,1217,48091992047,8432336@N08,7a73d28df0,65535,66,Rocks,1,0,0,1560949230,Clint Midwestwood,7753,8,88,,41.684835,-87.001204,16,0,,4924827.0,1,0,0,0,,,,True
1218,1218,48091895586,8432336@N08,e327e33613,65535,66,GET OFF MY BEACH!,1,0,0,1560949232,Clint Midwestwood,7753,8,98,,41.684835,-87.001204,16,0,,4924827.0,1,0,0,0,,,,True
1219,1219,48091894716,8432336@N08,6c320d1943,65535,66,Haughty,1,0,0,1560949233,Clint Midwestwood,7753,8,96,,41.684835,-87.001204,16,0,,4924827.0,1,0,0,0,,,,True
1220,1220,48091931148,8432336@N08,723c576e29,65535,66,A Long Walk,1,0,0,1560949233,Clint Midwestwood,7753,8,117,,41.684835,-87.001204,16,0,,4924827.0,1,0,0,0,,,,True
1221,1221,48085868408,8432336@N08,f853cb4d2d,65535,66,Kemil Beach,1,0,0,1560862292,Clint Midwestwood,7753,8,93,,41.687014000000005,-86.99528199999999,16,0,,4924827.0,1,0,0,0,,,,True
1222,1222,48085867478,8432336@N08,92dc5c3fc0,65535,66,A Sunny Day,1,0,0,1560862293,Clint Midwestwood,7753,8,136,,41.68711,-86.994928,16,0,,4924827.0,1,0,0,0,,,,True
1223,1223,48085818556,8432336@N08,7ec35ae0e8,65535,66,Erosion,1,0,0,1560862294,Clint Midwestwood,7753,8,102,,41.686678,-86.99641899999999,16,0,,4924827.0,1,0,0,0,,,,True
1224,1224,48085817751,8432336@N08,28932c3539,65535,66,All Parks Mather,1,0,0,1560862292,Clint Midwestwood,7753,8,105,,41.68659,-86.99589300000001,16,0,,4924827.0,1,0,0,0,,,,True
1232,1232,48036763311,116244791@N02,201d2086eb,65535,66,,1,0,0,1560173658,KX's photography,3759,4,21,,41.650047,-87.05845,16,0,,4928112.0,1,0,0,0,,,,True
1236,1236,47968694802,14533065@N00,bf03f18a87,65535,66,,1,0,0,1559257084,slywy,7350,8,4,flickrdupfinder,41.662277,-87.064187,16,0,HbIt3p1TVr1Vcbg_,2475570.0,1,0,0,0,97548c62ee,jpg,,True
1238,1238,47926023182,14533065@N00,0068f50112,65535,66,,1,0,0,1558738519,slywy,7350,8,7,flickrdupfinder,41.624221999999996,-87.09015600000001,16,0,t4Rq9J1TUbMWSgNa,2394402.0,1,0,0,0,5e3a946094,jpg,,True
1249,1249,47638675921,50615271@N06,5257c1756a,65535,66,"Beverly Shores Beach, Indiana Dunes, Indiana",1,0,0,1555618566,jtpenny,7860,8,58,beach indiana lake,41.6815,-87.0105,16,0,hi4gYiZTUbzKaJk3,2363809.0,1,0,0,0,,,,True
1254,1254,40626402583,95007796@N06,008154c725,7923,8,Northern Indiana Power,1,0,0,1555074944,BravoDelta1999,4897,5,714,chicagosouthshoreandsouthbend csssb railroad css freight southshore railway michigancity indiana emd gp382 2000 manifest train power siding,41.694233000000004,-86.93849399999999,16,0,5Jewsh5TV7odQXPQ,2507447.0,1,0,0,0,2c6c527367,jpg,,True
1259,1259,46568176925,73784413@N00,fb27c18c7c,7866,8,H-2 Elephant Style,1,0,0,1553745994,amtrak_russ,7393,8,398,twobnsfh2dash9sleadamixedfreighttrainpastthesouthshorestationinogdendunes indiana ge ns chicago line train railroad,41.617527,-87.186791,15,0,MY.sIApTVrzf3khw,2464348.0,1,0,0,0,8bed919dfa,jpg,,True
1261,1261,46753336424,143261836@N06,258f8f5eb4,7857,8,Indiana Dunes,1,0,0,1553664127,urbsinhorto1837,8138,9,489,barren cowlesbogtrail indiana indianadunes lakemichigan landscape light nationalpark nature outdoors sand trail trees water,41.647518,-87.111561,15,0,HbIt3p1TVr1Vcbg_,2475570.0,1,0,0,0,,,,True
1263,1263,47388569202,8432336@N08,5fa8fc43e1,7862,8,Why?,1,0,0,1553260444,Clint Midwestwood,7753,8,237,,41.708771999999996,-86.931885,16,0,jZ0wWelTVr8AQRAR,2450144.0,1,0,0,0,,,,True
1317,1317,47126258682,95007796@N06,1d5f03cd54,7825,8,Under Wire,1,0,0,1550858865,BravoDelta1999,4897,5,374,chicagosouthshoreandsouthbend csssb railroad southshore freight css railway dunepark indiana dunes national lakeshore park nictd line station emd gp382 2004 manifest train,41.644978,-87.0612,15,0,HbIt3p1TVr1Vcbg_,2475570.0,1,0,0,0,bed2c510c9,jpg,,True
1327,1327,40176775323,24084206@N08,1afe74539a,7915,8,Southern serves Ogden Dunes,1,0,0,1550547775,Robby Gragg,7819,8,2351,ns sou es44ac 8099 ogden dunes,41.610396,-87.2224,16,0,tIhqGGZTVr92QjVl,2451281.0,1,0,0,0,8200e9b9c9,jpg,,True
1329,1329,40175630523,47783317@N00,7cc458ae4d,7849,8,bev shores,1,0,0,1550539221,ICE_6418,2746,3,943,,41.673072,-86.985712,16,0,hi4gYiZTUbzKaJk3,2363809.0,1,0,0,0,,,,True
1343,1343,46386116724,8432336@N08,6006bee863,7877,8,Indiana Dunes National Park,1,0,0,1550299504,Clint Midwestwood,7753,8,667,,41.64727,-87.115498,16,0,HbIt3p1TVr1Vcbg_,2475570.0,1,0,0,0,,,,True
1346,1346,46374458844,47783317@N00,0bc5bb4dfd,7875,8,SsOoUuTtHhSsHhOoRrEe,1,0,0,1550195016,ICE_6418,2746,3,936,,41.605253999999995,-87.242699,16,0,tIhqGGZTVr92QjVl,2451281.0,1,0,0,0,,,,True
1350,1350,47075177671,26442777@N03,4312c6d1e2,7841,8,Pere Marquette,1,0,0,1550002566,austinsasse,7387,8,99,,41.620488,-87.121539,16,0,nhNcGqpTUb3TSWX1,2372201.0,1,0,0,0,13b204a876,jpg,,True
1364,1364,40065920273,95007796@N06,d3e3374f3a,7880,8,End of Double Track,1,0,0,1549664244,BravoDelta1999,4897,5,704,chicagosouthshoreandsouthbend csssb railroad css railway southshore freight emd gp382 2006 manifest train nictd line miller gary indiana,41.604236,-87.246422,15,0,tIhqGGZTVr92QjVl,2451281.0,1,0,0,0,a9317f6a05,jpg,,True
1370,1370,46096721165,95007796@N06,bfafc170fe,7913,8,Whiteout,1,0,0,1549497619,BravoDelta1999,4897,5,475,chicagosouthshoreandsouthbend csssb railroad css railway southshore freight elginjolietandeastern eje canadiannational cn citytrack gary indiana emd gp382 2000 manifest train,41.604493,-87.32985,15,0,mJo41EJUVL_NimN0BA,56572768.0,1,0,0,0,ee248b6014,jpg,,True
1372,1372,33135283538,95007796@N06,41ab19b000,7882,8,Legends Never Die,1,0,0,1549497621,BravoDelta1999,4897,5,893,chicagosouthshoreandsouthbend csssb railroad css railway southshore line freight nictd miller siding gary indiana emd gp382 2000 2005 beltjob manifest train,41.604236,-87.246422,15,0,tIhqGGZTVr92QjVl,2451281.0,1,0,0,0,bfb8e83847,jpg,,True
1374,1374,32065865997,95007796@N06,0028117e47,4873,5,Inter Urban,1,0,0,1549471793,BravoDelta1999,4897,5,849,chicagosouthshoreandsouthbend csssb railroad css railway southshoreline nictd manifest emd gp382 2000 miller siding gary indiana,41.604236,-87.246422,15,0,tIhqGGZTVr92QjVl,2451281.0,1,0,0,0,0059069af0,jpg,,True
1378,1378,40036088973,63686383@N08,a6be844e12,7895,8,Getting Around,1,0,0,1549418960,Patrick McDonnell Photography,4728,5,157,css south shore eje lake effect,41.604516,-87.329431,16,0,mJo41EJUVL_NimN0BA,56572768.0,1,0,0,0,0a44205964,jpg,,True
1395,1395,33660467438,61609046@N06,108afb71a1,7876,8,South Shore Freight under the Wire,1,0,0,1554404320,Roman Daniels,65535,66,798,,41.610324,-87.222561,15,0,tIhqGGZTVr92QjVl,2451281.0,1,0,0,0,,,,True
1396,1396,47527793051,8432336@N08,a44a479d4a,7855,8,Sail Away,1,0,0,1554280638,Clint Midwestwood,7753,8,129,,41.71224,-86.92456800000001,16,0,jZ0wWelTVr8AQRAR,2450144.0,1,0,0,0,,,,True
1397,1397,47495978321,143261836@N06,c3dda1d24f,7885,8,What A View,1,0,0,1553904621,urbsinhorto1837,8138,9,561,barren cowlesbogtrail indiana indianadunes lakemichigan landscape light nationalpark nature outdoors trail trees water,41.647646,-87.110381,15,0,HbIt3p1TVr1Vcbg_,2475570.0,1,0,0,0,,,,True
1398,1398,47489728171,143261836@N06,f51841d3d8,7803,8,Now Leaving,1,0,0,1553826214,urbsinhorto1837,8138,9,393,barren cowlesbogtrail indiana indianadunes landscape light nationalpark nature outdoors powerlines road trees,41.645049,-87.086777,15,0,t4Rq9J1TUbMWSgNa,2394402.0,1,0,0,0,,,,True
1399,1399,47483946501,143261836@N06,a8d916befd,7896,8,The Path Less Traveled,1,0,0,1553753062,urbsinhorto1837,8138,9,389,barren cowlesbogtrail indiana indianadunes landscape light nationalpark nature outdoors trail trees,41.644616,-87.105767,15,0,t4Rq9J1TUbMWSgNa,2394402.0,1,0,0,0,,,,True
1407,1407,47480184351,8432336@N08,9c9fffe70b,7873,8,More Erosion,1,0,0,1553706180,Clint Midwestwood,7753,8,172,,41.709072,-86.931177,16,0,jZ0wWelTVr8AQRAR,2450144.0,1,0,0,0,,,,True
1409,1409,46740622504,8432336@N08,1fca248087,7824,8,"Jagged Vacance, Thick With Ice",1,0,0,1553517804,Clint Midwestwood,7753,8,127,,41.710237,-86.929053,16,0,jZ0wWelTVr8AQRAR,2450144.0,1,0,0,0,,,,True
1410,1410,32521981407,8432336@N08,a65b4b44c1,7841,8,End of the Line,1,0,0,1553517807,Clint Midwestwood,7753,8,77,,41.714354,-86.921693,16,0,jZ0wWelTVr8AQRAR,2450144.0,1,0,0,0,,,,True
1411,1411,32521977247,8432336@N08,766f59f611,7889,8,Around the Corner,1,0,0,1553517808,Clint Midwestwood,7753,8,99,,41.714979,-86.921285,16,0,jZ0wWelTVr8AQRAR,2450144.0,1,0,0,0,,,,True
1412,1412,46548531465,8432336@N08,28f1302489,7842,8,"I Could See for Miles, Miles, Miles",1,0,0,1553517806,Clint Midwestwood,7753,8,91,,41.710237,-86.929053,16,0,jZ0wWelTVr8AQRAR,2450144.0,1,0,0,0,,,,True
1413,1413,46548526865,8432336@N08,7b4a3a81e7,7810,8,Update,1,0,0,1553517801,Clint Midwestwood,7753,8,126,,41.709773,-86.931306,16,0,jZ0wWelTVr8AQRAR,2450144.0,1,0,0,0,,,,True
1414,1414,47441503851,8432336@N08,9aa0dc8eec,7919,8,America's 61st National Park,1,0,0,1553260443,Clint Midwestwood,7753,8,257,,41.708771999999996,-86.931885,16,0,jZ0wWelTVr8AQRAR,2450144.0,1,0,0,0,,,,True
1415,1415,46718362984,8432336@N08,712e675444,7916,8,Have I Been There?,1,0,0,1553260445,Clint Midwestwood,7753,8,111,,41.708771999999996,-86.931885,16,0,jZ0wWelTVr8AQRAR,2450144.0,1,0,0,0,,,,True
1416,1416,47388565852,8432336@N08,3ca8bcb996,7851,8,Pretty,1,0,0,1553260445,Clint Midwestwood,7753,8,157,,41.708771999999996,-86.931885,16,0,jZ0wWelTVr8AQRAR,2450144.0,1,0,0,0,,,,True
1417,1417,32499664017,8432336@N08,3e9000c787,7812,8,Scofflaw,1,0,0,1553260443,Clint Midwestwood,7753,8,736,,41.708587,-86.931627,16,0,jZ0wWelTVr8AQRAR,2450144.0,1,0,0,0,,,,True
1418,1418,47439386141,8432336@N08,26fd5ddf48,7828,8,Danger! Peligro! Area Closed!,1,0,0,1553231643,Clint Midwestwood,7753,8,374,,41.707058,-86.932604,16,0,jZ0wWelTVr8AQRAR,2450144.0,1,0,0,0,,,,True
1419,1419,47434873451,8432336@N08,f6cd5887bf,7824,8,Controlled Burn,1,0,0,1553179446,Clint Midwestwood,7753,8,85,,41.643269000000004,-87.086691,15,0,WaBy8AVTUbPAaHSi,2394403.0,1,0,0,0,,,,True
1420,1420,40469039383,8432336@N08,d38643b36a,7835,8,Mt. Baldy Update,1,0,0,1553179448,Clint Midwestwood,7753,8,210,,41.707218,-86.928688,16,0,jZ0wWelTVr8AQRAR,2450144.0,1,0,0,0,,,,True
1421,1421,46519727195,8432336@N08,8351da3b33,7881,8,Crane Wives and Husbands,1,0,0,1553179447,Clint Midwestwood,7753,8,219,,41.643269000000004,-87.086691,15,0,WaBy8AVTUbPAaHSi,2394403.0,1,0,0,0,,,,True
1422,1422,40469035803,8432336@N08,351e22f832,7880,8,Indiana Dunes National Park,1,0,0,1553179446,Clint Midwestwood,7753,8,178,,41.630945000000004,-87.101261,16,0,t4Rq9J1TUbMWSgNa,2394402.0,1,0,0,0,,,,True
1437,1437,33522000188,48862855@N00,62476c62e8,7884,8,Indiana Dunes,1,0,0,1552777312,Ernesto  Vumbles,3763,4,120,indiana dunes drive,41.683766,-87.00241199999999,16,0,zrLWj_BQUL8TkLYj6w,12588243.0,1,0,0,0,d87aafb3e7,jpg,,True
1438,1438,46482857915,48862855@N00,1251d9a41a,4908,5,Indiana Dunes,1,0,0,1552777312,Ernesto  Vumbles,3763,4,117,indiana dunes drive,41.683813,-87.00241199999999,16,0,zrLWj_BQUL8TkLYj6w,12588243.0,1,0,0,0,fcbe5c4880,jpg,,True
1439,1439,33521992798,48862855@N00,5d8586f877,7891,8,Indiana Dunes,1,0,0,1552777313,Ernesto  Vumbles,3763,4,114,indiana dunes drive,41.684005,-87.002512,16,0,zrLWj_BQUL8TkLYj6w,12588243.0,1,0,0,0,bc2728500a,jpg,,True
1440,1440,47345171002,48862855@N00,f1152855ee,7877,8,Indiana Dunes,1,0,0,1552777313,Ernesto  Vumbles,3763,4,123,indiana dunes drive,41.684333,-87.002442,16,0,zrLWj_BQUL8TkLYj6w,12588243.0,1,0,0,0,457ccbfe67,jpg,,True
1452,1452,40338885313,143609067@N06,2c8ae7589a,7882,8,IMG_3914.jpg,1,0,0,1551913899,kaswindell,65535,66,442,,41.662684999999996,-87.06253000000001,15,0,HbIt3p1TVr1Vcbg_,2475570.0,1,0,0,0,,,,True
1460,1460,46469192754,77106407@N02,ee3d3775a3,65535,66,Hunter's Moon over Wetlands,1,0,0,1550982836,Terrance Alexander Photography,65535,66,37,sunrisesunsetmoon chesterton indiana unitedstates us greatlakes lakemichigan,41.678754999999995,-86.990009,16,0,,7164557.0,1,0,0,0,4863dbf589,jpg,,True
1461,1461,33317397248,77106407@N02,ce484c379d,65535,66,Hunter's Moon Over Wetlands,1,0,0,1550982829,Terrance Alexander Photography,65535,66,15,sunrisesunsetmoon greatlakes lakemichigan,41.678754999999995,-86.990009,16,0,,7164557.0,1,0,0,0,1ed78373ce,jpg,,True
1462,1462,47177627211,77106407@N02,7be9a4340e,65535,66,Armco-Ferro House of Tomorrow,1,0,0,1550853245,Terrance Alexander Photography,65535,66,33,greatlakes lakemichigan,41.685277,-86.997242,16,0,,7164557.0,1,0,0,0,088d59966b,jpg,,True
1463,1463,47177622901,77106407@N02,11750947c4,65535,66,Florida Tropical House,1,0,0,1550853226,Terrance Alexander Photography,65535,66,22,greatlakes lakemichigan,41.684302,-87.001225,16,0,,4918099.0,1,0,0,0,dd5387355d,jpg,,True
1471,1471,47075177141,26442777@N03,c94bc15805,7842,8,"SP, CR, and UP GE's",1,0,0,1550002567,austinsasse,7387,8,69,,41.616886,-87.107516,16,0,y5VqNrhTVrstY0xK,2416044.0,1,0,0,0,9fb0a0972f,jpg,,True
1482,1482,46978670622,95007796@N06,cd56dbb6be,7885,8,Beverly Shores Cop,1,0,0,1549664243,BravoDelta1999,4897,5,411,chicagosouthshoreandsouthbend csssb railroad css railway southshore freight emd gp382 2006 manifest train nictd line beverlyshores indiana station stop depot,41.672856,-86.985754,15,0,hi4gYiZTUbzKaJk3,2363809.0,1,0,0,0,feb694e07a,jpg,,True
1484,1484,46955325122,95007796@N06,9d0400cde3,7867,8,Shore Leave,1,0,0,1549471791,BravoDelta1999,4897,5,331,northern indiana commuter transportation district nictd southshore line chicagosouthshoreandsouthbend csssb railroad css railway beverlyshores dunes national lakeshore nippon sharyo electric multipleunit mu emu interurban 108,41.672856,-86.985754,15,0,hi4gYiZTUbzKaJk3,2363809.0,1,0,0,0,d90bf88c0d,jpg,,True
1485,1485,46283105784,95007796@N06,e78ac8e0f9,7879,8,Livin' in Beverly Shores,1,0,0,1549471792,BravoDelta1999,4897,5,403,chicagosouthshoreandsouthbend csssb railroad css railway southshoreline nictd belt job manifest emd gp382 2005 beverlyshores indiana dunes national lakeshore depot station stop,41.672856,-86.985754,15,0,hi4gYiZTUbzKaJk3,2363809.0,1,0,0,0,0a3413a0ec,jpg,,True
1491,1491,33062179698,138249882@N06,12097b22be,7922,8,Black and White of Cloudy Day at Indiana Dunes,1,0,0,1548938537,havephonewilltravel,5689,6,301,indiana usa roadtrip iphoneography vsco blackandwhite nature wanderlust beach lakemichigan greatlakes cloudy cloudporn clouds,41.662708,-87.063059,16,0,HbIt3p1TVr1Vcbg_,2475570.0,1,0,0,0,82444aa89a,jpg,,True
1520,1520,45862062435,155792227@N03,818628fe04,7850,8,Berverly Shores Railway,1,0,0,1547737063,BaerTi's Bilder,7873,8,276,schienen microsoft lumia 950 xl 950xl usa 2018 railway,41.672913,-86.98572,16,0,hi4gYiZTUbzKaJk3,2363809.0,1,0,0,0,8472088833,jpg,,True
1521,1521,45862061285,155792227@N03,28daf909b9,4861,5,Beverly Shores Railway,1,0,0,1547737064,BaerTi's Bilder,7873,8,253,bahnhof microsoft lumia 950 xl 950xl usa 2018,41.672902,-86.98565,16,0,hi4gYiZTUbzKaJk3,2363809.0,1,0,0,0,57110634de,jpg,,True
1555,1555,45436241335,8432336@N08,c3dd985fd3,4830,5,Marsh Grass,1,0,0,1545023139,Clint Midwestwood,7753,8,4051,,41.639108,-87.104136,16,0,t4Rq9J1TUbMWSgNa,2394402.0,1,0,0,0,,,,True
1556,1556,31409406177,8432336@N08,14fb328fe6,4846,5,Almost There,1,0,0,1545023139,Clint Midwestwood,7753,8,117,,41.637761,-87.10248399999999,16,0,t4Rq9J1TUbMWSgNa,2394402.0,1,0,0,0,,,,True
1586,1586,45049062985,19531332@N03,831c57decc,4875,5,Standard Horses,1,0,0,1542665919,Metra 614,8140,9,307,,41.610331,-87.22237,16,0,tIhqGGZTVr92QjVl,2451281.0,1,0,0,0,,,,True
1597,1597,31835099788,24084206@N08,828aac2c77,1964,2,Welcome fall,1,0,0,1541302500,Robby Gragg,7819,8,1229,ns sd70 2503 odgen dunes,41.618025,-87.184238,16,0,MY.sIApTVrzf3khw,2464348.0,1,0,0,0,8cec08a79f,jpg,,True
1600,1600,30742142857,23011689@N00,ca3a56fbf0,4901,5,IMG_0033,1,0,0,1541175022,Justin M Vickers,3819,4,73,,41.608016,-87.276712,16,0,tIhqGGZTVr92QjVl,2451281.0,1,0,0,0,2cf8b2ff32,jpg,,True
1697,1697,45049071335,19531332@N03,8e4f8c0ebf,4884,5,CSS Freight,1,0,0,1542665919,Metra 614,8140,9,604,,41.631591,-87.10283199999999,15,0,t4Rq9J1TUbMWSgNa,2394402.0,1,0,0,0,,,,True
1698,1698,45049067715,19531332@N03,c05daee194,4850,5,Geeps at Bailey,1,0,0,1542665919,Metra 614,8140,9,509,,41.631591,-87.10283199999999,15,0,t4Rq9J1TUbMWSgNa,2394402.0,1,0,0,0,,,,True
1707,1707,45732262981,40727760@N08,a70834126a,4810,5,Black Cow,1,0,0,1541424882,KTempelman,7416,8,66,cow indiana farm,41.626983,-87.089191,16,0,t4Rq9J1TUbMWSgNa,2394402.0,1,0,0,0,722dfc3c07,jpg,,True
1711,1711,45654285932,11199582@N03,6a7925eacc,1925,2,"Indiana Dunes National Lakeshore - Chesterton, Indiana",1,0,0,1541290098,c.harnish,2810,3,101,chris chrisharnish harnish lakemichigan dunes selfportrait wwwchrisharnishcom chesterton indiana unitedstates,41.676808,-87.017544,16,0,HbIt3p1TVr1Vcbg_,2475570.0,1,0,0,0,2a161d9cbd,jpg,,True
1724,1724,31565279938,96131010@N08,3e371c9bd4,1904,2,tumbling flower beetle,1,0,0,1540006890,Nash Turley's nature photography,2871,3,65,mordellidae beetle coleoptera indiana indianadunesnationallakeshore tumblingflowerbeetle duneacres unitedstates,41.646619,-87.097723,16,0,t4Rq9J1TUbMWSgNa,2394402.0,1,0,0,0,0b7afecf3c,jpg,,True
1725,1725,30500111607,96131010@N08,8d3644d192,1932,2,beetle on wild rose,1,0,0,1540006890,Nash Turley's nature photography,2871,3,61,mordellidae beetle coleoptera indiana indianadunesnationallakeshore tumblingflowerbeetle duneacres unitedstates,41.646619,-87.097723,16,0,t4Rq9J1TUbMWSgNa,2394402.0,1,0,0,0,9553ae0096,jpg,,True
1746,1746,44640541274,50016386@N06,e5724552d6,1966,2,"CSS 2000 @ Ogden Dunes, IN",1,0,0,1539703271,Michael Polk,8833,9,1319,chicago south shore bend railroad emd gp382 freight train locomotive indiana ogden dunes interurban national lakeshore,41.61547,-87.200406,16,0,MY.sIApTVrzf3khw,2464348.0,1,0,0,0,,,,True
1764,1764,31294681088,8073745@N05,86c508d47d,1911,2,Out of the Fog,1,0,0,1538961845,The Mastadon,4449,5,961,,41.618045,-87.184656,16,0,,4924412.0,1,0,0,0,,,,True
1765,1765,45168490911,8073745@N05,45b8895cac,1935,2,Looking for Work,1,0,0,1538961845,The Mastadon,4449,5,1117,,41.618045,-87.184656,16,0,,4924412.0,1,0,0,0,,,,True
1771,1771,44983795492,42826208@N05,9192e32e50,1977,2,20180525_101520,1,0,0,1538402526,National Park Trust,3866,4,12,,41.625202,-87.20796700000001,16,0,wCNfEexTVr1dfHEJ,2475545.0,1,0,0,0,,,,True
1772,1772,31159103318,42826208@N05,85d6a01fca,1969,2,20180525_101531,1,0,0,1538402527,National Park Trust,3866,4,12,,41.625202,-87.20796700000001,16,0,wCNfEexTVr1dfHEJ,2475545.0,1,0,0,0,,,,True
1773,1773,44983793992,42826208@N05,13cff0a2a5,1976,2,20180525_101621,1,0,0,1538402529,National Park Trust,3866,4,26,indianadunesnationallakeshore josedediego chicago indiana buddybison nationalparktrust nationalparkservice,41.626094,-87.20756999999999,16,0,wCNfEexTVr1dfHEJ,2475545.0,1,0,0,0,,,,True
1774,1774,31159102168,42826208@N05,8459174440,1939,2,20180525_101533,1,0,0,1538402528,National Park Trust,3866,4,12,,41.625202,-87.20796700000001,16,0,wCNfEexTVr1dfHEJ,2475545.0,1,0,0,0,,,,True
